{ "type": "Feature", "tippecanoe": { "layer": "2AFCA13B3A901583917932507", "minzoom": 2, "maxzoom": 8 }, "properties": { "halo": 0.8, "title": "古白令海文化", "fontsize": 12, "tyid": "304002", "oid": "103:1562760076220", "color": "#262626" }, "geometry": { "type": "Point", "coordinates": [ -170.332031, 63.470145 ] } }
{ "type": "Feature", "tippecanoe": { "layer": "2AFCA13B3A901583917932507", "minzoom": 2, "maxzoom": 8 }, "properties": { "halo": 0.8, "title": "查普卡洛文化", "fontsize": 12, "tyid": "304002", "oid": "103:1562760076371", "color": "#262626" }, "geometry": { "type": "Point", "coordinates": [ -99.931641, 20.303418 ] } }
{ "type": "Feature", "tippecanoe": { "layer": "2AFCA13B3A901583917932507", "minzoom": 2, "maxzoom": 8 }, "properties": { "halo": 0.8, "title": "特奥蒂瓦坎", "fontsize": 12, "tyid": "304002", "oid": "103:1535120141454", "color": "#262626" }, "geometry": { "type": "Point", "coordinates": [ -99.404297, 19.808054 ] } }
{ "type": "Feature", "tippecanoe": { "layer": "2AFCA13B3A901583917932507", "minzoom": 2, "maxzoom": 8 }, "properties": { "halo": 0.8, "title": "米斯特克人", "fontsize": 12, "tyid": "304001", "oid": "103:1535120141455", "color": "#262626" }, "geometry": { "type": "Point", "coordinates": [ -98.349609, 17.224758 ] } }
{ "type": "Feature", "tippecanoe": { "layer": "2AFCA13B3A901583917932507", "minzoom": 2, "maxzoom": 8 }, "properties": { "halo": 0.8, "title": "特里克人", "fontsize": 12, "tyid": "304001", "oid": "103:1562760076352", "color": "#262626" }, "geometry": { "type": "Point", "coordinates": [ -97.294922, 17.644022 ] } }
{ "type": "Feature", "tippecanoe": { "layer": "2AFCA13B3A901583917932507", "minzoom": 2, "maxzoom": 8 }, "properties": { "halo": 0.8, "title": "洛瓦贾达斯文化", "fontsize": 12, "tyid": "304002", "oid": "103:1562760076811", "color": "#262626" }, "geometry": { "type": "Point", "coordinates": [ -96.416016, 19.145168 ] } }
{ "type": "Feature", "tippecanoe": { "layer": "2AFCA13B3A901583917932507", "minzoom": 2, "maxzoom": 8 }, "properties": { "halo": 0.8, "title": "麦克斯人", "fontsize": 12, "tyid": "304001", "oid": "103:1562760076907", "color": "#262626" }, "geometry": { "type": "Point", "coordinates": [ -96.328125, 18.062312 ] } }
{ "type": "Feature", "tippecanoe": { "layer": "2AFCA13B3A901583917932507", "minzoom": 2, "maxzoom": 8 }, "properties": { "halo": 0.8, "title": "后奥尔梅克文化", "fontsize": 12, "tyid": "304002", "oid": "103:1562760076512", "color": "#262626" }, "geometry": { "type": "Point", "coordinates": [ -95.625000, 18.479609 ] } }
{ "type": "Feature", "tippecanoe": { "layer": "2AFCA13B3A901583917932507", "minzoom": 2, "maxzoom": 8 }, "properties": { "halo": 0.8, "title": "佐齐尔人", "fontsize": 12, "tyid": "304001", "oid": "103:1562760076269", "color": "#262626" }, "geometry": { "type": "Point", "coordinates": [ -93.339844, 16.551962 ] } }
{ "type": "Feature", "tippecanoe": { "layer": "2AFCA13B3A901583917932507", "minzoom": 2, "maxzoom": 8 }, "properties": { "halo": 0.8, "title": "祖赫人", "fontsize": 12, "tyid": "304001", "oid": "103:1562760076564", "color": "#262626" }, "geometry": { "type": "Point", "coordinates": [ -92.109375, 16.045813 ] } }
{ "type": "Feature", "tippecanoe": { "layer": "2AFCA13B3A901583917932507", "minzoom": 2, "maxzoom": 8 }, "properties": { "halo": 0.8, "title": "基切人", "fontsize": 12, "tyid": "304001", "oid": "103:1562760076381", "color": "#262626" }, "geometry": { "type": "Point", "coordinates": [ -90.966797, 15.029686 ] } }
{ "type": "Feature", "tippecanoe": { "layer": "2AFCA13B3A901583917932507", "minzoom": 2, "maxzoom": 8 }, "properties": { "halo": 0.8, "title": "阿尔托山文化", "fontsize": 12, "tyid": "304002", "oid": "103:1562760076651", "color": "#262626" }, "geometry": { "type": "Point", "coordinates": [ -91.054688, 14.349548 ] } }
{ "type": "Feature", "tippecanoe": { "layer": "2AFCA13B3A901583917932507", "minzoom": 2, "maxzoom": 8 }, "properties": { "halo": 0.8, "title": "怒溪文化", "fontsize": 12, "tyid": "304002", "oid": "103:1562760076632", "color": "#262626" }, "geometry": { "type": "Point", "coordinates": [ -72.421875, 41.574361 ] } }
{ "type": "Feature", "tippecanoe": { "layer": "2AFCA13B3A901583917932507", "minzoom": 2, "maxzoom": 8 }, "properties": { "halo": 0.8, "title": "威廉文化", "fontsize": 12, "tyid": "304002", "oid": "103:1562760076294", "color": "#262626" }, "geometry": { "type": "Point", "coordinates": [ -80.595703, 39.571822 ] } }
{ "type": "Feature", "tippecanoe": { "layer": "2AFCA13B3A901583917932507", "minzoom": 2, "maxzoom": 8 }, "properties": { "halo": 0.8, "title": "玛纳索塔文化", "fontsize": 12, "tyid": "304002", "oid": "103:1562760076278", "color": "#262626" }, "geometry": { "type": "Point", "coordinates": [ -82.441406, 27.683528 ] } }
{ "type": "Feature", "tippecanoe": { "layer": "2AFCA13B3A901583917932507", "minzoom": 2, "maxzoom": 8 }, "properties": { "halo": 0.8, "title": "卡卢萨人", "fontsize": 12, "tyid": "304001", "oid": "103:1562760076709", "color": "#262626" }, "geometry": { "type": "Point", "coordinates": [ -81.650391, 27.137368 ] } }
{ "type": "Feature", "tippecanoe": { "layer": "2AFCA13B3A901583917932507", "minzoom": 2, "maxzoom": 8 }, "properties": { "halo": 0.8, "title": "圣约翰文化", "fontsize": 12, "tyid": "304002", "oid": "103:1562760076958", "color": "#262626" }, "geometry": { "type": "Point", "coordinates": [ -81.474609, 29.382175 ] } }
{ "type": "Feature", "tippecanoe": { "layer": "2AFCA13B3A901583917932507", "minzoom": 2, "maxzoom": 8 }, "properties": { "halo": 0.8, "title": "贝尔格莱德文化", "fontsize": 12, "tyid": "304002", "oid": "103:1562760076469", "color": "#262626" }, "geometry": { "type": "Point", "coordinates": [ -80.859375, 27.449790 ] } }
{ "type": "Feature", "tippecanoe": { "layer": "2AFCA13B3A901583917932507", "minzoom": 2, "maxzoom": 8 }, "properties": { "halo": 0.8, "title": "格莱兹文化", "fontsize": 12, "tyid": "304002", "oid": "103:1562760076455", "color": "#262626" }, "geometry": { "type": "Point", "coordinates": [ -80.771484, 26.037042 ] } }
{ "type": "Feature", "tippecanoe": { "layer": "2AFCA13B3A901583917932507", "minzoom": 2, "maxzoom": 8 }, "properties": { "halo": 0.8, "title": "德贵斯塔族", "fontsize": 12, "tyid": "304001", "oid": "103:1562760076385", "color": "#262626" }, "geometry": { "type": "Point", "coordinates": [ -80.244141, 25.878994 ] } }
{ "type": "Feature", "tippecanoe": { "layer": "2AFCA13B3A901583917932507", "minzoom": 2, "maxzoom": 8 }, "properties": { "halo": 0.8, "title": "雷卡人", "fontsize": 12, "tyid": "304001", "oid": "103:1562760076831", "color": "#262626" }, "geometry": { "type": "Point", "coordinates": [ -87.802734, 13.752725 ] } }
{ "type": "Feature", "tippecanoe": { "layer": "2AFCA13B3A901583917932507", "minzoom": 2, "maxzoom": 8 }, "properties": { "halo": 0.8, "title": "格兰科克勒文化", "fontsize": 12, "tyid": "304002", "oid": "103:1562760076659", "color": "#262626" }, "geometry": { "type": "Point", "coordinates": [ -80.507812, 8.581021 ] } }
{ "type": "Feature", "tippecanoe": { "layer": "2AFCA13B3A901583917932507", "minzoom": 2, "maxzoom": 8 }, "properties": { "halo": 0.8, "title": "泰罗纳", "fontsize": 12, "tyid": "304002", "oid": "103:1562760076264", "color": "#262626" }, "geometry": { "type": "Point", "coordinates": [ -73.564453, 10.833306 ] } }
{ "type": "Feature", "tippecanoe": { "layer": "2AFCA13B3A901583917932507", "minzoom": 2, "maxzoom": 8 }, "properties": { "halo": 0.8, "title": "卡利玛文化", "fontsize": 12, "tyid": "304002", "oid": "103:1562760076790", "color": "#262626" }, "geometry": { "type": "Point", "coordinates": [ -76.728516, 4.214943 ] } }
{ "type": "Feature", "tippecanoe": { "layer": "2AFCA13B3A901583917932507", "minzoom": 2, "maxzoom": 8 }, "properties": { "halo": 0.8, "title": "马拉加纳文化", "fontsize": 12, "tyid": "304002", "oid": "103:1562760076667", "color": "#262626" }, "geometry": { "type": "Point", "coordinates": [ -76.289062, 3.425692 ] } }
{ "type": "Feature", "tippecanoe": { "layer": "2AFCA13B3A901583917932507", "minzoom": 2, "maxzoom": 8 }, "properties": { "halo": 0.8, "title": "昆巴雅文明", "fontsize": 12, "tyid": "304002", "oid": "103:1562760076814", "color": "#262626" }, "geometry": { "type": "Point", "coordinates": [ -75.761719, 5.090944 ] } }
{ "type": "Feature", "tippecanoe": { "layer": "2AFCA13B3A901583917932507", "minzoom": 2, "maxzoom": 8 }, "properties": { "halo": 0.8, "title": "科罗索文化", "fontsize": 12, "tyid": "304002", "oid": "103:1562760076411", "color": "#262626" }, "geometry": { "type": "Point", "coordinates": [ -66.533203, 18.229351 ] } }
{ "type": "Feature", "tippecanoe": { "layer": "2AFCA13B3A901583917932507", "minzoom": 2, "maxzoom": 8 }, "properties": { "halo": 0.8, "title": "大庄园文化", "fontsize": 12, "tyid": "304002", "oid": "103:1562760076607", "color": "#262626" }, "geometry": { "type": "Point", "coordinates": [ -65.917969, 18.396230 ] } }
{ "type": "Feature", "tippecanoe": { "layer": "2AFCA13B3A901583917932507", "minzoom": 2, "maxzoom": 8 }, "properties": { "halo": 0.8, "title": "萨拉杜文化", "fontsize": 12, "tyid": "304002", "oid": "103:1562760076703", "color": "#262626" }, "geometry": { "type": "Point", "coordinates": [ -61.699219, 16.214675 ] } }
{ "type": "Feature", "tippecanoe": { "layer": "2AFCA13B3A901583917932507", "minzoom": 2, "maxzoom": 8 }, "properties": { "halo": 0.8, "title": "皮克特人", "fontsize": 12, "tyid": "304001", "oid": "103:1535120141369", "color": "#262626" }, "geometry": { "type": "Point", "coordinates": [ -1.406250, 60.326948 ] } }
{ "type": "Feature", "tippecanoe": { "layer": "2AFCA13B3A901583917932507", "minzoom": 2, "maxzoom": 8 }, "properties": { "halo": 0.8, "title": "凯雷尼人", "fontsize": 12, "tyid": "304001", "oid": "103:1562760076869", "color": "#262626" }, "geometry": { "type": "Point", "coordinates": [ -5.097656, 58.077876 ] } }
{ "type": "Feature", "tippecanoe": { "layer": "2AFCA13B3A901583917932507", "minzoom": 2, "maxzoom": 8 }, "properties": { "halo": 0.8, "title": "卡诺奈卡人", "fontsize": 12, "tyid": "304001", "oid": "103:1562760076967", "color": "#262626" }, "geometry": { "type": "Point", "coordinates": [ -5.537109, 57.657158 ] } }
{ "type": "Feature", "tippecanoe": { "layer": "2AFCA13B3A901583917932507", "minzoom": 2, "maxzoom": 8 }, "properties": { "halo": 0.8, "title": "斯梅尔泰人", "fontsize": 12, "tyid": "304001", "oid": "103:1562760076619", "color": "#262626" }, "geometry": { "type": "Point", "coordinates": [ -4.746094, 57.984808 ] } }
{ "type": "Feature", "tippecanoe": { "layer": "2AFCA13B3A901583917932507", "minzoom": 2, "maxzoom": 8 }, "properties": { "halo": 0.8, "title": "卢吉人", "fontsize": 12, "tyid": "304001", "oid": "103:1562760076867", "color": "#262626" }, "geometry": { "type": "Point", "coordinates": [ -4.130859, 58.124320 ] } }
{ "type": "Feature", "tippecanoe": { "layer": "2AFCA13B3A901583917932507", "minzoom": 2, "maxzoom": 8 }, "properties": { "halo": 0.8, "title": "克洛维人[凯瑟尼斯]", "fontsize": 12, "tyid": "304001", "oid": "103:1576922418276", "color": "#262626" }, "geometry": { "type": "Point", "coordinates": [ -3.867188, 58.447733 ] } }
{ "type": "Feature", "tippecanoe": { "layer": "2AFCA13B3A901583917932507", "minzoom": 2, "maxzoom": 8 }, "properties": { "halo": 0.8, "title": "德坎泰人", "fontsize": 12, "tyid": "304001", "oid": "103:1562760076728", "color": "#262626" }, "geometry": { "type": "Point", "coordinates": [ -4.218750, 57.610107 ] } }
{ "type": "Feature", "tippecanoe": { "layer": "2AFCA13B3A901583917932507", "minzoom": 2, "maxzoom": 8 }, "properties": { "halo": 0.8, "title": "维格梅京人", "fontsize": 12, "tyid": "304001", "oid": "103:1562760076792", "color": "#262626" }, "geometry": { "type": "Point", "coordinates": [ -3.339844, 57.515823 ] } }
{ "type": "Feature", "tippecanoe": { "layer": "2AFCA13B3A901583917932507", "minzoom": 2, "maxzoom": 8 }, "properties": { "halo": 0.8, "title": "克鲁尼人", "fontsize": 12, "tyid": "304001", "oid": "103:1562760076673", "color": "#262626" }, "geometry": { "type": "Point", "coordinates": [ -5.449219, 57.040730 ] } }
{ "type": "Feature", "tippecanoe": { "layer": "2AFCA13B3A901583917932507", "minzoom": 2, "maxzoom": 8 }, "properties": { "halo": 0.8, "title": "埃皮迪人", "fontsize": 12, "tyid": "304001", "oid": "103:1562760076878", "color": "#262626" }, "geometry": { "type": "Point", "coordinates": [ -5.361328, 56.267761 ] } }
{ "type": "Feature", "tippecanoe": { "layer": "2AFCA13B3A901583917932507", "minzoom": 2, "maxzoom": 8 }, "properties": { "halo": 0.8, "title": "维尼科内人", "fontsize": 12, "tyid": "304001", "oid": "103:1562760076680", "color": "#262626" }, "geometry": { "type": "Point", "coordinates": [ -3.691406, 56.365250 ] } }
{ "type": "Feature", "tippecanoe": { "layer": "2AFCA13B3A901583917932507", "minzoom": 2, "maxzoom": 8 }, "properties": { "halo": 0.8, "title": "德克萨利人", "fontsize": 12, "tyid": "304001", "oid": "103:1562760076806", "color": "#262626" }, "geometry": { "type": "Point", "coordinates": [ -2.373047, 57.040730 ] } }
{ "type": "Feature", "tippecanoe": { "layer": "2AFCA13B3A901583917932507", "minzoom": 2, "maxzoom": 8 }, "properties": { "halo": 0.8, "title": "诺万忒人", "fontsize": 12, "tyid": "304001", "oid": "103:1562760076617", "color": "#262626" }, "geometry": { "type": "Point", "coordinates": [ -4.658203, 55.078367 ] } }
{ "type": "Feature", "tippecanoe": { "layer": "2AFCA13B3A901583917932507", "minzoom": 2, "maxzoom": 8 }, "properties": { "halo": 0.8, "title": "达姆诺尼人", "fontsize": 12, "tyid": "304001", "oid": "103:1562760076365", "color": "#262626" }, "geometry": { "type": "Point", "coordinates": [ -4.130859, 55.776573 ] } }
{ "type": "Feature", "tippecanoe": { "layer": "2AFCA13B3A901583917932507", "minzoom": 2, "maxzoom": 8 }, "properties": { "halo": 0.8, "title": "赛格威人", "fontsize": 12, "tyid": "304001", "oid": "103:1562760076721", "color": "#262626" }, "geometry": { "type": "Point", "coordinates": [ -3.691406, 55.229023 ] } }
{ "type": "Feature", "tippecanoe": { "layer": "2AFCA13B3A901583917932507", "minzoom": 2, "maxzoom": 8 }, "properties": { "halo": 0.8, "title": "卡尔维蒂人[坎布里亚郡]", "fontsize": 12, "tyid": "304001", "oid": "103:1576922418259", "color": "#262626" }, "geometry": { "type": "Point", "coordinates": [ -3.076172, 54.572062 ] } }
{ "type": "Feature", "tippecanoe": { "layer": "2AFCA13B3A901583917932507", "minzoom": 2, "maxzoom": 8 }, "properties": { "halo": 0.8, "title": "甘加尼人", "fontsize": 12, "tyid": "304001", "oid": "103:1562760076969", "color": "#262626" }, "geometry": { "type": "Point", "coordinates": [ -4.570312, 52.908902 ] } }
{ "type": "Feature", "tippecanoe": { "layer": "2AFCA13B3A901583917932507", "minzoom": 2, "maxzoom": 8 }, "properties": { "halo": 0.8, "title": "奥陶维斯人", "fontsize": 12, "tyid": "304001", "oid": "103:1562760076685", "color": "#262626" }, "geometry": { "type": "Point", "coordinates": [ -3.691406, 52.643063 ] } }
{ "type": "Feature", "tippecanoe": { "layer": "2AFCA13B3A901583917932507", "minzoom": 2, "maxzoom": 8 }, "properties": { "halo": 0.8, "title": "德克安格利人", "fontsize": 12, "tyid": "304001", "oid": "103:1562760076726", "color": "#262626" }, "geometry": { "type": "Point", "coordinates": [ -3.427734, 53.173119 ] } }
{ "type": "Feature", "tippecanoe": { "layer": "2AFCA13B3A901583917932507", "minzoom": 2, "maxzoom": 8 }, "properties": { "halo": 0.8, "title": "沃塔迪尼人", "fontsize": 12, "tyid": "304000", "oid": "103:1562760076723", "color": "#202020" }, "geometry": { "type": "Point", "coordinates": [ -2.724609, 55.677584 ] } }
{ "type": "Feature", "tippecanoe": { "layer": "2AFCA13B3A901583917932507", "minzoom": 2, "maxzoom": 8 }, "properties": { "halo": 0.8, "title": "克洛维人[米德兰兹]", "fontsize": 12, "tyid": "304001", "oid": "103:1576922418269", "color": "#262626" }, "geometry": { "type": "Point", "coordinates": [ -2.636719, 52.802761 ] } }
{ "type": "Feature", "tippecanoe": { "layer": "2AFCA13B3A901583917932507", "minzoom": 2, "maxzoom": 8 }, "properties": { "halo": 0.8, "title": "帕里斯人", "fontsize": 12, "tyid": "304001", "oid": "103:1562760076774", "color": "#262626" }, "geometry": { "type": "Point", "coordinates": [ -0.615234, 53.956086 ] } }
{ "type": "Feature", "tippecanoe": { "layer": "2AFCA13B3A901583917932507", "minzoom": 2, "maxzoom": 8 }, "properties": { "halo": 0.8, "title": "德米忒人", "fontsize": 12, "tyid": "304001", "oid": "103:1562760076369", "color": "#262626" }, "geometry": { "type": "Point", "coordinates": [ -4.658203, 51.944265 ] } }
{ "type": "Feature", "tippecanoe": { "layer": "2AFCA13B3A901583917932507", "minzoom": 2, "maxzoom": 8 }, "properties": { "halo": 0.8, "title": "西卢尔人", "fontsize": 12, "tyid": "304001", "oid": "103:1562760076625", "color": "#262626" }, "geometry": { "type": "Point", "coordinates": [ -3.427734, 51.781436 ] } }
{ "type": "Feature", "tippecanoe": { "layer": "2AFCA13B3A901583917932507", "minzoom": 2, "maxzoom": 8 }, "properties": { "halo": 0.8, "title": "杜蒙尼人", "fontsize": 12, "tyid": "304001", "oid": "103:1562760076533", "color": "#262626" }, "geometry": { "type": "Point", "coordinates": [ -4.130859, 50.736455 ] } }
{ "type": "Feature", "tippecanoe": { "layer": "2AFCA13B3A901583917932507", "minzoom": 2, "maxzoom": 8 }, "properties": { "halo": 0.8, "title": "多布尼人", "fontsize": 12, "tyid": "304001", "oid": "103:1562760076678", "color": "#262626" }, "geometry": { "type": "Point", "coordinates": [ -2.197266, 51.944265 ] } }
{ "type": "Feature", "tippecanoe": { "layer": "2AFCA13B3A901583917932507", "minzoom": 2, "maxzoom": 8 }, "properties": { "halo": 0.8, "title": "杜罗特里吉人", "fontsize": 12, "tyid": "304001", "oid": "103:1562760076643", "color": "#262626" }, "geometry": { "type": "Point", "coordinates": [ -2.548828, 50.903033 ] } }
{ "type": "Feature", "tippecanoe": { "layer": "2AFCA13B3A901583917932507", "minzoom": 2, "maxzoom": 8 }, "properties": { "halo": 0.8, "title": "贝尔盖人", "fontsize": 12, "tyid": "304001", "oid": "103:1562760076738", "color": "#262626" }, "geometry": { "type": "Point", "coordinates": [ -1.845703, 51.124213 ] } }
{ "type": "Feature", "tippecanoe": { "layer": "2AFCA13B3A901583917932507", "minzoom": 2, "maxzoom": 8 }, "properties": { "halo": 0.8, "title": "卡图维劳尼人", "fontsize": 12, "tyid": "304001", "oid": "103:1562760076917", "color": "#262626" }, "geometry": { "type": "Point", "coordinates": [ -0.439453, 51.890054 ] } }
{ "type": "Feature", "tippecanoe": { "layer": "2AFCA13B3A901583917932507", "minzoom": 2, "maxzoom": 8 }, "properties": { "halo": 0.8, "title": "阿特雷巴特人", "fontsize": 12, "tyid": "304000", "oid": "103:1562760076531", "color": "#202020" }, "geometry": { "type": "Point", "coordinates": [ -1.406250, 51.399206 ] } }
{ "type": "Feature", "tippecanoe": { "layer": "2AFCA13B3A901583917932507", "minzoom": 2, "maxzoom": 8 }, "properties": { "halo": 0.8, "title": "雷恩尼斯人", "fontsize": 12, "tyid": "304001", "oid": "103:1562760076348", "color": "#262626" }, "geometry": { "type": "Point", "coordinates": [ -0.439453, 51.179343 ] } }
{ "type": "Feature", "tippecanoe": { "layer": "2AFCA13B3A901583917932507", "minzoom": 2, "maxzoom": 8 }, "properties": { "halo": 0.8, "title": "关切人", "fontsize": 12, "tyid": "304001", "oid": "103:1562760076187", "color": "#262626" }, "geometry": { "type": "Point", "coordinates": [ -16.611328, 28.304381 ] } }
{ "type": "Feature", "tippecanoe": { "layer": "2AFCA13B3A901583917932507", "minzoom": 2, "maxzoom": 8 }, "properties": { "halo": 0.8, "title": "后迦太基人控制区", "fontsize": 12, "tyid": "304002", "oid": "103:1562760076612", "color": "#262626" }, "geometry": { "type": "Point", "coordinates": [ -5.888672, 35.389050 ] } }
{ "type": "Feature", "tippecanoe": { "layer": "2AFCA13B3A901583917932507", "minzoom": 2, "maxzoom": 8 }, "properties": { "halo": 0.8, "title": "瓜纳加拉文化", "fontsize": 12, "tyid": "304002", "oid": "103:1562760076951", "color": "#262626" }, "geometry": { "type": "Point", "coordinates": [ -80.595703, -1.669686 ] } }
{ "type": "Feature", "tippecanoe": { "layer": "2AFCA13B3A901583917932507", "minzoom": 2, "maxzoom": 8 }, "properties": { "halo": 0.8, "title": "巴伊亚文化", "fontsize": 12, "tyid": "304002", "oid": "103:1562760076887", "color": "#262626" }, "geometry": { "type": "Point", "coordinates": [ -80.068359, -0.527336 ] } }
{ "type": "Feature", "tippecanoe": { "layer": "2AFCA13B3A901583917932507", "minzoom": 2, "maxzoom": 8 }, "properties": { "halo": 0.8, "title": "维克斯文化", "fontsize": 12, "tyid": "304002", "oid": "103:1562760076491", "color": "#262626" }, "geometry": { "type": "Point", "coordinates": [ -80.419922, -5.878332 ] } }
{ "type": "Feature", "tippecanoe": { "layer": "2AFCA13B3A901583917932507", "minzoom": 2, "maxzoom": 8 }, "properties": { "halo": 0.8, "title": "萨利纳尔文化", "fontsize": 12, "tyid": "304002", "oid": "103:1562760076250", "color": "#262626" }, "geometry": { "type": "Point", "coordinates": [ -78.925781, -7.885147 ] } }
{ "type": "Feature", "tippecanoe": { "layer": "2AFCA13B3A901583917932507", "minzoom": 2, "maxzoom": 8 }, "properties": { "halo": 0.8, "title": "维鲁文化", "fontsize": 12, "tyid": "304002", "oid": "103:1562760076794", "color": "#262626" }, "geometry": { "type": "Point", "coordinates": [ -78.837891, -8.320212 ] } }
{ "type": "Feature", "tippecanoe": { "layer": "2AFCA13B3A901583917932507", "minzoom": 2, "maxzoom": 8 }, "properties": { "halo": 0.8, "title": "瑞克文化", "fontsize": 12, "tyid": "304002", "oid": "103:1562760076408", "color": "#262626" }, "geometry": { "type": "Point", "coordinates": [ -77.607422, -9.622414 ] } }
{ "type": "Feature", "tippecanoe": { "layer": "2AFCA13B3A901583917932507", "minzoom": 2, "maxzoom": 8 }, "properties": { "halo": 0.8, "title": "加伊纳索文化", "fontsize": 12, "tyid": "304002", "oid": "103:1562760076421", "color": "#262626" }, "geometry": { "type": "Point", "coordinates": [ -77.080078, -11.092166 ] } }
{ "type": "Feature", "tippecanoe": { "layer": "2AFCA13B3A901583917932507", "minzoom": 2, "maxzoom": 8 }, "properties": { "halo": 0.8, "title": "托帕拉文化", "fontsize": 12, "tyid": "304002", "oid": "103:1562760076271", "color": "#262626" }, "geometry": { "type": "Point", "coordinates": [ -75.937500, -13.667338 ] } }
{ "type": "Feature", "tippecanoe": { "layer": "2AFCA13B3A901583917932507", "minzoom": 2, "maxzoom": 8 }, "properties": { "halo": 0.8, "title": "华帕文化", "fontsize": 12, "tyid": "304002", "oid": "103:1562760076489", "color": "#262626" }, "geometry": { "type": "Point", "coordinates": [ -74.179688, -13.581921 ] } }
{ "type": "Feature", "tippecanoe": { "layer": "2AFCA13B3A901583917932507", "minzoom": 2, "maxzoom": 8 }, "properties": { "halo": 0.8, "title": "纳斯卡文化", "fontsize": 12, "tyid": "304002", "oid": "103:1535120141449", "color": "#262626" }, "geometry": { "type": "Point", "coordinates": [ -75.058594, -14.944785 ] } }
{ "type": "Feature", "tippecanoe": { "layer": "2AFCA13B3A901583917932507", "minzoom": 2, "maxzoom": 8 }, "properties": { "halo": 0.8, "title": "普加拉文化", "fontsize": 12, "tyid": "304002", "oid": "103:1562760076258", "color": "#262626" }, "geometry": { "type": "Point", "coordinates": [ -69.697266, -13.838080 ] } }
{ "type": "Feature", "tippecanoe": { "layer": "2AFCA13B3A901583917932507", "minzoom": 2, "maxzoom": 8 }, "properties": { "halo": 0.8, "title": "塔夫文化", "fontsize": 12, "tyid": "304002", "oid": "103:1562760076816", "color": "#262626" }, "geometry": { "type": "Point", "coordinates": [ -65.654297, -26.980829 ] } }
{ "type": "Feature", "tippecanoe": { "layer": "2AFCA13B3A901583917932507", "minzoom": 2, "maxzoom": 8 }, "properties": { "halo": 0.8, "title": "豪什人", "fontsize": 12, "tyid": "304001", "oid": "103:1562760076388", "color": "#262626" }, "geometry": { "type": "Point", "coordinates": [ -65.917969, -54.724620 ] } }
{ "type": "Feature", "tippecanoe": { "layer": "2AFCA13B3A901583917932507", "minzoom": 2, "maxzoom": 8 }, "properties": { "halo": 0.8, "title": "哥得兰人", "fontsize": 12, "tyid": "304001", "oid": "103:1562760076750", "color": "#262626" }, "geometry": { "type": "Point", "coordinates": [ 18.457031, 57.515823 ] } }
{ "type": "Feature", "tippecanoe": { "layer": "2AFCA13B3A901583917932507", "minzoom": 2, "maxzoom": 8 }, "properties": { "halo": 0.8, "title": "爱西尼人", "fontsize": 12, "tyid": "304001", "oid": "103:1562760076961", "color": "#262626" }, "geometry": { "type": "Point", "coordinates": [ 0.791016, 52.589701 ] } }
{ "type": "Feature", "tippecanoe": { "layer": "2AFCA13B3A901583917932507", "minzoom": 2, "maxzoom": 8 }, "properties": { "halo": 0.8, "title": "特里诺文特人", "fontsize": 12, "tyid": "304000", "oid": "103:1562760076207", "color": "#202020" }, "geometry": { "type": "Point", "coordinates": [ 0.791016, 51.998410 ] } }
{ "type": "Feature", "tippecanoe": { "layer": "2AFCA13B3A901583917932507", "minzoom": 2, "maxzoom": 8 }, "properties": { "halo": 0.8, "title": "坎蒂亚奇人", "fontsize": 12, "tyid": "304001", "oid": "103:1562760076367", "color": "#262626" }, "geometry": { "type": "Point", "coordinates": [ 0.527344, 51.179343 ] } }
{ "type": "Feature", "tippecanoe": { "layer": "2AFCA13B3A901583917932507", "minzoom": 2, "maxzoom": 8 }, "properties": { "halo": 0.8, "title": "盎格鲁人", "fontsize": 12, "tyid": "304001", "oid": "103:1562760076848", "color": "#262626" }, "geometry": { "type": "Point", "coordinates": [ 9.316406, 54.622978 ] } }
{ "type": "Feature", "tippecanoe": { "layer": "2AFCA13B3A901583917932507", "minzoom": 2, "maxzoom": 8 }, "properties": { "halo": 0.8, "title": "萨克森人", "fontsize": 12, "tyid": "304001", "oid": "103:1562760076799", "color": "#262626" }, "geometry": { "type": "Point", "coordinates": [ 10.019531, 54.007769 ] } }
{ "type": "Feature", "tippecanoe": { "layer": "2AFCA13B3A901583917932507", "minzoom": 2, "maxzoom": 8 }, "properties": { "halo": 0.8, "title": "查马维人", "fontsize": 12, "tyid": "304001", "oid": "103:1562760076742", "color": "#262626" }, "geometry": { "type": "Point", "coordinates": [ 7.119141, 51.944265 ] } }
{ "type": "Feature", "tippecanoe": { "layer": "2AFCA13B3A901583917932507", "minzoom": 2, "maxzoom": 8 }, "properties": { "halo": 0.8, "title": "辛坎布雷人", "fontsize": 12, "tyid": "304001", "oid": "103:1562760076842", "color": "#262626" }, "geometry": { "type": "Point", "coordinates": [ 7.646484, 51.289406 ] } }
{ "type": "Feature", "tippecanoe": { "layer": "2AFCA13B3A901583917932507", "minzoom": 2, "maxzoom": 8 }, "properties": { "halo": 0.8, "title": "布鲁克特人", "fontsize": 12, "tyid": "304001", "oid": "103:1562760076899", "color": "#262626" }, "geometry": { "type": "Point", "coordinates": [ 8.437500, 51.998410 ] } }
{ "type": "Feature", "tippecanoe": { "layer": "2AFCA13B3A901583917932507", "minzoom": 2, "maxzoom": 8 }, "properties": { "halo": 0.8, "title": "马提亚西人", "fontsize": 12, "tyid": "304001", "oid": "103:1562760076840", "color": "#262626" }, "geometry": { "type": "Point", "coordinates": [ 9.404297, 50.289339 ] } }
{ "type": "Feature", "tippecanoe": { "layer": "2AFCA13B3A901583917932507", "minzoom": 2, "maxzoom": 8 }, "properties": { "halo": 0.8, "title": "奥耶塞利人", "fontsize": 12, "tyid": "304001", "oid": "103:1562760076937", "color": "#262626" }, "geometry": { "type": "Point", "coordinates": [ 22.500000, 58.447733 ] } }
{ "type": "Feature", "tippecanoe": { "layer": "2AFCA13B3A901583917932507", "minzoom": 2, "maxzoom": 8 }, "properties": { "halo": 0.8, "title": "埃吉索斯", "fontsize": 12, "tyid": "304000", "oid": "103:1562760076615", "color": "#202020" }, "geometry": { "type": "Point", "coordinates": [ 29.091797, 45.151053 ] } }
{ "type": "Feature", "tippecanoe": { "layer": "2AFCA13B3A901583917932507", "minzoom": 2, "maxzoom": 8 }, "properties": { "halo": 0.8, "title": "希斯特里亚", "fontsize": 12, "tyid": "304000", "oid": "103:1562760076537", "color": "#202020" }, "geometry": { "type": "Point", "coordinates": [ 28.740234, 44.527843 ] } }
{ "type": "Feature", "tippecanoe": { "layer": "2AFCA13B3A901583917932507", "minzoom": 2, "maxzoom": 8 }, "properties": { "halo": 0.8, "title": "拜占庭", "fontsize": 12, "tyid": "304000", "oid": "103:1562760076535", "color": "#202020" }, "geometry": { "type": "Point", "coordinates": [ 28.740234, 41.178654 ] } }
{ "type": "Feature", "tippecanoe": { "layer": "2AFCA13B3A901583917932507", "minzoom": 2, "maxzoom": 8 }, "properties": { "halo": 0.8, "title": "自由拉科尼亚同盟", "fontsize": 12, "tyid": "304000", "oid": "103:1562760077066", "color": "#202020" }, "geometry": { "type": "Point", "coordinates": [ 22.851562, 36.879621 ] } }
{ "type": "Feature", "tippecanoe": { "layer": "2AFCA13B3A901583917932507", "minzoom": 2, "maxzoom": 8 }, "properties": { "halo": 0.8, "title": "罗德斯国", "fontsize": 12, "tyid": "304000", "oid": "103:1535120141258", "color": "#202020" }, "geometry": { "type": "Point", "coordinates": [ 27.949219, 36.244273 ] } }
{ "type": "Feature", "tippecanoe": { "layer": "2AFCA13B3A901583917932507", "minzoom": 2, "maxzoom": 8 }, "properties": { "halo": 0.8, "title": "利西亚人联盟", "fontsize": 12, "tyid": "304002", "oid": "103:1562760077027", "color": "#262626" }, "geometry": { "type": "Point", "coordinates": [ 29.794922, 36.527295 ] } }
{ "type": "Feature", "tippecanoe": { "layer": "2AFCA13B3A901583917932507", "minzoom": 2, "maxzoom": 8 }, "properties": { "halo": 0.8, "title": "科马基尼王国", "fontsize": 12, "tyid": "304000", "oid": "103:1535120141314", "color": "#202020" }, "geometry": { "type": "Point", "coordinates": [ 37.880859, 37.718590 ] } }
{ "type": "Feature", "tippecanoe": { "layer": "2AFCA13B3A901583917932507", "minzoom": 2, "maxzoom": 8 }, "properties": { "halo": 0.8, "title": "卡尔基斯王国", "fontsize": 12, "tyid": "304000", "oid": "103:1562760077024", "color": "#202020" }, "geometry": { "type": "Point", "coordinates": [ 35.859375, 33.724340 ] } }
{ "type": "Feature", "tippecanoe": { "layer": "2AFCA13B3A901583917932507", "minzoom": 2, "maxzoom": 8 }, "properties": { "halo": 0.8, "title": "希律合众国", "fontsize": 12, "tyid": "304000", "oid": "103:1535120141303", "color": "#202020" }, "geometry": { "type": "Point", "coordinates": [ 35.771484, 32.990236 ] } }
{ "type": "Feature", "tippecanoe": { "layer": "2AFCA13B3A901583917932507", "minzoom": 2, "maxzoom": 8 }, "properties": { "halo": 0.8, "title": "德卡波利斯联盟", "fontsize": 12, "tyid": "304002", "oid": "103:1562760077070", "color": "#262626" }, "geometry": { "type": "Point", "coordinates": [ 35.859375, 32.546813 ] } }
{ "type": "Feature", "tippecanoe": { "layer": "2AFCA13B3A901583917932507", "minzoom": 2, "maxzoom": 8 }, "properties": { "halo": 0.8, "title": "埃米萨王朝", "fontsize": 12, "tyid": "304000", "oid": "103:1535120141306", "color": "#202020" }, "geometry": { "type": "Point", "coordinates": [ 36.650391, 34.741612 ] } }
{ "type": "Feature", "tippecanoe": { "layer": "2AFCA13B3A901583917932507", "minzoom": 2, "maxzoom": 8 }, "properties": { "halo": 0.8, "title": "索芬尼王国", "fontsize": 12, "tyid": "304000", "oid": "103:1562760076595", "color": "#202020" }, "geometry": { "type": "Point", "coordinates": [ 39.638672, 37.996163 ] } }
{ "type": "Feature", "tippecanoe": { "layer": "2AFCA13B3A901583917932507", "minzoom": 2, "maxzoom": 8 }, "properties": { "halo": 0.8, "title": "列兹金人", "fontsize": 12, "tyid": "304001", "oid": "103:1562760076527", "color": "#262626" }, "geometry": { "type": "Point", "coordinates": [ 47.988281, 41.771312 ] } }
{ "type": "Feature", "tippecanoe": { "layer": "2AFCA13B3A901583917932507", "minzoom": 2, "maxzoom": 8 }, "properties": { "halo": 0.8, "title": "温宿国", "fontsize": 12, "tyid": "304000", "oid": "103:1562760076988", "color": "#202020" }, "geometry": { "type": "Point", "coordinates": [ 79.277344, 41.310824 ] } }
{ "type": "Feature", "tippecanoe": { "layer": "2AFCA13B3A901583917932507", "minzoom": 2, "maxzoom": 8 }, "properties": { "halo": 0.8, "title": "乌贪訾离国", "fontsize": 12, "tyid": "304000", "oid": "103:1562760077122", "color": "#202020" }, "geometry": { "type": "Point", "coordinates": [ 86.748047, 44.465151 ] } }
{ "type": "Feature", "tippecanoe": { "layer": "2AFCA13B3A901583917932507", "minzoom": 2, "maxzoom": 8 }, "properties": { "halo": 0.8, "title": "西且弥国", "fontsize": 12, "tyid": "304000", "oid": "103:1562760077005", "color": "#202020" }, "geometry": { "type": "Point", "coordinates": [ 86.220703, 43.834527 ] } }
{ "type": "Feature", "tippecanoe": { "layer": "2AFCA13B3A901583917932507", "minzoom": 2, "maxzoom": 8 }, "properties": { "halo": 0.8, "title": "东且弥国", "fontsize": 12, "tyid": "304000", "oid": "103:1562760077003", "color": "#202020" }, "geometry": { "type": "Point", "coordinates": [ 86.923828, 43.707594 ] } }
{ "type": "Feature", "tippecanoe": { "layer": "2AFCA13B3A901583917932507", "minzoom": 2, "maxzoom": 8 }, "properties": { "halo": 0.8, "title": "焉耆国", "fontsize": 12, "tyid": "304000", "oid": "103:1562760076992", "color": "#202020" }, "geometry": { "type": "Point", "coordinates": [ 85.957031, 41.902277 ] } }
{ "type": "Feature", "tippecanoe": { "layer": "2AFCA13B3A901583917932507", "minzoom": 2, "maxzoom": 8 }, "properties": { "halo": 0.8, "title": "劫国", "fontsize": 12, "tyid": "304000", "oid": "103:1562760077116", "color": "#202020" }, "geometry": { "type": "Point", "coordinates": [ 87.802734, 44.150681 ] } }
{ "type": "Feature", "tippecanoe": { "layer": "2AFCA13B3A901583917932507", "minzoom": 2, "maxzoom": 8 }, "properties": { "halo": 0.8, "title": "卑陆后国", "fontsize": 12, "tyid": "304000", "oid": "103:1562760077033", "color": "#202020" }, "geometry": { "type": "Point", "coordinates": [ 88.154297, 44.276671 ] } }
{ "type": "Feature", "tippecanoe": { "layer": "2AFCA13B3A901583917932507", "minzoom": 2, "maxzoom": 8 }, "properties": { "halo": 0.8, "title": "单桓国", "fontsize": 12, "tyid": "304000", "oid": "103:1562760077022", "color": "#202020" }, "geometry": { "type": "Point", "coordinates": [ 87.539062, 44.024422 ] } }
{ "type": "Feature", "tippecanoe": { "layer": "2AFCA13B3A901583917932507", "minzoom": 2, "maxzoom": 8 }, "properties": { "halo": 0.8, "title": "卑陆国", "fontsize": 12, "tyid": "304000", "oid": "103:1562760077098", "color": "#202020" }, "geometry": { "type": "Point", "coordinates": [ 88.066406, 43.961191 ] } }
{ "type": "Feature", "tippecanoe": { "layer": "2AFCA13B3A901583917932507", "minzoom": 2, "maxzoom": 8 }, "properties": { "halo": 0.8, "title": "郁立师国", "fontsize": 12, "tyid": "304000", "oid": "103:1562760077020", "color": "#202020" }, "geometry": { "type": "Point", "coordinates": [ 88.945312, 43.961191 ] } }
{ "type": "Feature", "tippecanoe": { "layer": "2AFCA13B3A901583917932507", "minzoom": 2, "maxzoom": 8 }, "properties": { "halo": 0.8, "title": "车师后城国", "fontsize": 12, "tyid": "304002", "oid": "103:1562760077093", "color": "#262626" }, "geometry": { "type": "Point", "coordinates": [ 89.560547, 44.024422 ] } }
{ "type": "Feature", "tippecanoe": { "layer": "2AFCA13B3A901583917932507", "minzoom": 2, "maxzoom": 8 }, "properties": { "halo": 0.8, "title": "车师都尉国", "fontsize": 12, "tyid": "304002", "oid": "103:1562760077030", "color": "#262626" }, "geometry": { "type": "Point", "coordinates": [ 89.384766, 42.617791 ] } }
{ "type": "Feature", "tippecanoe": { "layer": "2AFCA13B3A901583917932507", "minzoom": 2, "maxzoom": 8 }, "properties": { "halo": 0.8, "title": "卡塔班王国", "fontsize": 12, "tyid": "304000", "oid": "103:1535120141284", "color": "#202020" }, "geometry": { "type": "Point", "coordinates": [ 45.791016, 14.774883 ] } }
{ "type": "Feature", "tippecanoe": { "layer": "2AFCA13B3A901583917932507", "minzoom": 2, "maxzoom": 8 }, "properties": { "halo": 0.8, "title": "奥桑王国", "fontsize": 12, "tyid": "304000", "oid": "103:1568109434981", "color": "#202020" }, "geometry": { "type": "Point", "coordinates": [ 46.230469, 13.752725 ] } }
{ "type": "Feature", "tippecanoe": { "layer": "2AFCA13B3A901583917932507", "minzoom": 2, "maxzoom": 8 }, "properties": { "halo": 0.8, "title": "难兜国", "fontsize": 12, "tyid": "304000", "oid": "103:1562760076986", "color": "#202020" }, "geometry": { "type": "Point", "coordinates": [ 74.091797, 36.949892 ] } }
{ "type": "Feature", "tippecanoe": { "layer": "2AFCA13B3A901583917932507", "minzoom": 2, "maxzoom": 8 }, "properties": { "halo": 0.8, "title": "蒲犁国", "fontsize": 12, "tyid": "304000", "oid": "103:1562760076990", "color": "#202020" }, "geometry": { "type": "Point", "coordinates": [ 75.234375, 37.996163 ] } }
{ "type": "Feature", "tippecanoe": { "layer": "2AFCA13B3A901583917932507", "minzoom": 2, "maxzoom": 8 }, "properties": { "halo": 0.8, "title": "疏勒国", "fontsize": 12, "tyid": "304000", "oid": "103:1562760077054", "color": "#202020" }, "geometry": { "type": "Point", "coordinates": [ 76.289062, 39.504041 ] } }
{ "type": "Feature", "tippecanoe": { "layer": "2AFCA13B3A901583917932507", "minzoom": 2, "maxzoom": 8 }, "properties": { "halo": 0.8, "title": "依耐国", "fontsize": 12, "tyid": "304000", "oid": "103:1562760077039", "color": "#202020" }, "geometry": { "type": "Point", "coordinates": [ 75.937500, 38.616870 ] } }
{ "type": "Feature", "tippecanoe": { "layer": "2AFCA13B3A901583917932507", "minzoom": 2, "maxzoom": 8 }, "properties": { "halo": 0.8, "title": "子合国", "fontsize": 12, "tyid": "304000", "oid": "103:1562760076980", "color": "#202020" }, "geometry": { "type": "Point", "coordinates": [ 76.376953, 37.718590 ] } }
{ "type": "Feature", "tippecanoe": { "layer": "2AFCA13B3A901583917932507", "minzoom": 2, "maxzoom": 8 }, "properties": { "halo": 0.8, "title": "皮山国", "fontsize": 12, "tyid": "304000", "oid": "103:1562760077118", "color": "#202020" }, "geometry": { "type": "Point", "coordinates": [ 78.574219, 37.509726 ] } }
{ "type": "Feature", "tippecanoe": { "layer": "2AFCA13B3A901583917932507", "minzoom": 2, "maxzoom": 8 }, "properties": { "halo": 0.8, "title": "戎卢国", "fontsize": 12, "tyid": "304000", "oid": "103:1562760077056", "color": "#202020" }, "geometry": { "type": "Point", "coordinates": [ 83.144531, 36.668419 ] } }
{ "type": "Feature", "tippecanoe": { "layer": "2AFCA13B3A901583917932507", "minzoom": 2, "maxzoom": 8 }, "properties": { "halo": 0.8, "title": "渠勒国", "fontsize": 12, "tyid": "304000", "oid": "103:1562760076982", "color": "#202020" }, "geometry": { "type": "Point", "coordinates": [ 80.947266, 36.385913 ] } }
{ "type": "Feature", "tippecanoe": { "layer": "2AFCA13B3A901583917932507", "minzoom": 2, "maxzoom": 8 }, "properties": { "halo": 0.8, "title": "小宛国", "fontsize": 12, "tyid": "304000", "oid": "103:1562760077095", "color": "#202020" }, "geometry": { "type": "Point", "coordinates": [ 85.078125, 37.090240 ] } }
{ "type": "Feature", "tippecanoe": { "layer": "2AFCA13B3A901583917932507", "minzoom": 2, "maxzoom": 8 }, "properties": { "halo": 0.8, "title": "罗昂", "fontsize": 12, "tyid": "304000", "oid": "103:1562760076403", "color": "#202020" }, "geometry": { "type": "Point", "coordinates": [ 89.208984, 29.152161 ] } }
{ "type": "Feature", "tippecanoe": { "layer": "2AFCA13B3A901583917932507", "minzoom": 2, "maxzoom": 8 }, "properties": { "halo": 0.8, "title": "藏", "fontsize": 12, "tyid": "304000", "oid": "103:1562760076605", "color": "#202020" }, "geometry": { "type": "Point", "coordinates": [ 89.736328, 28.844674 ] } }
{ "type": "Feature", "tippecanoe": { "layer": "2AFCA13B3A901583917932507", "minzoom": 2, "maxzoom": 8 }, "properties": { "halo": 0.8, "title": "卓木南木松", "fontsize": 12, "tyid": "304000", "oid": "103:1562760076765", "color": "#202020" }, "geometry": { "type": "Point", "coordinates": [ 88.945312, 27.839076 ] } }
{ "type": "Feature", "tippecanoe": { "layer": "2AFCA13B3A901583917932507", "minzoom": 2, "maxzoom": 8 }, "properties": { "halo": 0.8, "title": "牟湿迦王国", "fontsize": 12, "tyid": "304000", "oid": "103:1535120141385", "color": "#202020" }, "geometry": { "type": "Point", "coordinates": [ 75.322266, 12.640338 ] } }
{ "type": "Feature", "tippecanoe": { "layer": "2AFCA13B3A901583917932507", "minzoom": 2, "maxzoom": 8 }, "properties": { "halo": 0.8, "title": "阿伊王国", "fontsize": 12, "tyid": "304000", "oid": "103:1535120141376", "color": "#202020" }, "geometry": { "type": "Point", "coordinates": [ 77.080078, 8.667918 ] } }
{ "type": "Feature", "tippecanoe": { "layer": "2AFCA13B3A901583917932507", "minzoom": 2, "maxzoom": 8 }, "properties": { "halo": 0.8, "title": "车师后国", "fontsize": 12, "tyid": "304000", "oid": "103:1562760077100", "color": "#202020" }, "geometry": { "type": "Point", "coordinates": [ 90.791016, 43.897892 ] } }
{ "type": "Feature", "tippecanoe": { "layer": "2AFCA13B3A901583917932507", "minzoom": 2, "maxzoom": 8 }, "properties": { "halo": 0.8, "title": "吉", "fontsize": 12, "tyid": "304000", "oid": "103:1562760076202", "color": "#202020" }, "geometry": { "type": "Point", "coordinates": [ 91.406250, 29.764377 ] } }
{ "type": "Feature", "tippecanoe": { "layer": "2AFCA13B3A901583917932507", "minzoom": 2, "maxzoom": 8 }, "properties": { "halo": 0.8, "title": "琛", "fontsize": 12, "tyid": "304000", "oid": "103:1562760076290", "color": "#202020" }, "geometry": { "type": "Point", "coordinates": [ 91.230469, 29.382175 ] } }
{ "type": "Feature", "tippecanoe": { "layer": "2AFCA13B3A901583917932507", "minzoom": 2, "maxzoom": 8 }, "properties": { "halo": 0.8, "title": "悉补野", "fontsize": 12, "tyid": "304000", "oid": "103:1562760076210", "color": "#202020" }, "geometry": { "type": "Point", "coordinates": [ 91.845703, 29.152161 ] } }
{ "type": "Feature", "tippecanoe": { "layer": "2AFCA13B3A901583917932507", "minzoom": 2, "maxzoom": 8 }, "properties": { "halo": 0.8, "title": "俄玉邦噶", "fontsize": 12, "tyid": "304000", "oid": "103:1562760076228", "color": "#202020" }, "geometry": { "type": "Point", "coordinates": [ 92.548828, 29.152161 ] } }
{ "type": "Feature", "tippecanoe": { "layer": "2AFCA13B3A901583917932507", "minzoom": 2, "maxzoom": 8 }, "properties": { "halo": 0.8, "title": "娘", "fontsize": 12, "tyid": "304000", "oid": "103:1562760076924", "color": "#202020" }, "geometry": { "type": "Point", "coordinates": [ 93.339844, 29.916852 ] } }
{ "type": "Feature", "tippecanoe": { "layer": "2AFCA13B3A901583917932507", "minzoom": 2, "maxzoom": 8 }, "properties": { "halo": 0.8, "title": "贡", "fontsize": 12, "tyid": "304000", "oid": "103:1562760076416", "color": "#202020" }, "geometry": { "type": "Point", "coordinates": [ 94.482422, 29.688053 ] } }
{ "type": "Feature", "tippecanoe": { "layer": "2AFCA13B3A901583917932507", "minzoom": 2, "maxzoom": 8 }, "properties": { "halo": 0.8, "title": "达", "fontsize": 12, "tyid": "304000", "oid": "103:1562760076413", "color": "#202020" }, "geometry": { "type": "Point", "coordinates": [ 93.603516, 29.152161 ] } }
{ "type": "Feature", "tippecanoe": { "layer": "2AFCA13B3A901583917932507", "minzoom": 2, "maxzoom": 8 }, "properties": { "halo": 0.8, "title": "石坛文化", "fontsize": 12, "tyid": "304002", "oid": "103:1562760076915", "color": "#262626" }, "geometry": { "type": "Point", "coordinates": [ 103.359375, 19.559790 ] } }
{ "type": "Feature", "tippecanoe": { "layer": "2AFCA13B3A901583917932507", "minzoom": 2, "maxzoom": 8 }, "properties": { "halo": 0.8, "title": "番仔园文化", "fontsize": 12, "tyid": "304002", "oid": "103:1568109434979", "color": "#262626" }, "geometry": { "type": "Point", "coordinates": [ 120.673828, 24.287027 ] } }
{ "type": "Feature", "tippecanoe": { "layer": "2AFCA13B3A901583917932507", "minzoom": 2, "maxzoom": 8 }, "properties": { "halo": 0.8, "title": "茑松文化", "fontsize": 12, "tyid": "304002", "oid": "103:1568109434972", "color": "#262626" }, "geometry": { "type": "Point", "coordinates": [ 120.322266, 23.079732 ] } }
{ "type": "Feature", "tippecanoe": { "layer": "2AFCA13B3A901583917932507", "minzoom": 2, "maxzoom": 8 }, "properties": { "halo": 0.8, "title": "龟山文化", "fontsize": 12, "tyid": "304002", "oid": "103:1568109434974", "color": "#262626" }, "geometry": { "type": "Point", "coordinates": [ 120.585938, 22.674847 ] } }
{ "type": "Feature", "tippecanoe": { "layer": "2AFCA13B3A901583917932507", "minzoom": 2, "maxzoom": 8 }, "properties": { "halo": 0.8, "title": "十三行文化", "fontsize": 12, "tyid": "304002", "oid": "103:1568109434969", "color": "#262626" }, "geometry": { "type": "Point", "coordinates": [ 121.376953, 24.846565 ] } }
{ "type": "Feature", "tippecanoe": { "layer": "2AFCA13B3A901583917932507", "minzoom": 2, "maxzoom": 8 }, "properties": { "halo": 0.8, "title": "静浦文化", "fontsize": 12, "tyid": "304002", "oid": "103:1568109434976", "color": "#262626" }, "geometry": { "type": "Point", "coordinates": [ 121.025391, 22.998852 ] } }
{ "type": "Feature", "tippecanoe": { "layer": "2AFCA13B3A901583917932507", "minzoom": 2, "maxzoom": 8 }, "properties": { "halo": 0.8, "title": "百济", "fontsize": 12, "tyid": "304000", "oid": "103:1562760076393", "color": "#202020" }, "geometry": { "type": "Point", "coordinates": [ 127.089844, 37.300275 ] } }
{ "type": "Feature", "tippecanoe": { "layer": "2AFCA13B3A901583917932507", "minzoom": 2, "maxzoom": 8 }, "properties": { "halo": 0.8, "title": "耽罗国", "fontsize": 12, "tyid": "304000", "oid": "103:1562760076529", "color": "#202020" }, "geometry": { "type": "Point", "coordinates": [ 126.474609, 33.431441 ] } }
{ "type": "Feature", "tippecanoe": { "layer": "2AFCA13B3A901583917932507", "minzoom": 2, "maxzoom": 8 }, "properties": { "halo": 0.8, "title": "弁韩", "fontsize": 12, "tyid": "304001", "oid": "103:1535120141374", "color": "#262626" }, "geometry": { "type": "Point", "coordinates": [ 127.968750, 35.317366 ] } }
{ "type": "Feature", "tippecanoe": { "layer": "2AFCA13B3A901583917932507", "minzoom": 2, "maxzoom": 8 }, "properties": { "halo": 0.8, "title": "托雷斯海峡岛民", "fontsize": 12, "tyid": "304001", "oid": "103:1562760076610", "color": "#262626" }, "geometry": { "type": "Point", "coordinates": [ 142.382812, -11.264612 ] } }
{ "type": "Feature", "tippecanoe": { "layer": "2AFCA7C4A4001583917932523", "minzoom": 2, "maxzoom": 8 }, "properties": { "halo": 1.6, "title": "古白令海文化", "fontsize": 12, "tyid": "304002", "oid": "103:1562760076220", "color": "#0056E7" }, "geometry": { "type": "Point", "coordinates": [ -170.332031, 63.470145 ] } }
{ "type": "Feature", "tippecanoe": { "layer": "2AFCA7C4A4001583917932523", "minzoom": 2, "maxzoom": 8 }, "properties": { "halo": 1.6, "title": "查普卡洛文化", "fontsize": 12, "tyid": "304002", "oid": "103:1562760076371", "color": "#0056E7" }, "geometry": { "type": "Point", "coordinates": [ -99.931641, 20.303418 ] } }
{ "type": "Feature", "tippecanoe": { "layer": "2AFCA7C4A4001583917932523", "minzoom": 2, "maxzoom": 8 }, "properties": { "halo": 1.6, "title": "特奥蒂瓦坎", "fontsize": 12, "tyid": "304002", "oid": "103:1535120141454", "color": "#0056E7" }, "geometry": { "type": "Point", "coordinates": [ -99.404297, 19.808054 ] } }
{ "type": "Feature", "tippecanoe": { "layer": "2AFCA7C4A4001583917932523", "minzoom": 2, "maxzoom": 8 }, "properties": { "halo": 1.6, "title": "米斯特克人", "fontsize": 12, "tyid": "304001", "oid": "103:1535120141455", "color": "#0056E7" }, "geometry": { "type": "Point", "coordinates": [ -98.349609, 17.224758 ] } }
{ "type": "Feature", "tippecanoe": { "layer": "2AFCA7C4A4001583917932523", "minzoom": 2, "maxzoom": 8 }, "properties": { "halo": 1.6, "title": "特里克人", "fontsize": 12, "tyid": "304001", "oid": "103:1562760076352", "color": "#0056E7" }, "geometry": { "type": "Point", "coordinates": [ -97.294922, 17.644022 ] } }
{ "type": "Feature", "tippecanoe": { "layer": "2AFCA7C4A4001583917932523", "minzoom": 2, "maxzoom": 8 }, "properties": { "halo": 1.6, "title": "洛瓦贾达斯文化", "fontsize": 12, "tyid": "304002", "oid": "103:1562760076811", "color": "#0056E7" }, "geometry": { "type": "Point", "coordinates": [ -96.416016, 19.145168 ] } }
{ "type": "Feature", "tippecanoe": { "layer": "2AFCA7C4A4001583917932523", "minzoom": 2, "maxzoom": 8 }, "properties": { "halo": 1.6, "title": "麦克斯人", "fontsize": 12, "tyid": "304001", "oid": "103:1562760076907", "color": "#0056E7" }, "geometry": { "type": "Point", "coordinates": [ -96.328125, 18.062312 ] } }
{ "type": "Feature", "tippecanoe": { "layer": "2AFCA7C4A4001583917932523", "minzoom": 2, "maxzoom": 8 }, "properties": { "halo": 1.6, "title": "后奥尔梅克文化", "fontsize": 12, "tyid": "304002", "oid": "103:1562760076512", "color": "#0056E7" }, "geometry": { "type": "Point", "coordinates": [ -95.625000, 18.479609 ] } }
{ "type": "Feature", "tippecanoe": { "layer": "2AFCA7C4A4001583917932523", "minzoom": 2, "maxzoom": 8 }, "properties": { "halo": 1.6, "title": "佐齐尔人", "fontsize": 12, "tyid": "304001", "oid": "103:1562760076269", "color": "#0056E7" }, "geometry": { "type": "Point", "coordinates": [ -93.339844, 16.551962 ] } }
{ "type": "Feature", "tippecanoe": { "layer": "2AFCA7C4A4001583917932523", "minzoom": 2, "maxzoom": 8 }, "properties": { "halo": 1.6, "title": "祖赫人", "fontsize": 12, "tyid": "304001", "oid": "103:1562760076564", "color": "#0056E7" }, "geometry": { "type": "Point", "coordinates": [ -92.109375, 16.045813 ] } }
{ "type": "Feature", "tippecanoe": { "layer": "2AFCA7C4A4001583917932523", "minzoom": 2, "maxzoom": 8 }, "properties": { "halo": 1.6, "title": "基切人", "fontsize": 12, "tyid": "304001", "oid": "103:1562760076381", "color": "#0056E7" }, "geometry": { "type": "Point", "coordinates": [ -90.966797, 15.029686 ] } }
{ "type": "Feature", "tippecanoe": { "layer": "2AFCA7C4A4001583917932523", "minzoom": 2, "maxzoom": 8 }, "properties": { "halo": 1.6, "title": "阿尔托山文化", "fontsize": 12, "tyid": "304002", "oid": "103:1562760076651", "color": "#0056E7" }, "geometry": { "type": "Point", "coordinates": [ -91.054688, 14.349548 ] } }
{ "type": "Feature", "tippecanoe": { "layer": "2AFCA7C4A4001583917932523", "minzoom": 2, "maxzoom": 8 }, "properties": { "halo": 1.6, "title": "怒溪文化", "fontsize": 12, "tyid": "304002", "oid": "103:1562760076632", "color": "#0056E7" }, "geometry": { "type": "Point", "coordinates": [ -72.421875, 41.574361 ] } }
{ "type": "Feature", "tippecanoe": { "layer": "2AFCA7C4A4001583917932523", "minzoom": 2, "maxzoom": 8 }, "properties": { "halo": 1.6, "title": "威廉文化", "fontsize": 12, "tyid": "304002", "oid": "103:1562760076294", "color": "#0056E7" }, "geometry": { "type": "Point", "coordinates": [ -80.595703, 39.571822 ] } }
{ "type": "Feature", "tippecanoe": { "layer": "2AFCA7C4A4001583917932523", "minzoom": 2, "maxzoom": 8 }, "properties": { "halo": 1.6, "title": "玛纳索塔文化", "fontsize": 12, "tyid": "304002", "oid": "103:1562760076278", "color": "#0056E7" }, "geometry": { "type": "Point", "coordinates": [ -82.441406, 27.683528 ] } }
{ "type": "Feature", "tippecanoe": { "layer": "2AFCA7C4A4001583917932523", "minzoom": 2, "maxzoom": 8 }, "properties": { "halo": 1.6, "title": "卡卢萨人", "fontsize": 12, "tyid": "304001", "oid": "103:1562760076709", "color": "#0056E7" }, "geometry": { "type": "Point", "coordinates": [ -81.650391, 27.137368 ] } }
{ "type": "Feature", "tippecanoe": { "layer": "2AFCA7C4A4001583917932523", "minzoom": 2, "maxzoom": 8 }, "properties": { "halo": 1.6, "title": "圣约翰文化", "fontsize": 12, "tyid": "304002", "oid": "103:1562760076958", "color": "#0056E7" }, "geometry": { "type": "Point", "coordinates": [ -81.474609, 29.382175 ] } }
{ "type": "Feature", "tippecanoe": { "layer": "2AFCA7C4A4001583917932523", "minzoom": 2, "maxzoom": 8 }, "properties": { "halo": 1.6, "title": "贝尔格莱德文化", "fontsize": 12, "tyid": "304002", "oid": "103:1562760076469", "color": "#0056E7" }, "geometry": { "type": "Point", "coordinates": [ -80.859375, 27.449790 ] } }
{ "type": "Feature", "tippecanoe": { "layer": "2AFCA7C4A4001583917932523", "minzoom": 2, "maxzoom": 8 }, "properties": { "halo": 1.6, "title": "格莱兹文化", "fontsize": 12, "tyid": "304002", "oid": "103:1562760076455", "color": "#0056E7" }, "geometry": { "type": "Point", "coordinates": [ -80.771484, 26.037042 ] } }
{ "type": "Feature", "tippecanoe": { "layer": "2AFCA7C4A4001583917932523", "minzoom": 2, "maxzoom": 8 }, "properties": { "halo": 1.6, "title": "德贵斯塔族", "fontsize": 12, "tyid": "304001", "oid": "103:1562760076385", "color": "#0056E7" }, "geometry": { "type": "Point", "coordinates": [ -80.244141, 25.878994 ] } }
{ "type": "Feature", "tippecanoe": { "layer": "2AFCA7C4A4001583917932523", "minzoom": 2, "maxzoom": 8 }, "properties": { "halo": 1.6, "title": "雷卡人", "fontsize": 12, "tyid": "304001", "oid": "103:1562760076831", "color": "#0056E7" }, "geometry": { "type": "Point", "coordinates": [ -87.802734, 13.752725 ] } }
{ "type": "Feature", "tippecanoe": { "layer": "2AFCA7C4A4001583917932523", "minzoom": 2, "maxzoom": 8 }, "properties": { "halo": 1.6, "title": "格兰科克勒文化", "fontsize": 12, "tyid": "304002", "oid": "103:1562760076659", "color": "#0056E7" }, "geometry": { "type": "Point", "coordinates": [ -80.507812, 8.581021 ] } }
{ "type": "Feature", "tippecanoe": { "layer": "2AFCA7C4A4001583917932523", "minzoom": 2, "maxzoom": 8 }, "properties": { "halo": 1.6, "title": "泰罗纳", "fontsize": 12, "tyid": "304002", "oid": "103:1562760076264", "color": "#0056E7" }, "geometry": { "type": "Point", "coordinates": [ -73.564453, 10.833306 ] } }
{ "type": "Feature", "tippecanoe": { "layer": "2AFCA7C4A4001583917932523", "minzoom": 2, "maxzoom": 8 }, "properties": { "halo": 1.6, "title": "卡利玛文化", "fontsize": 12, "tyid": "304002", "oid": "103:1562760076790", "color": "#0056E7" }, "geometry": { "type": "Point", "coordinates": [ -76.728516, 4.214943 ] } }
{ "type": "Feature", "tippecanoe": { "layer": "2AFCA7C4A4001583917932523", "minzoom": 2, "maxzoom": 8 }, "properties": { "halo": 1.6, "title": "马拉加纳文化", "fontsize": 12, "tyid": "304002", "oid": "103:1562760076667", "color": "#0056E7" }, "geometry": { "type": "Point", "coordinates": [ -76.289062, 3.425692 ] } }
{ "type": "Feature", "tippecanoe": { "layer": "2AFCA7C4A4001583917932523", "minzoom": 2, "maxzoom": 8 }, "properties": { "halo": 1.6, "title": "昆巴雅文明", "fontsize": 12, "tyid": "304002", "oid": "103:1562760076814", "color": "#0056E7" }, "geometry": { "type": "Point", "coordinates": [ -75.761719, 5.090944 ] } }
{ "type": "Feature", "tippecanoe": { "layer": "2AFCA7C4A4001583917932523", "minzoom": 2, "maxzoom": 8 }, "properties": { "halo": 1.6, "title": "科罗索文化", "fontsize": 12, "tyid": "304002", "oid": "103:1562760076411", "color": "#0056E7" }, "geometry": { "type": "Point", "coordinates": [ -66.533203, 18.229351 ] } }
{ "type": "Feature", "tippecanoe": { "layer": "2AFCA7C4A4001583917932523", "minzoom": 2, "maxzoom": 8 }, "properties": { "halo": 1.6, "title": "大庄园文化", "fontsize": 12, "tyid": "304002", "oid": "103:1562760076607", "color": "#0056E7" }, "geometry": { "type": "Point", "coordinates": [ -65.917969, 18.396230 ] } }
{ "type": "Feature", "tippecanoe": { "layer": "2AFCA7C4A4001583917932523", "minzoom": 2, "maxzoom": 8 }, "properties": { "halo": 1.6, "title": "萨拉杜文化", "fontsize": 12, "tyid": "304002", "oid": "103:1562760076703", "color": "#0056E7" }, "geometry": { "type": "Point", "coordinates": [ -61.699219, 16.214675 ] } }
{ "type": "Feature", "tippecanoe": { "layer": "2AFCA7C4A4001583917932523", "minzoom": 2, "maxzoom": 8 }, "properties": { "halo": 1.6, "title": "皮克特人", "fontsize": 12, "tyid": "304001", "oid": "103:1535120141369", "color": "#0056E7" }, "geometry": { "type": "Point", "coordinates": [ -1.406250, 60.326948 ] } }
{ "type": "Feature", "tippecanoe": { "layer": "2AFCA7C4A4001583917932523", "minzoom": 2, "maxzoom": 8 }, "properties": { "halo": 1.6, "title": "凯雷尼人", "fontsize": 12, "tyid": "304001", "oid": "103:1562760076869", "color": "#0056E7" }, "geometry": { "type": "Point", "coordinates": [ -5.097656, 58.077876 ] } }
{ "type": "Feature", "tippecanoe": { "layer": "2AFCA7C4A4001583917932523", "minzoom": 2, "maxzoom": 8 }, "properties": { "halo": 1.6, "title": "卡诺奈卡人", "fontsize": 12, "tyid": "304001", "oid": "103:1562760076967", "color": "#0056E7" }, "geometry": { "type": "Point", "coordinates": [ -5.537109, 57.657158 ] } }
{ "type": "Feature", "tippecanoe": { "layer": "2AFCA7C4A4001583917932523", "minzoom": 2, "maxzoom": 8 }, "properties": { "halo": 1.6, "title": "斯梅尔泰人", "fontsize": 12, "tyid": "304001", "oid": "103:1562760076619", "color": "#0056E7" }, "geometry": { "type": "Point", "coordinates": [ -4.746094, 57.984808 ] } }
{ "type": "Feature", "tippecanoe": { "layer": "2AFCA7C4A4001583917932523", "minzoom": 2, "maxzoom": 8 }, "properties": { "halo": 1.6, "title": "卢吉人", "fontsize": 12, "tyid": "304001", "oid": "103:1562760076867", "color": "#0056E7" }, "geometry": { "type": "Point", "coordinates": [ -4.130859, 58.124320 ] } }
{ "type": "Feature", "tippecanoe": { "layer": "2AFCA7C4A4001583917932523", "minzoom": 2, "maxzoom": 8 }, "properties": { "halo": 1.6, "title": "克洛维人[凯瑟尼斯]", "fontsize": 12, "tyid": "304001", "oid": "103:1576922418276", "color": "#0056E7" }, "geometry": { "type": "Point", "coordinates": [ -3.867188, 58.447733 ] } }
{ "type": "Feature", "tippecanoe": { "layer": "2AFCA7C4A4001583917932523", "minzoom": 2, "maxzoom": 8 }, "properties": { "halo": 1.6, "title": "德坎泰人", "fontsize": 12, "tyid": "304001", "oid": "103:1562760076728", "color": "#0056E7" }, "geometry": { "type": "Point", "coordinates": [ -4.218750, 57.610107 ] } }
{ "type": "Feature", "tippecanoe": { "layer": "2AFCA7C4A4001583917932523", "minzoom": 2, "maxzoom": 8 }, "properties": { "halo": 1.6, "title": "维格梅京人", "fontsize": 12, "tyid": "304001", "oid": "103:1562760076792", "color": "#0056E7" }, "geometry": { "type": "Point", "coordinates": [ -3.339844, 57.515823 ] } }
{ "type": "Feature", "tippecanoe": { "layer": "2AFCA7C4A4001583917932523", "minzoom": 2, "maxzoom": 8 }, "properties": { "halo": 1.6, "title": "克鲁尼人", "fontsize": 12, "tyid": "304001", "oid": "103:1562760076673", "color": "#0056E7" }, "geometry": { "type": "Point", "coordinates": [ -5.449219, 57.040730 ] } }
{ "type": "Feature", "tippecanoe": { "layer": "2AFCA7C4A4001583917932523", "minzoom": 2, "maxzoom": 8 }, "properties": { "halo": 1.6, "title": "埃皮迪人", "fontsize": 12, "tyid": "304001", "oid": "103:1562760076878", "color": "#0056E7" }, "geometry": { "type": "Point", "coordinates": [ -5.361328, 56.267761 ] } }
{ "type": "Feature", "tippecanoe": { "layer": "2AFCA7C4A4001583917932523", "minzoom": 2, "maxzoom": 8 }, "properties": { "halo": 1.6, "title": "维尼科内人", "fontsize": 12, "tyid": "304001", "oid": "103:1562760076680", "color": "#0056E7" }, "geometry": { "type": "Point", "coordinates": [ -3.691406, 56.365250 ] } }
{ "type": "Feature", "tippecanoe": { "layer": "2AFCA7C4A4001583917932523", "minzoom": 2, "maxzoom": 8 }, "properties": { "halo": 1.6, "title": "德克萨利人", "fontsize": 12, "tyid": "304001", "oid": "103:1562760076806", "color": "#0056E7" }, "geometry": { "type": "Point", "coordinates": [ -2.373047, 57.040730 ] } }
{ "type": "Feature", "tippecanoe": { "layer": "2AFCA7C4A4001583917932523", "minzoom": 2, "maxzoom": 8 }, "properties": { "halo": 1.6, "title": "诺万忒人", "fontsize": 12, "tyid": "304001", "oid": "103:1562760076617", "color": "#0056E7" }, "geometry": { "type": "Point", "coordinates": [ -4.658203, 55.078367 ] } }
{ "type": "Feature", "tippecanoe": { "layer": "2AFCA7C4A4001583917932523", "minzoom": 2, "maxzoom": 8 }, "properties": { "halo": 1.6, "title": "达姆诺尼人", "fontsize": 12, "tyid": "304001", "oid": "103:1562760076365", "color": "#0056E7" }, "geometry": { "type": "Point", "coordinates": [ -4.130859, 55.776573 ] } }
{ "type": "Feature", "tippecanoe": { "layer": "2AFCA7C4A4001583917932523", "minzoom": 2, "maxzoom": 8 }, "properties": { "halo": 1.6, "title": "赛格威人", "fontsize": 12, "tyid": "304001", "oid": "103:1562760076721", "color": "#0056E7" }, "geometry": { "type": "Point", "coordinates": [ -3.691406, 55.229023 ] } }
{ "type": "Feature", "tippecanoe": { "layer": "2AFCA7C4A4001583917932523", "minzoom": 2, "maxzoom": 8 }, "properties": { "halo": 1.6, "title": "卡尔维蒂人[坎布里亚郡]", "fontsize": 12, "tyid": "304001", "oid": "103:1576922418259", "color": "#0056E7" }, "geometry": { "type": "Point", "coordinates": [ -3.076172, 54.572062 ] } }
{ "type": "Feature", "tippecanoe": { "layer": "2AFCA7C4A4001583917932523", "minzoom": 2, "maxzoom": 8 }, "properties": { "halo": 1.6, "title": "甘加尼人", "fontsize": 12, "tyid": "304001", "oid": "103:1562760076969", "color": "#0056E7" }, "geometry": { "type": "Point", "coordinates": [ -4.570312, 52.908902 ] } }
{ "type": "Feature", "tippecanoe": { "layer": "2AFCA7C4A4001583917932523", "minzoom": 2, "maxzoom": 8 }, "properties": { "halo": 1.6, "title": "奥陶维斯人", "fontsize": 12, "tyid": "304001", "oid": "103:1562760076685", "color": "#0056E7" }, "geometry": { "type": "Point", "coordinates": [ -3.691406, 52.643063 ] } }
{ "type": "Feature", "tippecanoe": { "layer": "2AFCA7C4A4001583917932523", "minzoom": 2, "maxzoom": 8 }, "properties": { "halo": 1.6, "title": "德克安格利人", "fontsize": 12, "tyid": "304001", "oid": "103:1562760076726", "color": "#0056E7" }, "geometry": { "type": "Point", "coordinates": [ -3.427734, 53.173119 ] } }
{ "type": "Feature", "tippecanoe": { "layer": "2AFCA7C4A4001583917932523", "minzoom": 2, "maxzoom": 8 }, "properties": { "halo": 1.8, "title": "沃塔迪尼人", "fontsize": 12, "tyid": "304000", "oid": "103:1562760076723", "color": "#0056E7" }, "geometry": { "type": "Point", "coordinates": [ -2.724609, 55.677584 ] } }
{ "type": "Feature", "tippecanoe": { "layer": "2AFCA7C4A4001583917932523", "minzoom": 2, "maxzoom": 8 }, "properties": { "halo": 1.6, "title": "克洛维人[米德兰兹]", "fontsize": 12, "tyid": "304001", "oid": "103:1576922418269", "color": "#0056E7" }, "geometry": { "type": "Point", "coordinates": [ -2.636719, 52.802761 ] } }
{ "type": "Feature", "tippecanoe": { "layer": "2AFCA7C4A4001583917932523", "minzoom": 2, "maxzoom": 8 }, "properties": { "halo": 1.6, "title": "帕里斯人", "fontsize": 12, "tyid": "304001", "oid": "103:1562760076774", "color": "#0056E7" }, "geometry": { "type": "Point", "coordinates": [ -0.615234, 53.956086 ] } }
{ "type": "Feature", "tippecanoe": { "layer": "2AFCA7C4A4001583917932523", "minzoom": 2, "maxzoom": 8 }, "properties": { "halo": 1.6, "title": "德米忒人", "fontsize": 12, "tyid": "304001", "oid": "103:1562760076369", "color": "#0056E7" }, "geometry": { "type": "Point", "coordinates": [ -4.658203, 51.944265 ] } }
{ "type": "Feature", "tippecanoe": { "layer": "2AFCA7C4A4001583917932523", "minzoom": 2, "maxzoom": 8 }, "properties": { "halo": 1.6, "title": "西卢尔人", "fontsize": 12, "tyid": "304001", "oid": "103:1562760076625", "color": "#0056E7" }, "geometry": { "type": "Point", "coordinates": [ -3.427734, 51.781436 ] } }
{ "type": "Feature", "tippecanoe": { "layer": "2AFCA7C4A4001583917932523", "minzoom": 2, "maxzoom": 8 }, "properties": { "halo": 1.6, "title": "杜蒙尼人", "fontsize": 12, "tyid": "304001", "oid": "103:1562760076533", "color": "#0056E7" }, "geometry": { "type": "Point", "coordinates": [ -4.130859, 50.736455 ] } }
{ "type": "Feature", "tippecanoe": { "layer": "2AFCA7C4A4001583917932523", "minzoom": 2, "maxzoom": 8 }, "properties": { "halo": 1.6, "title": "多布尼人", "fontsize": 12, "tyid": "304001", "oid": "103:1562760076678", "color": "#0056E7" }, "geometry": { "type": "Point", "coordinates": [ -2.197266, 51.944265 ] } }
{ "type": "Feature", "tippecanoe": { "layer": "2AFCA7C4A4001583917932523", "minzoom": 2, "maxzoom": 8 }, "properties": { "halo": 1.6, "title": "杜罗特里吉人", "fontsize": 12, "tyid": "304001", "oid": "103:1562760076643", "color": "#0056E7" }, "geometry": { "type": "Point", "coordinates": [ -2.548828, 50.903033 ] } }
{ "type": "Feature", "tippecanoe": { "layer": "2AFCA7C4A4001583917932523", "minzoom": 2, "maxzoom": 8 }, "properties": { "halo": 1.6, "title": "贝尔盖人", "fontsize": 12, "tyid": "304001", "oid": "103:1562760076738", "color": "#0056E7" }, "geometry": { "type": "Point", "coordinates": [ -1.845703, 51.124213 ] } }
{ "type": "Feature", "tippecanoe": { "layer": "2AFCA7C4A4001583917932523", "minzoom": 2, "maxzoom": 8 }, "properties": { "halo": 1.6, "title": "卡图维劳尼人", "fontsize": 12, "tyid": "304001", "oid": "103:1562760076917", "color": "#0056E7" }, "geometry": { "type": "Point", "coordinates": [ -0.439453, 51.890054 ] } }
{ "type": "Feature", "tippecanoe": { "layer": "2AFCA7C4A4001583917932523", "minzoom": 2, "maxzoom": 8 }, "properties": { "halo": 1.8, "title": "阿特雷巴特人", "fontsize": 12, "tyid": "304000", "oid": "103:1562760076531", "color": "#0056E7" }, "geometry": { "type": "Point", "coordinates": [ -1.406250, 51.399206 ] } }
{ "type": "Feature", "tippecanoe": { "layer": "2AFCA7C4A4001583917932523", "minzoom": 2, "maxzoom": 8 }, "properties": { "halo": 1.6, "title": "雷恩尼斯人", "fontsize": 12, "tyid": "304001", "oid": "103:1562760076348", "color": "#0056E7" }, "geometry": { "type": "Point", "coordinates": [ -0.439453, 51.179343 ] } }
{ "type": "Feature", "tippecanoe": { "layer": "2AFCA7C4A4001583917932523", "minzoom": 2, "maxzoom": 8 }, "properties": { "halo": 1.6, "title": "关切人", "fontsize": 12, "tyid": "304001", "oid": "103:1562760076187", "color": "#0056E7" }, "geometry": { "type": "Point", "coordinates": [ -16.611328, 28.304381 ] } }
{ "type": "Feature", "tippecanoe": { "layer": "2AFCA7C4A4001583917932523", "minzoom": 2, "maxzoom": 8 }, "properties": { "halo": 1.6, "title": "后迦太基人控制区", "fontsize": 12, "tyid": "304002", "oid": "103:1562760076612", "color": "#0056E7" }, "geometry": { "type": "Point", "coordinates": [ -5.888672, 35.389050 ] } }
{ "type": "Feature", "tippecanoe": { "layer": "2AFCA7C4A4001583917932523", "minzoom": 2, "maxzoom": 8 }, "properties": { "halo": 1.6, "title": "瓜纳加拉文化", "fontsize": 12, "tyid": "304002", "oid": "103:1562760076951", "color": "#0056E7" }, "geometry": { "type": "Point", "coordinates": [ -80.595703, -1.669686 ] } }
{ "type": "Feature", "tippecanoe": { "layer": "2AFCA7C4A4001583917932523", "minzoom": 2, "maxzoom": 8 }, "properties": { "halo": 1.6, "title": "巴伊亚文化", "fontsize": 12, "tyid": "304002", "oid": "103:1562760076887", "color": "#0056E7" }, "geometry": { "type": "Point", "coordinates": [ -80.068359, -0.527336 ] } }
{ "type": "Feature", "tippecanoe": { "layer": "2AFCA7C4A4001583917932523", "minzoom": 2, "maxzoom": 8 }, "properties": { "halo": 1.6, "title": "维克斯文化", "fontsize": 12, "tyid": "304002", "oid": "103:1562760076491", "color": "#0056E7" }, "geometry": { "type": "Point", "coordinates": [ -80.419922, -5.878332 ] } }
{ "type": "Feature", "tippecanoe": { "layer": "2AFCA7C4A4001583917932523", "minzoom": 2, "maxzoom": 8 }, "properties": { "halo": 1.6, "title": "萨利纳尔文化", "fontsize": 12, "tyid": "304002", "oid": "103:1562760076250", "color": "#0056E7" }, "geometry": { "type": "Point", "coordinates": [ -78.925781, -7.885147 ] } }
{ "type": "Feature", "tippecanoe": { "layer": "2AFCA7C4A4001583917932523", "minzoom": 2, "maxzoom": 8 }, "properties": { "halo": 1.6, "title": "维鲁文化", "fontsize": 12, "tyid": "304002", "oid": "103:1562760076794", "color": "#0056E7" }, "geometry": { "type": "Point", "coordinates": [ -78.837891, -8.320212 ] } }
{ "type": "Feature", "tippecanoe": { "layer": "2AFCA7C4A4001583917932523", "minzoom": 2, "maxzoom": 8 }, "properties": { "halo": 1.6, "title": "瑞克文化", "fontsize": 12, "tyid": "304002", "oid": "103:1562760076408", "color": "#0056E7" }, "geometry": { "type": "Point", "coordinates": [ -77.607422, -9.622414 ] } }
{ "type": "Feature", "tippecanoe": { "layer": "2AFCA7C4A4001583917932523", "minzoom": 2, "maxzoom": 8 }, "properties": { "halo": 1.6, "title": "加伊纳索文化", "fontsize": 12, "tyid": "304002", "oid": "103:1562760076421", "color": "#0056E7" }, "geometry": { "type": "Point", "coordinates": [ -77.080078, -11.092166 ] } }
{ "type": "Feature", "tippecanoe": { "layer": "2AFCA7C4A4001583917932523", "minzoom": 2, "maxzoom": 8 }, "properties": { "halo": 1.6, "title": "托帕拉文化", "fontsize": 12, "tyid": "304002", "oid": "103:1562760076271", "color": "#0056E7" }, "geometry": { "type": "Point", "coordinates": [ -75.937500, -13.667338 ] } }
{ "type": "Feature", "tippecanoe": { "layer": "2AFCA7C4A4001583917932523", "minzoom": 2, "maxzoom": 8 }, "properties": { "halo": 1.6, "title": "华帕文化", "fontsize": 12, "tyid": "304002", "oid": "103:1562760076489", "color": "#0056E7" }, "geometry": { "type": "Point", "coordinates": [ -74.179688, -13.581921 ] } }
{ "type": "Feature", "tippecanoe": { "layer": "2AFCA7C4A4001583917932523", "minzoom": 2, "maxzoom": 8 }, "properties": { "halo": 1.6, "title": "纳斯卡文化", "fontsize": 12, "tyid": "304002", "oid": "103:1535120141449", "color": "#0056E7" }, "geometry": { "type": "Point", "coordinates": [ -75.058594, -14.944785 ] } }
{ "type": "Feature", "tippecanoe": { "layer": "2AFCA7C4A4001583917932523", "minzoom": 2, "maxzoom": 8 }, "properties": { "halo": 1.6, "title": "普加拉文化", "fontsize": 12, "tyid": "304002", "oid": "103:1562760076258", "color": "#0056E7" }, "geometry": { "type": "Point", "coordinates": [ -69.697266, -13.838080 ] } }
{ "type": "Feature", "tippecanoe": { "layer": "2AFCA7C4A4001583917932523", "minzoom": 2, "maxzoom": 8 }, "properties": { "halo": 1.6, "title": "塔夫文化", "fontsize": 12, "tyid": "304002", "oid": "103:1562760076816", "color": "#0056E7" }, "geometry": { "type": "Point", "coordinates": [ -65.654297, -26.980829 ] } }
{ "type": "Feature", "tippecanoe": { "layer": "2AFCA7C4A4001583917932523", "minzoom": 2, "maxzoom": 8 }, "properties": { "halo": 1.6, "title": "豪什人", "fontsize": 12, "tyid": "304001", "oid": "103:1562760076388", "color": "#0056E7" }, "geometry": { "type": "Point", "coordinates": [ -65.917969, -54.724620 ] } }
{ "type": "Feature", "tippecanoe": { "layer": "2AFCA7C4A4001583917932523", "minzoom": 2, "maxzoom": 8 }, "properties": { "halo": 1.6, "title": "哥得兰人", "fontsize": 12, "tyid": "304001", "oid": "103:1562760076750", "color": "#0056E7" }, "geometry": { "type": "Point", "coordinates": [ 18.457031, 57.515823 ] } }
{ "type": "Feature", "tippecanoe": { "layer": "2AFCA7C4A4001583917932523", "minzoom": 2, "maxzoom": 8 }, "properties": { "halo": 1.6, "title": "爱西尼人", "fontsize": 12, "tyid": "304001", "oid": "103:1562760076961", "color": "#0056E7" }, "geometry": { "type": "Point", "coordinates": [ 0.791016, 52.589701 ] } }
{ "type": "Feature", "tippecanoe": { "layer": "2AFCA7C4A4001583917932523", "minzoom": 2, "maxzoom": 8 }, "properties": { "halo": 1.8, "title": "特里诺文特人", "fontsize": 12, "tyid": "304000", "oid": "103:1562760076207", "color": "#0056E7" }, "geometry": { "type": "Point", "coordinates": [ 0.791016, 51.998410 ] } }
{ "type": "Feature", "tippecanoe": { "layer": "2AFCA7C4A4001583917932523", "minzoom": 2, "maxzoom": 8 }, "properties": { "halo": 1.6, "title": "坎蒂亚奇人", "fontsize": 12, "tyid": "304001", "oid": "103:1562760076367", "color": "#0056E7" }, "geometry": { "type": "Point", "coordinates": [ 0.527344, 51.179343 ] } }
{ "type": "Feature", "tippecanoe": { "layer": "2AFCA7C4A4001583917932523", "minzoom": 2, "maxzoom": 8 }, "properties": { "halo": 1.6, "title": "盎格鲁人", "fontsize": 12, "tyid": "304001", "oid": "103:1562760076848", "color": "#0056E7" }, "geometry": { "type": "Point", "coordinates": [ 9.316406, 54.622978 ] } }
{ "type": "Feature", "tippecanoe": { "layer": "2AFCA7C4A4001583917932523", "minzoom": 2, "maxzoom": 8 }, "properties": { "halo": 1.6, "title": "萨克森人", "fontsize": 12, "tyid": "304001", "oid": "103:1562760076799", "color": "#0056E7" }, "geometry": { "type": "Point", "coordinates": [ 10.019531, 54.007769 ] } }
{ "type": "Feature", "tippecanoe": { "layer": "2AFCA7C4A4001583917932523", "minzoom": 2, "maxzoom": 8 }, "properties": { "halo": 1.6, "title": "查马维人", "fontsize": 12, "tyid": "304001", "oid": "103:1562760076742", "color": "#0056E7" }, "geometry": { "type": "Point", "coordinates": [ 7.119141, 51.944265 ] } }
{ "type": "Feature", "tippecanoe": { "layer": "2AFCA7C4A4001583917932523", "minzoom": 2, "maxzoom": 8 }, "properties": { "halo": 1.6, "title": "辛坎布雷人", "fontsize": 12, "tyid": "304001", "oid": "103:1562760076842", "color": "#0056E7" }, "geometry": { "type": "Point", "coordinates": [ 7.646484, 51.289406 ] } }
{ "type": "Feature", "tippecanoe": { "layer": "2AFCA7C4A4001583917932523", "minzoom": 2, "maxzoom": 8 }, "properties": { "halo": 1.6, "title": "布鲁克特人", "fontsize": 12, "tyid": "304001", "oid": "103:1562760076899", "color": "#0056E7" }, "geometry": { "type": "Point", "coordinates": [ 8.437500, 51.998410 ] } }
{ "type": "Feature", "tippecanoe": { "layer": "2AFCA7C4A4001583917932523", "minzoom": 2, "maxzoom": 8 }, "properties": { "halo": 1.6, "title": "马提亚西人", "fontsize": 12, "tyid": "304001", "oid": "103:1562760076840", "color": "#0056E7" }, "geometry": { "type": "Point", "coordinates": [ 9.404297, 50.289339 ] } }
{ "type": "Feature", "tippecanoe": { "layer": "2AFCA7C4A4001583917932523", "minzoom": 2, "maxzoom": 8 }, "properties": { "halo": 1.6, "title": "奥耶塞利人", "fontsize": 12, "tyid": "304001", "oid": "103:1562760076937", "color": "#0056E7" }, "geometry": { "type": "Point", "coordinates": [ 22.500000, 58.447733 ] } }
{ "type": "Feature", "tippecanoe": { "layer": "2AFCA7C4A4001583917932523", "minzoom": 2, "maxzoom": 8 }, "properties": { "halo": 1.8, "title": "埃吉索斯", "fontsize": 12, "tyid": "304000", "oid": "103:1562760076615", "color": "#0056E7" }, "geometry": { "type": "Point", "coordinates": [ 29.091797, 45.151053 ] } }
{ "type": "Feature", "tippecanoe": { "layer": "2AFCA7C4A4001583917932523", "minzoom": 2, "maxzoom": 8 }, "properties": { "halo": 1.8, "title": "希斯特里亚", "fontsize": 12, "tyid": "304000", "oid": "103:1562760076537", "color": "#0056E7" }, "geometry": { "type": "Point", "coordinates": [ 28.740234, 44.527843 ] } }
{ "type": "Feature", "tippecanoe": { "layer": "2AFCA7C4A4001583917932523", "minzoom": 2, "maxzoom": 8 }, "properties": { "halo": 1.8, "title": "拜占庭", "fontsize": 12, "tyid": "304000", "oid": "103:1562760076535", "color": "#0056E7" }, "geometry": { "type": "Point", "coordinates": [ 28.740234, 41.178654 ] } }
{ "type": "Feature", "tippecanoe": { "layer": "2AFCA7C4A4001583917932523", "minzoom": 2, "maxzoom": 8 }, "properties": { "halo": 1.8, "title": "自由拉科尼亚同盟", "fontsize": 12, "tyid": "304000", "oid": "103:1562760077066", "color": "#0056E7" }, "geometry": { "type": "Point", "coordinates": [ 22.851562, 36.879621 ] } }
{ "type": "Feature", "tippecanoe": { "layer": "2AFCA7C4A4001583917932523", "minzoom": 2, "maxzoom": 8 }, "properties": { "halo": 1.8, "title": "罗德斯国", "fontsize": 12, "tyid": "304000", "oid": "103:1535120141258", "color": "#0056E7" }, "geometry": { "type": "Point", "coordinates": [ 27.949219, 36.244273 ] } }
{ "type": "Feature", "tippecanoe": { "layer": "2AFCA7C4A4001583917932523", "minzoom": 2, "maxzoom": 8 }, "properties": { "halo": 1.6, "title": "利西亚人联盟", "fontsize": 12, "tyid": "304002", "oid": "103:1562760077027", "color": "#0056E7" }, "geometry": { "type": "Point", "coordinates": [ 29.794922, 36.527295 ] } }
{ "type": "Feature", "tippecanoe": { "layer": "2AFCA7C4A4001583917932523", "minzoom": 2, "maxzoom": 8 }, "properties": { "halo": 1.8, "title": "科马基尼王国", "fontsize": 12, "tyid": "304000", "oid": "103:1535120141314", "color": "#0056E7" }, "geometry": { "type": "Point", "coordinates": [ 37.880859, 37.718590 ] } }
{ "type": "Feature", "tippecanoe": { "layer": "2AFCA7C4A4001583917932523", "minzoom": 2, "maxzoom": 8 }, "properties": { "halo": 1.8, "title": "卡尔基斯王国", "fontsize": 12, "tyid": "304000", "oid": "103:1562760077024", "color": "#0056E7" }, "geometry": { "type": "Point", "coordinates": [ 35.859375, 33.724340 ] } }
{ "type": "Feature", "tippecanoe": { "layer": "2AFCA7C4A4001583917932523", "minzoom": 2, "maxzoom": 8 }, "properties": { "halo": 1.8, "title": "希律合众国", "fontsize": 12, "tyid": "304000", "oid": "103:1535120141303", "color": "#0056E7" }, "geometry": { "type": "Point", "coordinates": [ 35.771484, 32.990236 ] } }
{ "type": "Feature", "tippecanoe": { "layer": "2AFCA7C4A4001583917932523", "minzoom": 2, "maxzoom": 8 }, "properties": { "halo": 1.6, "title": "德卡波利斯联盟", "fontsize": 12, "tyid": "304002", "oid": "103:1562760077070", "color": "#0056E7" }, "geometry": { "type": "Point", "coordinates": [ 35.859375, 32.546813 ] } }
{ "type": "Feature", "tippecanoe": { "layer": "2AFCA7C4A4001583917932523", "minzoom": 2, "maxzoom": 8 }, "properties": { "halo": 1.8, "title": "埃米萨王朝", "fontsize": 12, "tyid": "304000", "oid": "103:1535120141306", "color": "#0056E7" }, "geometry": { "type": "Point", "coordinates": [ 36.650391, 34.741612 ] } }
{ "type": "Feature", "tippecanoe": { "layer": "2AFCA7C4A4001583917932523", "minzoom": 2, "maxzoom": 8 }, "properties": { "halo": 1.8, "title": "索芬尼王国", "fontsize": 12, "tyid": "304000", "oid": "103:1562760076595", "color": "#0056E7" }, "geometry": { "type": "Point", "coordinates": [ 39.638672, 37.996163 ] } }
{ "type": "Feature", "tippecanoe": { "layer": "2AFCA7C4A4001583917932523", "minzoom": 2, "maxzoom": 8 }, "properties": { "halo": 1.6, "title": "列兹金人", "fontsize": 12, "tyid": "304001", "oid": "103:1562760076527", "color": "#0056E7" }, "geometry": { "type": "Point", "coordinates": [ 47.988281, 41.771312 ] } }
{ "type": "Feature", "tippecanoe": { "layer": "2AFCA7C4A4001583917932523", "minzoom": 2, "maxzoom": 8 }, "properties": { "halo": 1.8, "title": "温宿国", "fontsize": 12, "tyid": "304000", "oid": "103:1562760076988", "color": "#0056E7" }, "geometry": { "type": "Point", "coordinates": [ 79.277344, 41.310824 ] } }
{ "type": "Feature", "tippecanoe": { "layer": "2AFCA7C4A4001583917932523", "minzoom": 2, "maxzoom": 8 }, "properties": { "halo": 1.8, "title": "乌贪訾离国", "fontsize": 12, "tyid": "304000", "oid": "103:1562760077122", "color": "#0056E7" }, "geometry": { "type": "Point", "coordinates": [ 86.748047, 44.465151 ] } }
{ "type": "Feature", "tippecanoe": { "layer": "2AFCA7C4A4001583917932523", "minzoom": 2, "maxzoom": 8 }, "properties": { "halo": 1.8, "title": "西且弥国", "fontsize": 12, "tyid": "304000", "oid": "103:1562760077005", "color": "#0056E7" }, "geometry": { "type": "Point", "coordinates": [ 86.220703, 43.834527 ] } }
{ "type": "Feature", "tippecanoe": { "layer": "2AFCA7C4A4001583917932523", "minzoom": 2, "maxzoom": 8 }, "properties": { "halo": 1.8, "title": "东且弥国", "fontsize": 12, "tyid": "304000", "oid": "103:1562760077003", "color": "#0056E7" }, "geometry": { "type": "Point", "coordinates": [ 86.923828, 43.707594 ] } }
{ "type": "Feature", "tippecanoe": { "layer": "2AFCA7C4A4001583917932523", "minzoom": 2, "maxzoom": 8 }, "properties": { "halo": 1.8, "title": "焉耆国", "fontsize": 12, "tyid": "304000", "oid": "103:1562760076992", "color": "#0056E7" }, "geometry": { "type": "Point", "coordinates": [ 85.957031, 41.902277 ] } }
{ "type": "Feature", "tippecanoe": { "layer": "2AFCA7C4A4001583917932523", "minzoom": 2, "maxzoom": 8 }, "properties": { "halo": 1.8, "title": "劫国", "fontsize": 12, "tyid": "304000", "oid": "103:1562760077116", "color": "#0056E7" }, "geometry": { "type": "Point", "coordinates": [ 87.802734, 44.150681 ] } }
{ "type": "Feature", "tippecanoe": { "layer": "2AFCA7C4A4001583917932523", "minzoom": 2, "maxzoom": 8 }, "properties": { "halo": 1.8, "title": "卑陆后国", "fontsize": 12, "tyid": "304000", "oid": "103:1562760077033", "color": "#0056E7" }, "geometry": { "type": "Point", "coordinates": [ 88.154297, 44.276671 ] } }
{ "type": "Feature", "tippecanoe": { "layer": "2AFCA7C4A4001583917932523", "minzoom": 2, "maxzoom": 8 }, "properties": { "halo": 1.8, "title": "单桓国", "fontsize": 12, "tyid": "304000", "oid": "103:1562760077022", "color": "#0056E7" }, "geometry": { "type": "Point", "coordinates": [ 87.539062, 44.024422 ] } }
{ "type": "Feature", "tippecanoe": { "layer": "2AFCA7C4A4001583917932523", "minzoom": 2, "maxzoom": 8 }, "properties": { "halo": 1.8, "title": "卑陆国", "fontsize": 12, "tyid": "304000", "oid": "103:1562760077098", "color": "#0056E7" }, "geometry": { "type": "Point", "coordinates": [ 88.066406, 43.961191 ] } }
{ "type": "Feature", "tippecanoe": { "layer": "2AFCA7C4A4001583917932523", "minzoom": 2, "maxzoom": 8 }, "properties": { "halo": 1.8, "title": "郁立师国", "fontsize": 12, "tyid": "304000", "oid": "103:1562760077020", "color": "#0056E7" }, "geometry": { "type": "Point", "coordinates": [ 88.945312, 43.961191 ] } }
{ "type": "Feature", "tippecanoe": { "layer": "2AFCA7C4A4001583917932523", "minzoom": 2, "maxzoom": 8 }, "properties": { "halo": 1.6, "title": "车师后城国", "fontsize": 12, "tyid": "304002", "oid": "103:1562760077093", "color": "#0056E7" }, "geometry": { "type": "Point", "coordinates": [ 89.560547, 44.024422 ] } }
{ "type": "Feature", "tippecanoe": { "layer": "2AFCA7C4A4001583917932523", "minzoom": 2, "maxzoom": 8 }, "properties": { "halo": 1.6, "title": "车师都尉国", "fontsize": 12, "tyid": "304002", "oid": "103:1562760077030", "color": "#0056E7" }, "geometry": { "type": "Point", "coordinates": [ 89.384766, 42.617791 ] } }
{ "type": "Feature", "tippecanoe": { "layer": "2AFCA7C4A4001583917932523", "minzoom": 2, "maxzoom": 8 }, "properties": { "halo": 1.8, "title": "卡塔班王国", "fontsize": 12, "tyid": "304000", "oid": "103:1535120141284", "color": "#0056E7" }, "geometry": { "type": "Point", "coordinates": [ 45.791016, 14.774883 ] } }
{ "type": "Feature", "tippecanoe": { "layer": "2AFCA7C4A4001583917932523", "minzoom": 2, "maxzoom": 8 }, "properties": { "halo": 1.8, "title": "奥桑王国", "fontsize": 12, "tyid": "304000", "oid": "103:1568109434981", "color": "#0056E7" }, "geometry": { "type": "Point", "coordinates": [ 46.230469, 13.752725 ] } }
{ "type": "Feature", "tippecanoe": { "layer": "2AFCA7C4A4001583917932523", "minzoom": 2, "maxzoom": 8 }, "properties": { "halo": 1.8, "title": "难兜国", "fontsize": 12, "tyid": "304000", "oid": "103:1562760076986", "color": "#0056E7" }, "geometry": { "type": "Point", "coordinates": [ 74.091797, 36.949892 ] } }
{ "type": "Feature", "tippecanoe": { "layer": "2AFCA7C4A4001583917932523", "minzoom": 2, "maxzoom": 8 }, "properties": { "halo": 1.8, "title": "蒲犁国", "fontsize": 12, "tyid": "304000", "oid": "103:1562760076990", "color": "#0056E7" }, "geometry": { "type": "Point", "coordinates": [ 75.234375, 37.996163 ] } }
{ "type": "Feature", "tippecanoe": { "layer": "2AFCA7C4A4001583917932523", "minzoom": 2, "maxzoom": 8 }, "properties": { "halo": 1.8, "title": "疏勒国", "fontsize": 12, "tyid": "304000", "oid": "103:1562760077054", "color": "#0056E7" }, "geometry": { "type": "Point", "coordinates": [ 76.289062, 39.504041 ] } }
{ "type": "Feature", "tippecanoe": { "layer": "2AFCA7C4A4001583917932523", "minzoom": 2, "maxzoom": 8 }, "properties": { "halo": 1.8, "title": "依耐国", "fontsize": 12, "tyid": "304000", "oid": "103:1562760077039", "color": "#0056E7" }, "geometry": { "type": "Point", "coordinates": [ 75.937500, 38.616870 ] } }
{ "type": "Feature", "tippecanoe": { "layer": "2AFCA7C4A4001583917932523", "minzoom": 2, "maxzoom": 8 }, "properties": { "halo": 1.8, "title": "子合国", "fontsize": 12, "tyid": "304000", "oid": "103:1562760076980", "color": "#0056E7" }, "geometry": { "type": "Point", "coordinates": [ 76.376953, 37.718590 ] } }
{ "type": "Feature", "tippecanoe": { "layer": "2AFCA7C4A4001583917932523", "minzoom": 2, "maxzoom": 8 }, "properties": { "halo": 1.8, "title": "皮山国", "fontsize": 12, "tyid": "304000", "oid": "103:1562760077118", "color": "#0056E7" }, "geometry": { "type": "Point", "coordinates": [ 78.574219, 37.509726 ] } }
{ "type": "Feature", "tippecanoe": { "layer": "2AFCA7C4A4001583917932523", "minzoom": 2, "maxzoom": 8 }, "properties": { "halo": 1.8, "title": "戎卢国", "fontsize": 12, "tyid": "304000", "oid": "103:1562760077056", "color": "#0056E7" }, "geometry": { "type": "Point", "coordinates": [ 83.144531, 36.668419 ] } }
{ "type": "Feature", "tippecanoe": { "layer": "2AFCA7C4A4001583917932523", "minzoom": 2, "maxzoom": 8 }, "properties": { "halo": 1.8, "title": "渠勒国", "fontsize": 12, "tyid": "304000", "oid": "103:1562760076982", "color": "#0056E7" }, "geometry": { "type": "Point", "coordinates": [ 80.947266, 36.385913 ] } }
{ "type": "Feature", "tippecanoe": { "layer": "2AFCA7C4A4001583917932523", "minzoom": 2, "maxzoom": 8 }, "properties": { "halo": 1.8, "title": "小宛国", "fontsize": 12, "tyid": "304000", "oid": "103:1562760077095", "color": "#0056E7" }, "geometry": { "type": "Point", "coordinates": [ 85.078125, 37.090240 ] } }
{ "type": "Feature", "tippecanoe": { "layer": "2AFCA7C4A4001583917932523", "minzoom": 2, "maxzoom": 8 }, "properties": { "halo": 1.8, "title": "罗昂", "fontsize": 12, "tyid": "304000", "oid": "103:1562760076403", "color": "#0056E7" }, "geometry": { "type": "Point", "coordinates": [ 89.208984, 29.152161 ] } }
{ "type": "Feature", "tippecanoe": { "layer": "2AFCA7C4A4001583917932523", "minzoom": 2, "maxzoom": 8 }, "properties": { "halo": 1.8, "title": "藏", "fontsize": 12, "tyid": "304000", "oid": "103:1562760076605", "color": "#0056E7" }, "geometry": { "type": "Point", "coordinates": [ 89.736328, 28.844674 ] } }
{ "type": "Feature", "tippecanoe": { "layer": "2AFCA7C4A4001583917932523", "minzoom": 2, "maxzoom": 8 }, "properties": { "halo": 1.8, "title": "卓木南木松", "fontsize": 12, "tyid": "304000", "oid": "103:1562760076765", "color": "#0056E7" }, "geometry": { "type": "Point", "coordinates": [ 88.945312, 27.839076 ] } }
{ "type": "Feature", "tippecanoe": { "layer": "2AFCA7C4A4001583917932523", "minzoom": 2, "maxzoom": 8 }, "properties": { "halo": 1.8, "title": "牟湿迦王国", "fontsize": 12, "tyid": "304000", "oid": "103:1535120141385", "color": "#0056E7" }, "geometry": { "type": "Point", "coordinates": [ 75.322266, 12.640338 ] } }
{ "type": "Feature", "tippecanoe": { "layer": "2AFCA7C4A4001583917932523", "minzoom": 2, "maxzoom": 8 }, "properties": { "halo": 1.8, "title": "阿伊王国", "fontsize": 12, "tyid": "304000", "oid": "103:1535120141376", "color": "#0056E7" }, "geometry": { "type": "Point", "coordinates": [ 77.080078, 8.667918 ] } }
{ "type": "Feature", "tippecanoe": { "layer": "2AFCA7C4A4001583917932523", "minzoom": 2, "maxzoom": 8 }, "properties": { "halo": 1.8, "title": "车师后国", "fontsize": 12, "tyid": "304000", "oid": "103:1562760077100", "color": "#0056E7" }, "geometry": { "type": "Point", "coordinates": [ 90.791016, 43.897892 ] } }
{ "type": "Feature", "tippecanoe": { "layer": "2AFCA7C4A4001583917932523", "minzoom": 2, "maxzoom": 8 }, "properties": { "halo": 1.8, "title": "吉", "fontsize": 12, "tyid": "304000", "oid": "103:1562760076202", "color": "#0056E7" }, "geometry": { "type": "Point", "coordinates": [ 91.406250, 29.764377 ] } }
{ "type": "Feature", "tippecanoe": { "layer": "2AFCA7C4A4001583917932523", "minzoom": 2, "maxzoom": 8 }, "properties": { "halo": 1.8, "title": "琛", "fontsize": 12, "tyid": "304000", "oid": "103:1562760076290", "color": "#0056E7" }, "geometry": { "type": "Point", "coordinates": [ 91.230469, 29.382175 ] } }
{ "type": "Feature", "tippecanoe": { "layer": "2AFCA7C4A4001583917932523", "minzoom": 2, "maxzoom": 8 }, "properties": { "halo": 1.8, "title": "悉补野", "fontsize": 12, "tyid": "304000", "oid": "103:1562760076210", "color": "#0056E7" }, "geometry": { "type": "Point", "coordinates": [ 91.845703, 29.152161 ] } }
{ "type": "Feature", "tippecanoe": { "layer": "2AFCA7C4A4001583917932523", "minzoom": 2, "maxzoom": 8 }, "properties": { "halo": 1.8, "title": "俄玉邦噶", "fontsize": 12, "tyid": "304000", "oid": "103:1562760076228", "color": "#0056E7" }, "geometry": { "type": "Point", "coordinates": [ 92.548828, 29.152161 ] } }
{ "type": "Feature", "tippecanoe": { "layer": "2AFCA7C4A4001583917932523", "minzoom": 2, "maxzoom": 8 }, "properties": { "halo": 1.8, "title": "娘", "fontsize": 12, "tyid": "304000", "oid": "103:1562760076924", "color": "#0056E7" }, "geometry": { "type": "Point", "coordinates": [ 93.339844, 29.916852 ] } }
{ "type": "Feature", "tippecanoe": { "layer": "2AFCA7C4A4001583917932523", "minzoom": 2, "maxzoom": 8 }, "properties": { "halo": 1.8, "title": "贡", "fontsize": 12, "tyid": "304000", "oid": "103:1562760076416", "color": "#0056E7" }, "geometry": { "type": "Point", "coordinates": [ 94.482422, 29.688053 ] } }
{ "type": "Feature", "tippecanoe": { "layer": "2AFCA7C4A4001583917932523", "minzoom": 2, "maxzoom": 8 }, "properties": { "halo": 1.8, "title": "达", "fontsize": 12, "tyid": "304000", "oid": "103:1562760076413", "color": "#0056E7" }, "geometry": { "type": "Point", "coordinates": [ 93.603516, 29.152161 ] } }
{ "type": "Feature", "tippecanoe": { "layer": "2AFCA7C4A4001583917932523", "minzoom": 2, "maxzoom": 8 }, "properties": { "halo": 1.6, "title": "石坛文化", "fontsize": 12, "tyid": "304002", "oid": "103:1562760076915", "color": "#0056E7" }, "geometry": { "type": "Point", "coordinates": [ 103.359375, 19.559790 ] } }
{ "type": "Feature", "tippecanoe": { "layer": "2AFCA7C4A4001583917932523", "minzoom": 2, "maxzoom": 8 }, "properties": { "halo": 1.6, "title": "番仔园文化", "fontsize": 12, "tyid": "304002", "oid": "103:1568109434979", "color": "#0056E7" }, "geometry": { "type": "Point", "coordinates": [ 120.673828, 24.287027 ] } }
{ "type": "Feature", "tippecanoe": { "layer": "2AFCA7C4A4001583917932523", "minzoom": 2, "maxzoom": 8 }, "properties": { "halo": 1.6, "title": "茑松文化", "fontsize": 12, "tyid": "304002", "oid": "103:1568109434972", "color": "#0056E7" }, "geometry": { "type": "Point", "coordinates": [ 120.322266, 23.079732 ] } }
{ "type": "Feature", "tippecanoe": { "layer": "2AFCA7C4A4001583917932523", "minzoom": 2, "maxzoom": 8 }, "properties": { "halo": 1.6, "title": "龟山文化", "fontsize": 12, "tyid": "304002", "oid": "103:1568109434974", "color": "#0056E7" }, "geometry": { "type": "Point", "coordinates": [ 120.585938, 22.674847 ] } }
{ "type": "Feature", "tippecanoe": { "layer": "2AFCA7C4A4001583917932523", "minzoom": 2, "maxzoom": 8 }, "properties": { "halo": 1.6, "title": "十三行文化", "fontsize": 12, "tyid": "304002", "oid": "103:1568109434969", "color": "#0056E7" }, "geometry": { "type": "Point", "coordinates": [ 121.376953, 24.846565 ] } }
{ "type": "Feature", "tippecanoe": { "layer": "2AFCA7C4A4001583917932523", "minzoom": 2, "maxzoom": 8 }, "properties": { "halo": 1.6, "title": "静浦文化", "fontsize": 12, "tyid": "304002", "oid": "103:1568109434976", "color": "#0056E7" }, "geometry": { "type": "Point", "coordinates": [ 121.025391, 22.998852 ] } }
{ "type": "Feature", "tippecanoe": { "layer": "2AFCA7C4A4001583917932523", "minzoom": 2, "maxzoom": 8 }, "properties": { "halo": 1.8, "title": "百济", "fontsize": 12, "tyid": "304000", "oid": "103:1562760076393", "color": "#0056E7" }, "geometry": { "type": "Point", "coordinates": [ 127.089844, 37.300275 ] } }
{ "type": "Feature", "tippecanoe": { "layer": "2AFCA7C4A4001583917932523", "minzoom": 2, "maxzoom": 8 }, "properties": { "halo": 1.8, "title": "耽罗国", "fontsize": 12, "tyid": "304000", "oid": "103:1562760076529", "color": "#0056E7" }, "geometry": { "type": "Point", "coordinates": [ 126.474609, 33.431441 ] } }
{ "type": "Feature", "tippecanoe": { "layer": "2AFCA7C4A4001583917932523", "minzoom": 2, "maxzoom": 8 }, "properties": { "halo": 1.6, "title": "弁韩", "fontsize": 12, "tyid": "304001", "oid": "103:1535120141374", "color": "#0056E7" }, "geometry": { "type": "Point", "coordinates": [ 127.968750, 35.317366 ] } }
{ "type": "Feature", "tippecanoe": { "layer": "2AFCA7C4A4001583917932523", "minzoom": 2, "maxzoom": 8 }, "properties": { "halo": 1.6, "title": "托雷斯海峡岛民", "fontsize": 12, "tyid": "304001", "oid": "103:1562760076610", "color": "#0056E7" }, "geometry": { "type": "Point", "coordinates": [ 142.382812, -11.264612 ] } }
{ "type": "Feature", "tippecanoe": { "layer": "2AFCA7C4A6301583917932525", "minzoom": 2, "maxzoom": 8 }, "properties": { "halo": 0.8, "title": "诺顿文化", "fontsize": 12, "tyid": "304002", "oid": "103:1562760076640", "color": "#262626" }, "geometry": { "type": "Point", "coordinates": [ -162.949219, 68.007571 ] } }
{ "type": "Feature", "tippecanoe": { "layer": "2AFCA7C4A6301583917932525", "minzoom": 2, "maxzoom": 8 }, "properties": { "halo": 0.8, "title": "图勒人", "fontsize": 12, "tyid": "304001", "oid": "103:1562760076801", "color": "#262626" }, "geometry": { "type": "Point", "coordinates": [ -132.099609, 69.037142 ] } }
{ "type": "Feature", "tippecanoe": { "layer": "2AFCA7C4A6301583917932525", "minzoom": 2, "maxzoom": 8 }, "properties": { "halo": 0.8, "title": "尤皮克人", "fontsize": 12, "tyid": "304001", "oid": "103:1562760076787", "color": "#262626" }, "geometry": { "type": "Point", "coordinates": [ -155.654297, 62.349609 ] } }
{ "type": "Feature", "tippecanoe": { "layer": "2AFCA7C4A6301583917932525", "minzoom": 2, "maxzoom": 8 }, "properties": { "halo": 0.8, "title": "因纽皮雅特人", "fontsize": 12, "tyid": "304001", "oid": "103:1562760076689", "color": "#262626" }, "geometry": { "type": "Point", "coordinates": [ -150.908203, 65.476508 ] } }
{ "type": "Feature", "tippecanoe": { "layer": "2AFCA7C4A6301583917932525", "minzoom": 2, "maxzoom": 8 }, "properties": { "halo": 0.8, "title": "阿留申人", "fontsize": 12, "tyid": "304001", "oid": "103:1562760076426", "color": "#262626" }, "geometry": { "type": "Point", "coordinates": [ -152.226562, 61.312452 ] } }
{ "type": "Feature", "tippecanoe": { "layer": "2AFCA7C4A6301583917932525", "minzoom": 2, "maxzoom": 8 }, "properties": { "halo": 0.8, "title": "泰萨勒页岩文化", "fontsize": 12, "tyid": "304002", "oid": "103:1562760076858", "color": "#262626" }, "geometry": { "type": "Point", "coordinates": [ -101.337891, 56.607885 ] } }
{ "type": "Feature", "tippecanoe": { "layer": "2AFCA7C4A6301583917932525", "minzoom": 2, "maxzoom": 8 }, "properties": { "halo": 0.8, "title": "因纽特人", "fontsize": 12, "tyid": "304001", "oid": "103:1562760076634", "color": "#262626" }, "geometry": { "type": "Point", "coordinates": [ -97.646484, 65.874725 ] } }
{ "type": "Feature", "tippecanoe": { "layer": "2AFCA7C4A6301583917932525", "minzoom": 2, "maxzoom": 8 }, "properties": { "halo": 0.8, "title": "坎贝尔文化", "fontsize": 12, "tyid": "304002", "oid": "103:1562760076546", "color": "#262626" }, "geometry": { "type": "Point", "coordinates": [ -121.289062, 38.685510 ] } }
{ "type": "Feature", "tippecanoe": { "layer": "2AFCA7C4A6301583917932525", "minzoom": 2, "maxzoom": 8 }, "properties": { "halo": 0.8, "title": "圣迪基图文化", "fontsize": 12, "tyid": "304002", "oid": "103:1562760076656", "color": "#262626" }, "geometry": { "type": "Point", "coordinates": [ -115.224609, 33.211116 ] } }
{ "type": "Feature", "tippecanoe": { "layer": "2AFCA7C4A6301583917932525", "minzoom": 2, "maxzoom": 8 }, "properties": { "halo": 0.8, "title": "多赛特文化", "fontsize": 12, "tyid": "304002", "oid": "103:1562760076453", "color": "#262626" }, "geometry": { "type": "Point", "coordinates": [ -70.224609, 65.838776 ] } }
{ "type": "Feature", "tippecanoe": { "layer": "2AFCA7C4A6301583917932525", "minzoom": 2, "maxzoom": 8 }, "properties": { "halo": 0.8, "title": "波茵特半岛文化", "fontsize": 12, "tyid": "304002", "oid": "103:1562760076423", "color": "#262626" }, "geometry": { "type": "Point", "coordinates": [ -76.816406, 45.336702 ] } }
{ "type": "Feature", "tippecanoe": { "layer": "2AFCA7C4A6301583917932525", "minzoom": 2, "maxzoom": 8 }, "properties": { "halo": 0.8, "title": "古海洋文化", "fontsize": 12, "tyid": "304002", "oid": "103:1562760076177", "color": "#262626" }, "geometry": { "type": "Point", "coordinates": [ -68.466797, 46.920255 ] } }
{ "type": "Feature", "tippecanoe": { "layer": "2AFCA7C4A6301583917932525", "minzoom": 2, "maxzoom": 8 }, "properties": { "halo": 0.8, "title": "巴富尔人", "fontsize": 12, "tyid": "304001", "oid": "103:1562760076866", "color": "#262626" }, "geometry": { "type": "Point", "coordinates": [ -8.261719, 22.755921 ] } }
{ "type": "Feature", "tippecanoe": { "layer": "2AFCA7C4A6301583917932525", "minzoom": 2, "maxzoom": 8 }, "properties": { "halo": 0.8, "title": "索宁克人", "fontsize": 12, "tyid": "304001", "oid": "103:1562760076716", "color": "#262626" }, "geometry": { "type": "Point", "coordinates": [ -8.964844, 15.284185 ] } }
{ "type": "Feature", "tippecanoe": { "layer": "2AFCA7C4A6301583917932525", "minzoom": 2, "maxzoom": 8 }, "properties": { "halo": 0.8, "title": "曼德人", "fontsize": 12, "tyid": "304001", "oid": "103:1562760076713", "color": "#262626" }, "geometry": { "type": "Point", "coordinates": [ -0.263672, 11.436955 ] } }
{ "type": "Feature", "tippecanoe": { "layer": "2AFCA7C4A6301583917932525", "minzoom": 2, "maxzoom": 8 }, "properties": { "halo": 0.8, "title": "图皮人", "fontsize": 12, "tyid": "304001", "oid": "103:1562760076860", "color": "#262626" }, "geometry": { "type": "Point", "coordinates": [ -40.078125, -13.667338 ] } }
{ "type": "Feature", "tippecanoe": { "layer": "2AFCA7C4A6301583917932525", "minzoom": 2, "maxzoom": 8 }, "properties": { "halo": 0.8, "title": "萨米人", "fontsize": 12, "tyid": "304001", "oid": "103:1562760076920", "color": "#262626" }, "geometry": { "type": "Point", "coordinates": [ 25.400391, 68.171555 ] } }
{ "type": "Feature", "tippecanoe": { "layer": "2AFCA7C4A6301583917932525", "minzoom": 2, "maxzoom": 8 }, "properties": { "halo": 0.8, "title": "乌斯特波卢伊文化", "fontsize": 12, "tyid": "304002", "oid": "103:1562760076506", "color": "#262626" }, "geometry": { "type": "Point", "coordinates": [ 70.400391, 68.974164 ] } }
{ "type": "Feature", "tippecanoe": { "layer": "2AFCA7C4A6301583917932525", "minzoom": 2, "maxzoom": 8 }, "properties": { "halo": 0.8, "title": "原始日耳曼人", "fontsize": 12, "tyid": "304001", "oid": "103:1535120141443", "color": "#262626" }, "geometry": { "type": "Point", "coordinates": [ 8.613281, 61.058285 ] } }
{ "type": "Feature", "tippecanoe": { "layer": "2AFCA7C4A6301583917932525", "minzoom": 2, "maxzoom": 8 }, "properties": { "halo": 0.8, "title": "古瑞典人", "fontsize": 12, "tyid": "304001", "oid": "103:1562760076301", "color": "#262626" }, "geometry": { "type": "Point", "coordinates": [ 15.820312, 61.312452 ] } }
{ "type": "Feature", "tippecanoe": { "layer": "2AFCA7C4A6301583917932525", "minzoom": 2, "maxzoom": 8 }, "properties": { "halo": 0.8, "title": "芬尼人", "fontsize": 12, "tyid": "304001", "oid": "103:1562760076318", "color": "#262626" }, "geometry": { "type": "Point", "coordinates": [ 29.970703, 64.510643 ] } }
{ "type": "Feature", "tippecanoe": { "layer": "2AFCA7C4A6301583917932525", "minzoom": 2, "maxzoom": 8 }, "properties": { "halo": 0.8, "title": "波罗的人", "fontsize": 12, "tyid": "304002", "oid": "103:1535120141438", "color": "#262626" }, "geometry": { "type": "Point", "coordinates": [ 24.785156, 54.622978 ] } }
{ "type": "Feature", "tippecanoe": { "layer": "2AFCA7C4A6301583917932525", "minzoom": 2, "maxzoom": 8 }, "properties": { "halo": 0.8, "title": "维内德人", "fontsize": 12, "tyid": "304001", "oid": "103:1562760076338", "color": "#262626" }, "geometry": { "type": "Point", "coordinates": [ 25.839844, 51.013755 ] } }
{ "type": "Feature", "tippecanoe": { "layer": "2AFCA7C4A6301583917932525", "minzoom": 2, "maxzoom": 8 }, "properties": { "halo": 0.8, "title": "第聂伯河波罗的人", "fontsize": 12, "tyid": "304001", "oid": "103:1562760076313", "color": "#262626" }, "geometry": { "type": "Point", "coordinates": [ 33.134766, 55.528631 ] } }
{ "type": "Feature", "tippecanoe": { "layer": "2AFCA7C4A6301583917932525", "minzoom": 2, "maxzoom": 8 }, "properties": { "halo": 0.8, "title": "伏尔加芬兰人", "fontsize": 12, "tyid": "304001", "oid": "103:1562760076309", "color": "#262626" }, "geometry": { "type": "Point", "coordinates": [ 42.890625, 55.528631 ] } }
{ "type": "Feature", "tippecanoe": { "layer": "2AFCA7C4A6301583917932525", "minzoom": 2, "maxzoom": 8 }, "properties": { "halo": 0.8, "title": "萨尔马提亚人", "fontsize": 12, "tyid": "304001", "oid": "103:1535120141433", "color": "#262626" }, "geometry": { "type": "Point", "coordinates": [ 43.593750, 51.069017 ] } }
{ "type": "Feature", "tippecanoe": { "layer": "2AFCA7C4A6301583917932525", "minzoom": 2, "maxzoom": 8 }, "properties": { "halo": 0.8, "title": "柏柏尔人诸部", "fontsize": 12, "tyid": "304001", "oid": "103:1562760076824", "color": "#262626" }, "geometry": { "type": "Point", "coordinates": [ 2.724609, 25.324167 ] } }
{ "type": "Feature", "tippecanoe": { "layer": "2AFCA7C4A6301583917932525", "minzoom": 2, "maxzoom": 8 }, "properties": { "halo": 0.8, "title": "罗马帝国", "fontsize": 12, "tyid": "304000", "oid": "103:1535120141256", "color": "#202020" }, "geometry": { "type": "Point", "coordinates": [ 15.205078, 40.913513 ] } }
{ "type": "Feature", "tippecanoe": { "layer": "2AFCA7C4A6301583917932525", "minzoom": 2, "maxzoom": 8 }, "properties": { "halo": 0.8, "title": "加拉曼特人", "fontsize": 12, "tyid": "304001", "oid": "103:1562760076945", "color": "#262626" }, "geometry": { "type": "Point", "coordinates": [ 18.544922, 26.980829 ] } }
{ "type": "Feature", "tippecanoe": { "layer": "2AFCA7C4A6301583917932525", "minzoom": 2, "maxzoom": 8 }, "properties": { "halo": 0.8, "title": "诺克文化", "fontsize": 12, "tyid": "304002", "oid": "103:1562760076963", "color": "#262626" }, "geometry": { "type": "Point", "coordinates": [ 7.119141, 10.574222 ] } }
{ "type": "Feature", "tippecanoe": { "layer": "2AFCA7C4A6301583917932525", "minzoom": 2, "maxzoom": 8 }, "properties": { "halo": 0.8, "title": "萨奥文明", "fontsize": 12, "tyid": "304002", "oid": "103:1562760076761", "color": "#262626" }, "geometry": { "type": "Point", "coordinates": [ 15.468750, 13.325485 ] } }
{ "type": "Feature", "tippecanoe": { "layer": "2AFCA7C4A6301583917932525", "minzoom": 2, "maxzoom": 8 },