{"year": "AD107",  "type": "Feature", "tippecanoe": { "layer": "2AFCA06D60481583917728653", "minzoom": 2, "maxzoom": 8 }, "properties": { "halo": 0.8, "title": "拉霍亚文化", "fontsize": 12, "tyid": "304002", "oid": "103:1576575197505", "color": "#262626" }, "geometry": { "type": "Point", "coordinates": [ -118.916016, 34.597042 ] } }
{"year": "AD107",  "type": "Feature", "tippecanoe": { "layer": "2AFCA06D60481583917728653", "minzoom": 2, "maxzoom": 8 }, "properties": { "halo": 0.8, "title": "维珍阿纳萨齐人", "fontsize": 12, "tyid": "304001", "oid": "103:1576575197492", "color": "#262626" }, "geometry": { "type": "Point", "coordinates": [ -113.818359, 36.879621 ] } }
{"year": "AD107",  "type": "Feature", "tippecanoe": { "layer": "2AFCA06D60481583917728653", "minzoom": 2, "maxzoom": 8 }, "properties": { "halo": 0.8, "title": "弗里蒙特文化", "fontsize": 12, "tyid": "304002", "oid": "103:1576575197636", "color": "#262626" }, "geometry": { "type": "Point", "coordinates": [ -111.533203, 38.134557 ] } }
{"year": "AD107",  "type": "Feature", "tippecanoe": { "layer": "2AFCA06D60481583917728653", "minzoom": 2, "maxzoom": 8 }, "properties": { "halo": 0.8, "title": "奥沙拉文化", "fontsize": 12, "tyid": "304002", "oid": "103:1576575197632", "color": "#262626" }, "geometry": { "type": "Point", "coordinates": [ -107.841797, 37.509726 ] } }
{"year": "AD107",  "type": "Feature", "tippecanoe": { "layer": "2AFCA06D60481583917728653", "minzoom": 2, "maxzoom": 8 }, "properties": { "halo": 0.8, "title": "古普韦布洛人", "fontsize": 12, "tyid": "304001", "oid": "103:1576575197668", "color": "#262626" }, "geometry": { "type": "Point", "coordinates": [ -109.951172, 36.527295 ] } }
{"year": "AD107",  "type": "Feature", "tippecanoe": { "layer": "2AFCA06D60481583917728653", "minzoom": 2, "maxzoom": 8 }, "properties": { "halo": 0.8, "title": "奇瓦瓦文化", "fontsize": 12, "tyid": "304002", "oid": "103:1576575197407", "color": "#262626" }, "geometry": { "type": "Point", "coordinates": [ -107.226562, 32.768800 ] } }
{"year": "AD107",  "type": "Feature", "tippecanoe": { "layer": "2AFCA06D60481583917728653", "minzoom": 2, "maxzoom": 8 }, "properties": { "halo": 0.8, "title": "瓜伊库拉人", "fontsize": 12, "tyid": "304001", "oid": "103:1576575197659", "color": "#262626" }, "geometry": { "type": "Point", "coordinates": [ -111.269531, 24.846565 ] } }
{"year": "AD107",  "type": "Feature", "tippecanoe": { "layer": "2AFCA06D60481583917728653", "minzoom": 2, "maxzoom": 8 }, "properties": { "halo": 0.8, "title": "堪萨斯城霍普韦尔文化", "fontsize": 12, "tyid": "304002", "oid": "103:1576575197464", "color": "#262626" }, "geometry": { "type": "Point", "coordinates": [ -94.042969, 39.027719 ] } }
{"year": "AD107",  "type": "Feature", "tippecanoe": { "layer": "2AFCA06D60481583917728653", "minzoom": 2, "maxzoom": 8 }, "properties": { "halo": 0.8, "title": "哈瓦那霍普韦尔文化", "fontsize": 12, "tyid": "304002", "oid": "103:1576575197339", "color": "#262626" }, "geometry": { "type": "Point", "coordinates": [ -91.054688, 40.446947 ] } }
{"year": "AD107",  "type": "Feature", "tippecanoe": { "layer": "2AFCA06D60481583917728653", "minzoom": 2, "maxzoom": 8 }, "properties": { "halo": 0.8, "title": "喀多语密西西比文化", "fontsize": 12, "tyid": "304002", "oid": "103:1576575197670", "color": "#262626" }, "geometry": { "type": "Point", "coordinates": [ -94.482422, 35.960223 ] } }
{"year": "AD107",  "type": "Feature", "tippecanoe": { "layer": "2AFCA06D60481583917728653", "minzoom": 2, "maxzoom": 8 }, "properties": { "halo": 0.8, "title": "福切马里尼文化", "fontsize": 12, "tyid": "304002", "oid": "103:1576575197397", "color": "#262626" }, "geometry": { "type": "Point", "coordinates": [ -94.306641, 33.358062 ] } }
{"year": "AD107",  "type": "Feature", "tippecanoe": { "layer": "2AFCA06D60481583917728653", "minzoom": 2, "maxzoom": 8 }, "properties": { "halo": 0.8, "title": "楚拉时期", "fontsize": 12, "tyid": "304002", "oid": "103:1576575197451", "color": "#262626" }, "geometry": { "type": "Point", "coordinates": [ -92.021484, 32.472695 ] } }
{"year": "AD107",  "type": "Feature", "tippecanoe": { "layer": "2AFCA06D60481583917728653", "minzoom": 2, "maxzoom": 8 }, "properties": { "halo": 0.8, "title": "华斯塔克文明", "fontsize": 12, "tyid": "304002", "oid": "103:1576575197412", "color": "#262626" }, "geometry": { "type": "Point", "coordinates": [ -98.613281, 22.105999 ] } }
{"year": "AD107",  "type": "Feature", "tippecanoe": { "layer": "2AFCA06D60481583917728653", "minzoom": 2, "maxzoom": 8 }, "properties": { "halo": 0.8, "title": "奇蒂玛察人", "fontsize": 12, "tyid": "304001", "oid": "103:1576575197682", "color": "#262626" }, "geometry": { "type": "Point", "coordinates": [ -91.230469, 30.902225 ] } }
{"year": "AD107",  "type": "Feature", "tippecanoe": { "layer": "2AFCA06D60481583917728653", "minzoom": 2, "maxzoom": 8 }, "properties": { "halo": 0.8, "title": "马克斯维尔文化", "fontsize": 12, "tyid": "304002", "oid": "103:1576575197440", "color": "#262626" }, "geometry": { "type": "Point", "coordinates": [ -90.878906, 29.764377 ] } }
{"year": "AD107",  "type": "Feature", "tippecanoe": { "layer": "2AFCA06D60481583917728653", "minzoom": 2, "maxzoom": 8 }, "properties": { "halo": 0.8, "title": "特切特兰文化", "fontsize": 12, "tyid": "304002", "oid": "103:1576575197684", "color": "#262626" }, "geometry": { "type": "Point", "coordinates": [ -104.326172, 20.468189 ] } }
{"year": "AD107",  "type": "Feature", "tippecanoe": { "layer": "2AFCA06D60481583917728653", "minzoom": 2, "maxzoom": 8 }, "properties": { "halo": 0.8, "title": "萨波特克文明", "fontsize": 12, "tyid": "304002", "oid": "103:1576575197501", "color": "#262626" }, "geometry": { "type": "Point", "coordinates": [ -96.064453, 16.636192 ] } }
{"year": "AD107",  "type": "Feature", "tippecanoe": { "layer": "2AFCA06D60481583917728653", "minzoom": 2, "maxzoom": 8 }, "properties": { "halo": 0.8, "title": "古德尔文化", "fontsize": 12, "tyid": "304002", "oid": "103:1576575197644", "color": "#262626" }, "geometry": { "type": "Point", "coordinates": [ -85.869141, 43.133061 ] } }
{"year": "AD107",  "type": "Feature", "tippecanoe": { "layer": "2AFCA06D60481583917728653", "minzoom": 2, "maxzoom": 8 }, "properties": { "halo": 0.8, "title": "索根文化", "fontsize": 12, "tyid": "304002", "oid": "103:1576575197337", "color": "#262626" }, "geometry": { "type": "Point", "coordinates": [ -81.298828, 43.707594 ] } }
{"year": "AD107",  "type": "Feature", "tippecanoe": { "layer": "2AFCA06D60481583917728653", "minzoom": 2, "maxzoom": 8 }, "properties": { "halo": 0.8, "title": "蟹园文化", "fontsize": 12, "tyid": "304002", "oid": "103:1576575197616", "color": "#262626" }, "geometry": { "type": "Point", "coordinates": [ -88.066406, 37.718590 ] } }
{"year": "AD107",  "type": "Feature", "tippecanoe": { "layer": "2AFCA06D60481583917728653", "minzoom": 2, "maxzoom": 8 }, "properties": { "halo": 0.8, "title": "俄亥俄霍普韦尔文化", "fontsize": 12, "tyid": "304002", "oid": "103:1576575197584", "color": "#262626" }, "geometry": { "type": "Point", "coordinates": [ -83.056641, 39.774769 ] } }
{"year": "AD107",  "type": "Feature", "tippecanoe": { "layer": "2AFCA06D60481583917728653", "minzoom": 2, "maxzoom": 8 }, "properties": { "halo": 0.8, "title": "阿姆斯特朗文化", "fontsize": 12, "tyid": "304002", "oid": "103:1576575197661", "color": "#262626" }, "geometry": { "type": "Point", "coordinates": [ -82.968750, 38.134557 ] } }
{"year": "AD107",  "type": "Feature", "tippecanoe": { "layer": "2AFCA06D60481583917728653", "minzoom": 2, "maxzoom": 8 }, "properties": { "halo": 0.8, "title": "德普特福德文化", "fontsize": 12, "tyid": "304002", "oid": "103:1576575197443", "color": "#262626" }, "geometry": { "type": "Point", "coordinates": [ -79.628906, 33.358062 ] } }
{"year": "AD107",  "type": "Feature", "tippecanoe": { "layer": "2AFCA06D60481583917728653", "minzoom": 2, "maxzoom": 8 }, "properties": { "halo": 0.8, "title": "切格文特文化", "fontsize": 12, "tyid": "304002", "oid": "103:1576575197665", "color": "#262626" }, "geometry": { "type": "Point", "coordinates": [ -89.208984, 30.600094 ] } }
{"year": "AD107",  "type": "Feature", "tippecanoe": { "layer": "2AFCA06D60481583917728653", "minzoom": 2, "maxzoom": 8 }, "properties": { "halo": 0.8, "title": "圣罗莎-斯威夫特溪文化", "fontsize": 12, "tyid": "304002", "oid": "103:1576575197708", "color": "#262626" }, "geometry": { "type": "Point", "coordinates": [ -86.396484, 30.902225 ] } }
{"year": "AD107",  "type": "Feature", "tippecanoe": { "layer": "2AFCA06D60481583917728653", "minzoom": 2, "maxzoom": 8 }, "properties": { "halo": 0.8, "title": "斯威夫特溪文化", "fontsize": 12, "tyid": "304002", "oid": "103:1576575197348", "color": "#262626" }, "geometry": { "type": "Point", "coordinates": [ -84.111328, 31.428663 ] } }
{"year": "AD107",  "type": "Feature", "tippecanoe": { "layer": "2AFCA06D60481583917728653", "minzoom": 2, "maxzoom": 8 }, "properties": { "halo": 0.8, "title": "玛雅文明[前古典时期]", "fontsize": 12, "tyid": "304002", "oid": "103:1576575197253", "color": "#262626" }, "geometry": { "type": "Point", "coordinates": [ -89.296875, 17.056785 ] } }
{"year": "AD107",  "type": "Feature", "tippecanoe": { "layer": "2AFCA06D60481583917728653", "minzoom": 2, "maxzoom": 8 }, "properties": { "halo": 0.8, "title": "兹努文化", "fontsize": 12, "tyid": "304002", "oid": "103:1576575197325", "color": "#262626" }, "geometry": { "type": "Point", "coordinates": [ -75.585938, 8.581021 ] } }
{"year": "AD107",  "type": "Feature", "tippecanoe": { "layer": "2AFCA06D60481583917728653", "minzoom": 2, "maxzoom": 8 }, "properties": { "halo": 0.8, "title": "拉托利塔文化", "fontsize": 12, "tyid": "304002", "oid": "103:1576575197678", "color": "#262626" }, "geometry": { "type": "Point", "coordinates": [ -78.046875, 1.757537 ] } }
{"year": "AD107",  "type": "Feature", "tippecanoe": { "layer": "2AFCA06D60481583917728653", "minzoom": 2, "maxzoom": 8 }, "properties": { "halo": 0.8, "title": "埃雷拉时期", "fontsize": 12, "tyid": "304002", "oid": "103:1576575197448", "color": "#262626" }, "geometry": { "type": "Point", "coordinates": [ -73.476562, 5.441022 ] } }
{"year": "AD107",  "type": "Feature", "tippecanoe": { "layer": "2AFCA06D60481583917728653", "minzoom": 2, "maxzoom": 8 }, "properties": { "halo": 0.8, "title": "伊奈里人", "fontsize": 12, "tyid": "304001", "oid": "103:1576575197508", "color": "#262626" }, "geometry": { "type": "Point", "coordinates": [ -61.787109, 8.754795 ] } }
{"year": "AD107",  "type": "Feature", "tippecanoe": { "layer": "2AFCA06D60481583917728653", "minzoom": 2, "maxzoom": 8 }, "properties": { "halo": 0.8, "title": "喀里多尼亚人", "fontsize": 12, "tyid": "304001", "oid": "103:1576575197516", "color": "#262626" }, "geometry": { "type": "Point", "coordinates": [ -4.042969, 56.992883 ] } }
{"year": "AD107",  "type": "Feature", "tippecanoe": { "layer": "2AFCA06D60481583917728653", "minzoom": 2, "maxzoom": 8 }, "properties": { "halo": 0.8, "title": "盖尔人", "fontsize": 12, "tyid": "304001", "oid": "103:1576575197267", "color": "#262626" }, "geometry": { "type": "Point", "coordinates": [ -7.910156, 53.435719 ] } }
{"year": "AD107",  "type": "Feature", "tippecanoe": { "layer": "2AFCA06D60481583917728653", "minzoom": 2, "maxzoom": 8 }, "properties": { "halo": 0.8, "title": "杰内-杰诺文化二期", "fontsize": 12, "tyid": "304002", "oid": "103:1576575197357", "color": "#262626" }, "geometry": { "type": "Point", "coordinates": [ -4.482422, 13.667338 ] } }
{"year": "AD107",  "type": "Feature", "tippecanoe": { "layer": "2AFCA06D60481583917728653", "minzoom": 2, "maxzoom": 8 }, "properties": { "halo": 0.8, "title": "楚真文化", "fontsize": 12, "tyid": "304002", "oid": "103:1576575197476", "color": "#262626" }, "geometry": { "type": "Point", "coordinates": [ -70.576172, -16.299051 ] } }
{"year": "AD107",  "type": "Feature", "tippecanoe": { "layer": "2AFCA06D60481583917728653", "minzoom": 2, "maxzoom": 8 }, "properties": { "halo": 0.8, "title": "普卡拉文化", "fontsize": 12, "tyid": "304002", "oid": "103:1576575197503", "color": "#262626" }, "geometry": { "type": "Point", "coordinates": [ -69.873047, -14.859850 ] } }
{"year": "AD107",  "type": "Feature", "tippecanoe": { "layer": "2AFCA06D60481583917728653", "minzoom": 2, "maxzoom": 8 }, "properties": { "halo": 0.8, "title": "艾马拉人", "fontsize": 12, "tyid": "304001", "oid": "103:1576575197506", "color": "#262626" }, "geometry": { "type": "Point", "coordinates": [ -68.291016, -17.224758 ] } }
{"year": "AD107",  "type": "Feature", "tippecanoe": { "layer": "2AFCA06D60481583917728653", "minzoom": 2, "maxzoom": 8 }, "properties": { "halo": 0.8, "title": "昌戈人", "fontsize": 12, "tyid": "304001", "oid": "103:1576575197589", "color": "#262626" }, "geometry": { "type": "Point", "coordinates": [ -69.960938, -23.725012 ] } }
{"year": "AD107",  "type": "Feature", "tippecanoe": { "layer": "2AFCA06D60481583917728653", "minzoom": 2, "maxzoom": 8 }, "properties": { "halo": 0.8, "title": "阿拉米托文化", "fontsize": 12, "tyid": "304002", "oid": "103:1576575197615", "color": "#262626" }, "geometry": { "type": "Point", "coordinates": [ -67.851562, -26.588527 ] } }
{"year": "AD107",  "type": "Feature", "tippecanoe": { "layer": "2AFCA06D60481583917728653", "minzoom": 2, "maxzoom": 8 }, "properties": { "halo": 0.8, "title": "埃尔莫尔文化", "fontsize": 12, "tyid": "304002", "oid": "103:1576575197340", "color": "#262626" }, "geometry": { "type": "Point", "coordinates": [ -70.927734, -30.675715 ] } }
{"year": "AD107",  "type": "Feature", "tippecanoe": { "layer": "2AFCA06D60481583917728653", "minzoom": 2, "maxzoom": 8 }, "properties": { "halo": 0.8, "title": "安西尔塔文化", "fontsize": 12, "tyid": "304002", "oid": "103:1576575197559", "color": "#262626" }, "geometry": { "type": "Point", "coordinates": [ -68.818359, -31.353637 ] } }
{"year": "AD107",  "type": "Feature", "tippecanoe": { "layer": "2AFCA06D60481583917728653", "minzoom": 2, "maxzoom": 8 }, "properties": { "halo": 0.8, "title": "巴托文化", "fontsize": 12, "tyid": "304002", "oid": "103:1576575197707", "color": "#262626" }, "geometry": { "type": "Point", "coordinates": [ -70.839844, -33.431441 ] } }
{"year": "AD107",  "type": "Feature", "tippecanoe": { "layer": "2AFCA06D60481583917728653", "minzoom": 2, "maxzoom": 8 }, "properties": { "halo": 0.8, "title": "马普切人", "fontsize": 12, "tyid": "304001", "oid": "103:1576575197601", "color": "#262626" }, "geometry": { "type": "Point", "coordinates": [ -71.455078, -38.959409 ] } }
{"year": "AD107",  "type": "Feature", "tippecanoe": { "layer": "2AFCA06D60481583917728653", "minzoom": 2, "maxzoom": 8 }, "properties": { "halo": 0.8, "title": "希德拉里卡文化", "fontsize": 12, "tyid": "304002", "oid": "103:1576575197535", "color": "#262626" }, "geometry": { "type": "Point", "coordinates": [ -66.005859, -12.297068 ] } }
{"year": "AD107",  "type": "Feature", "tippecanoe": { "layer": "2AFCA06D60481583917728653", "minzoom": 2, "maxzoom": 8 }, "properties": { "halo": 0.8, "title": "摩克索人", "fontsize": 12, "tyid": "304001", "oid": "103:1576575197361", "color": "#262626" }, "geometry": { "type": "Point", "coordinates": [ -65.830078, -13.923404 ] } }
{"year": "AD107",  "type": "Feature", "tippecanoe": { "layer": "2AFCA06D60481583917728653", "minzoom": 2, "maxzoom": 8 }, "properties": { "halo": 0.8, "title": "瓦卡拉尼文化", "fontsize": 12, "tyid": "304002", "oid": "103:1576575197304", "color": "#262626" }, "geometry": { "type": "Point", "coordinates": [ -64.951172, -17.811456 ] } }
{"year": "AD107",  "type": "Feature", "tippecanoe": { "layer": "2AFCA06D60481583917728653", "minzoom": 2, "maxzoom": 8 }, "properties": { "halo": 0.8, "title": "康多拉瓦西文化", "fontsize": 12, "tyid": "304002", "oid": "103:1576575197663", "color": "#262626" }, "geometry": { "type": "Point", "coordinates": [ -66.708984, -27.293689 ] } }
{"year": "AD107",  "type": "Feature", "tippecanoe": { "layer": "2AFCA06D60481583917728653", "minzoom": 2, "maxzoom": 8 }, "properties": { "halo": 0.8, "title": "拉斯梅塞德斯文化", "fontsize": 12, "tyid": "304002", "oid": "103:1576575197302", "color": "#262626" }, "geometry": { "type": "Point", "coordinates": [ -63.808594, -27.605671 ] } }
{"year": "AD107",  "type": "Feature", "tippecanoe": { "layer": "2AFCA06D60481583917728653", "minzoom": 2, "maxzoom": 8 }, "properties": { "halo": 0.8, "title": "查鲁亚人", "fontsize": 12, "tyid": "304001", "oid": "103:1576575197264", "color": "#262626" }, "geometry": { "type": "Point", "coordinates": [ -57.128906, -32.398516 ] } }
{"year": "AD107",  "type": "Feature", "tippecanoe": { "layer": "2AFCA06D60481583917728653", "minzoom": 2, "maxzoom": 8 }, "properties": { "halo": 0.8, "title": "特胡尔切人", "fontsize": 12, "tyid": "304001", "oid": "103:1576575197586", "color": "#262626" }, "geometry": { "type": "Point", "coordinates": [ -70.751953, -50.176898 ] } }
{"year": "AD107",  "type": "Feature", "tippecanoe": { "layer": "2AFCA06D60481583917728653", "minzoom": 2, "maxzoom": 8 }, "properties": { "halo": 0.8, "title": "塞尔克南人", "fontsize": 12, "tyid": "304001", "oid": "103:1576575197509", "color": "#262626" }, "geometry": { "type": "Point", "coordinates": [ -68.378906, -53.696706 ] } }
{"year": "AD107",  "type": "Feature", "tippecanoe": { "layer": "2AFCA06D60481583917728653", "minzoom": 2, "maxzoom": 8 }, "properties": { "halo": 0.8, "title": "雅干人", "fontsize": 12, "tyid": "304001", "oid": "103:1576575197654", "color": "#262626" }, "geometry": { "type": "Point", "coordinates": [ -68.554688, -54.521081 ] } }
{"year": "AD107",  "type": "Feature", "tippecanoe": { "layer": "2AFCA06D60481583917728653", "minzoom": 2, "maxzoom": 8 }, "properties": { "halo": 0.8, "title": "朱特人", "fontsize": 12, "tyid": "304001", "oid": "103:1576575197700", "color": "#262626" }, "geometry": { "type": "Point", "coordinates": [ 9.316406, 56.267761 ] } }
{"year": "AD107",  "type": "Feature", "tippecanoe": { "layer": "2AFCA06D60481583917728653", "minzoom": 2, "maxzoom": 8 }, "properties": { "halo": 0.8, "title": "耶阿特人", "fontsize": 12, "tyid": "304001", "oid": "103:1576575197685", "color": "#262626" }, "geometry": { "type": "Point", "coordinates": [ 13.710938, 57.657158 ] } }
{"year": "AD107",  "type": "Feature", "tippecanoe": { "layer": "2AFCA06D60481583917728653", "minzoom": 2, "maxzoom": 8 }, "properties": { "halo": 0.8, "title": "赫鲁利人", "fontsize": 12, "tyid": "304001", "oid": "103:1576575197511", "color": "#262626" }, "geometry": { "type": "Point", "coordinates": [ 13.447266, 55.875311 ] } }
{"year": "AD107",  "type": "Feature", "tippecanoe": { "layer": "2AFCA06D60481583917728653", "minzoom": 2, "maxzoom": 8 }, "properties": { "halo": 0.8, "title": "弗里西人", "fontsize": 12, "tyid": "304001", "oid": "103:1576575197699", "color": "#262626" }, "geometry": { "type": "Point", "coordinates": [ 6.503906, 52.696361 ] } }
{"year": "AD107",  "type": "Feature", "tippecanoe": { "layer": "2AFCA06D60481583917728653", "minzoom": 2, "maxzoom": 8 }, "properties": { "halo": 0.8, "title": "乔西人", "fontsize": 12, "tyid": "304001", "oid": "103:1576575197698", "color": "#262626" }, "geometry": { "type": "Point", "coordinates": [ 8.613281, 53.120405 ] } }
{"year": "AD107",  "type": "Feature", "tippecanoe": { "layer": "2AFCA06D60481583917728653", "minzoom": 2, "maxzoom": 8 }, "properties": { "halo": 0.8, "title": "切鲁西人", "fontsize": 12, "tyid": "304001", "oid": "103:1576575197704", "color": "#262626" }, "geometry": { "type": "Point", "coordinates": [ 10.634766, 52.429222 ] } }
{"year": "AD107",  "type": "Feature", "tippecanoe": { "layer": "2AFCA06D60481583917728653", "minzoom": 2, "maxzoom": 8 }, "properties": { "halo": 0.8, "title": "查蒂人", "fontsize": 12, "tyid": "304001", "oid": "103:1576575197701", "color": "#262626" }, "geometry": { "type": "Point", "coordinates": [ 8.964844, 50.736455 ] } }
{"year": "AD107",  "type": "Feature", "tippecanoe": { "layer": "2AFCA06D60481583917728653", "minzoom": 2, "maxzoom": 8 }, "properties": { "halo": 0.8, "title": "赫门杜里人", "fontsize": 12, "tyid": "304001", "oid": "103:1576575197690", "color": "#262626" }, "geometry": { "type": "Point", "coordinates": [ 11.162109, 50.345460 ] } }
{"year": "AD107",  "type": "Feature", "tippecanoe": { "layer": "2AFCA06D60481583917728653", "minzoom": 2, "maxzoom": 8 }, "properties": { "halo": 0.8, "title": "伦巴第人", "fontsize": 12, "tyid": "304001", "oid": "103:1576575197513", "color": "#262626" }, "geometry": { "type": "Point", "coordinates": [ 12.656250, 53.540307 ] } }
{"year": "AD107",  "type": "Feature", "tippecanoe": { "layer": "2AFCA06D60481583917728653", "minzoom": 2, "maxzoom": 8 }, "properties": { "halo": 0.8, "title": "鲁基人", "fontsize": 12, "tyid": "304001", "oid": "103:1576575197681", "color": "#262626" }, "geometry": { "type": "Point", "coordinates": [ 16.611328, 53.748711 ] } }
{"year": "AD107",  "type": "Feature", "tippecanoe": { "layer": "2AFCA06D60481583917728653", "minzoom": 2, "maxzoom": 8 }, "properties": { "halo": 0.8, "title": "苏维汇人", "fontsize": 12, "tyid": "304001", "oid": "103:1576575197703", "color": "#262626" }, "geometry": { "type": "Point", "coordinates": [ 13.271484, 51.672555 ] } }
{"year": "AD107",  "type": "Feature", "tippecanoe": { "layer": "2AFCA06D60481583917728653", "minzoom": 2, "maxzoom": 8 }, "properties": { "halo": 0.8, "title": "马科曼尼人", "fontsize": 12, "tyid": "304001", "oid": "103:1576575197332", "color": "#262626" }, "geometry": { "type": "Point", "coordinates": [ 14.501953, 49.610710 ] } }
{"year": "AD107",  "type": "Feature", "tippecanoe": { "layer": "2AFCA06D60481583917728653", "minzoom": 2, "maxzoom": 8 }, "properties": { "halo": 0.8, "title": "格皮德人", "fontsize": 12, "tyid": "304001", "oid": "103:1576575197680", "color": "#262626" }, "geometry": { "type": "Point", "coordinates": [ 19.687500, 53.278353 ] } }
{"year": "AD107",  "type": "Feature", "tippecanoe": { "layer": "2AFCA06D60481583917728653", "minzoom": 2, "maxzoom": 8 }, "properties": { "halo": 0.8, "title": "勃艮第人", "fontsize": 12, "tyid": "304001", "oid": "103:1576575197537", "color": "#262626" }, "geometry": { "type": "Point", "coordinates": [ 17.929688, 52.375599 ] } }
{"year": "AD107",  "type": "Feature", "tippecanoe": { "layer": "2AFCA06D60481583917728653", "minzoom": 2, "maxzoom": 8 }, "properties": { "halo": 0.8, "title": "汪达尔人", "fontsize": 12, "tyid": "304001", "oid": "103:1576575197333", "color": "#262626" }, "geometry": { "type": "Point", "coordinates": [ 17.490234, 50.736455 ] } }
{"year": "AD107",  "type": "Feature", "tippecanoe": { "layer": "2AFCA06D60481583917728653", "minzoom": 2, "maxzoom": 8 }, "properties": { "halo": 0.8, "title": "卢基人", "fontsize": 12, "tyid": "304001", "oid": "103:1576575197331", "color": "#262626" }, "geometry": { "type": "Point", "coordinates": [ 20.390625, 50.958427 ] } }
{"year": "AD107",  "type": "Feature", "tippecanoe": { "layer": "2AFCA06D60481583917728653", "minzoom": 2, "maxzoom": 8 }, "properties": { "halo": 0.8, "title": "哥蒂尼人", "fontsize": 12, "tyid": "304001", "oid": "103:1576575197378", "color": "#262626" }, "geometry": { "type": "Point", "coordinates": [ 21.796875, 49.210420 ] } }
{"year": "AD107",  "type": "Feature", "tippecanoe": { "layer": "2AFCA06D60481583917728653", "minzoom": 2, "maxzoom": 8 }, "properties": { "halo": 0.8, "title": "夸迪人", "fontsize": 12, "tyid": "304001", "oid": "103:1576575197375", "color": "#262626" }, "geometry": { "type": "Point", "coordinates": [ 18.369141, 48.864715 ] } }
{"year": "AD107",  "type": "Feature", "tippecanoe": { "layer": "2AFCA06D60481583917728653", "minzoom": 2, "maxzoom": 8 }, "properties": { "halo": 0.8, "title": "埃阿热格人", "fontsize": 12, "tyid": "304001", "oid": "103:1576575197696", "color": "#262626" }, "geometry": { "type": "Point", "coordinates": [ 20.478516, 46.800059 ] } }
{"year": "AD107",  "type": "Feature", "tippecanoe": { "layer": "2AFCA06D60481583917728653", "minzoom": 2, "maxzoom": 8 }, "properties": { "halo": 0.8, "title": "古爱沙尼亚人", "fontsize": 12, "tyid": "304001", "oid": "103:1576575197437", "color": "#262626" }, "geometry": { "type": "Point", "coordinates": [ 25.576172, 58.995311 ] } }
{"year": "AD107",  "type": "Feature", "tippecanoe": { "layer": "2AFCA06D60481583917728653", "minzoom": 2, "maxzoom": 8 }, "properties": { "halo": 0.8, "title": "利沃尼亚人", "fontsize": 12, "tyid": "304001", "oid": "103:1576575197527", "color": "#262626" }, "geometry": { "type": "Point", "coordinates": [ 25.839844, 58.170702 ] } }
{"year": "AD107",  "type": "Feature", "tippecanoe": { "layer": "2AFCA06D60481583917728653", "minzoom": 2, "maxzoom": 8 }, "properties": { "halo": 0.8, "title": "古拉脱维亚人", "fontsize": 12, "tyid": "304001", "oid": "103:1576575197609", "color": "#262626" }, "geometry": { "type": "Point", "coordinates": [ 26.630859, 56.848972 ] } }
{"year": "AD107",  "type": "Feature", "tippecanoe": { "layer": "2AFCA06D60481583917728653", "minzoom": 2, "maxzoom": 8 }, "properties": { "halo": 0.8, "title": "沃茨人", "fontsize": 12, "tyid": "304001", "oid": "103:1576575197404", "color": "#262626" }, "geometry": { "type": "Point", "coordinates": [ 29.794922, 59.040555 ] } }
{"year": "AD107",  "type": "Feature", "tippecanoe": { "layer": "2AFCA06D60481583917728653", "minzoom": 2, "maxzoom": 8 }, "properties": { "halo": 0.8, "title": "达契亚人", "fontsize": 12, "tyid": "304001", "oid": "103:1576575197473", "color": "#262626" }, "geometry": { "type": "Point", "coordinates": [ 24.433594, 46.739861 ] } }
{"year": "AD107",  "type": "Feature", "tippecanoe": { "layer": "2AFCA06D60481583917728653", "minzoom": 2, "maxzoom": 8 }, "properties": { "halo": 0.8, "title": "科斯多波克人", "fontsize": 12, "tyid": "304001", "oid": "103:1576575197533", "color": "#262626" }, "geometry": { "type": "Point", "coordinates": [ 27.158203, 46.860191 ] } }
{"year": "AD107",  "type": "Feature", "tippecanoe": { "layer": "2AFCA06D60481583917728653", "minzoom": 2, "maxzoom": 8 }, "properties": { "halo": 0.8, "title": "巴斯塔奈人", "fontsize": 12, "tyid": "304001", "oid": "103:1576575197534", "color": "#262626" }, "geometry": { "type": "Point", "coordinates": [ 29.179688, 47.338823 ] } }
{"year": "AD107",  "type": "Feature", "tippecanoe": { "layer": "2AFCA06D60481583917728653", "minzoom": 2, "maxzoom": 8 }, "properties": { "halo": 0.8, "title": "斯基泰人", "fontsize": 12, "tyid": "304001", "oid": "103:1576575197514", "color": "#262626" }, "geometry": { "type": "Point", "coordinates": [ 33.925781, 46.558860 ] } }
{"year": "AD107",  "type": "Feature", "tippecanoe": { "layer": "2AFCA06D60481583917728653", "minzoom": 2, "maxzoom": 8 }, "properties": { "halo": 0.8, "title": "博斯普鲁斯王国", "fontsize": 12, "tyid": "304000", "oid": "103:1576575197722", "color": "#202020" }, "geometry": { "type": "Point", "coordinates": [ 38.408203, 45.213004 ] } }
{"year": "AD107",  "type": "Feature", "tippecanoe": { "layer": "2AFCA06D60481583917728653", "minzoom": 2, "maxzoom": 8 }, "properties": { "halo": 0.8, "title": "西雷斯人", "fontsize": 12, "tyid": "304001", "oid": "103:1576575197603", "color": "#262626" }, "geometry": { "type": "Point", "coordinates": [ 40.869141, 45.767523 ] } }
{"year": "AD107",  "type": "Feature", "tippecanoe": { "layer": "2AFCA06D60481583917728653", "minzoom": 2, "maxzoom": 8 }, "properties": { "halo": 0.8, "title": "切尔克斯人", "fontsize": 12, "tyid": "304001", "oid": "103:1576575197612", "color": "#262626" }, "geometry": { "type": "Point", "coordinates": [ 41.748047, 43.771094 ] } }
{"year": "AD107",  "type": "Feature", "tippecanoe": { "layer": "2AFCA06D60481583917728653", "minzoom": 2, "maxzoom": 8 }, "properties": { "halo": 0.8, "title": "科尔基斯山中诸部", "fontsize": 12, "tyid": "304002", "oid": "103:1576575197349", "color": "#262626" }, "geometry": { "type": "Point", "coordinates": [ 42.451172, 42.875964 ] } }
{"year": "AD107",  "type": "Feature", "tippecanoe": { "layer": "2AFCA06D60481583917728653", "minzoom": 2, "maxzoom": 8 }, "properties": { "halo": 0.8, "title": "高加索伊比利亚王国", "fontsize": 12, "tyid": "304000", "oid": "103:1576575197739", "color": "#202020" }, "geometry": { "type": "Point", "coordinates": [ 44.560547, 41.967659 ] } }
{"year": "AD107",  "type": "Feature", "tippecanoe": { "layer": "2AFCA06D60481583917728653", "minzoom": 2, "maxzoom": 8 }, "properties": { "halo": 0.8, "title": "盖图里人", "fontsize": 12, "tyid": "304001", "oid": "103:1576575197745", "color": "#262626" }, "geometry": { "type": "Point", "coordinates": [ 1.933594, 34.234512 ] } }
{"year": "AD107",  "type": "Feature", "tippecanoe": { "layer": "2AFCA06D60481583917728653", "minzoom": 2, "maxzoom": 8 }, "properties": { "halo": 0.8, "title": "加拉曼特王国", "fontsize": 12, "tyid": "304000", "oid": "103:1576575197279", "color": "#202020" }, "geometry": { "type": "Point", "coordinates": [ 13.886719, 26.902477 ] } }
{"year": "AD107",  "type": "Feature", "tippecanoe": { "layer": "2AFCA06D60481583917728653", "minzoom": 2, "maxzoom": 8 }, "properties": { "halo": 0.8, "title": "约鲁巴人", "fontsize": 12, "tyid": "304001", "oid": "103:1576575197538", "color": "#262626" }, "geometry": { "type": "Point", "coordinates": [ 3.427734, 7.536764 ] } }
{"year": "AD107",  "type": "Feature", "tippecanoe": { "layer": "2AFCA06D60481583917728653", "minzoom": 2, "maxzoom": 8 }, "properties": { "halo": 0.8, "title": "伊博人", "fontsize": 12, "tyid": "304001", "oid": "103:1576575197417", "color": "#262626" }, "geometry": { "type": "Point", "coordinates": [ 7.998047, 5.965754 ] } }
{"year": "AD107",  "type": "Feature", "tippecanoe": { "layer": "2AFCA06D60481583917728653", "minzoom": 2, "maxzoom": 8 }, "properties": { "halo": 0.8, "title": "奥斯若恩王国", "fontsize": 12, "tyid": "304000", "oid": "103:1576575197308", "color": "#202020" }, "geometry": { "type": "Point", "coordinates": [ 38.759766, 36.949892 ] } }
{"year": "AD107",  "type": "Feature", "tippecanoe": { "layer": "2AFCA06D60481583917728653", "minzoom": 2, "maxzoom": 8 }, "properties": { "halo": 0.8, "title": "帕尔米拉酋长国", "fontsize": 12, "tyid": "304000", "oid": "103:1576575197758", "color": "#202020" }, "geometry": { "type": "Point", "coordinates": [ 38.583984, 34.813803 ] } }
{"year": "AD107",  "type": "Feature", "tippecanoe": { "layer": "2AFCA06D60481583917728653", "minzoom": 2, "maxzoom": 8 }, "properties": { "halo": 0.8, "title": "阿迪亚波纳王国", "fontsize": 12, "tyid": "304000", "oid": "103:1576575197731", "color": "#202020" }, "geometry": { "type": "Point", "coordinates": [ 43.945312, 36.597889 ] } }
{"year": "AD107",  "type": "Feature", "tippecanoe": { "layer": "2AFCA06D60481583917728653", "minzoom": 2, "maxzoom": 8 }, "properties": { "halo": 0.8, "title": "布雷米耶国", "fontsize": 12, "tyid": "304001", "oid": "103:1576575197515", "color": "#262626" }, "geometry": { "type": "Point", "coordinates": [ 34.980469, 21.453069 ] } }
{"year": "AD107",  "type": "Feature", "tippecanoe": { "layer": "2AFCA06D60481583917728653", "minzoom": 2, "maxzoom": 8 }, "properties": { "halo": 0.8, "title": "贝扎人", "fontsize": 12, "tyid": "304001", "oid": "103:1576575197285", "color": "#262626" }, "geometry": { "type": "Point", "coordinates": [ 35.771484, 16.383391 ] } }
{"year": "AD107",  "type": "Feature", "tippecanoe": { "layer": "2AFCA06D60481583917728653", "minzoom": 2, "maxzoom": 8 }, "properties": { "halo": 0.8, "title": "阿克苏姆王国", "fontsize": 12, "tyid": "304000", "oid": "103:1576575197673", "color": "#202020" }, "geometry": { "type": "Point", "coordinates": [ 40.253906, 13.410994 ] } }
{"year": "AD107",  "type": "Feature", "tippecanoe": { "layer": "2AFCA06D60481583917728653", "minzoom": 2, "maxzoom": 8 }, "properties": { "halo": 0.8, "title": "巴基尔联盟", "fontsize": 12, "tyid": "304002", "oid": "103:1576575197385", "color": "#262626" }, "geometry": { "type": "Point", "coordinates": [ 43.505859, 15.876809 ] } }
{"year": "AD107",  "type": "Feature", "tippecanoe": { "layer": "2AFCA06D60481583917728653", "minzoom": 2, "maxzoom": 8 }, "properties": { "halo": 0.8, "title": "希木叶尔王国", "fontsize": 12, "tyid": "304000", "oid": "103:1576575197387", "color": "#202020" }, "geometry": { "type": "Point", "coordinates": [ 44.472656, 13.752725 ] } }
{"year": "AD107",  "type": "Feature", "tippecanoe": { "layer": "2AFCA06D60481583917728653", "minzoom": 2, "maxzoom": 8 }, "properties": { "halo": 0.8, "title": "派诺博尔斯基文化", "fontsize": 12, "tyid": "304002", "oid": "103:1576575197286", "color": "#262626" }, "geometry": { "type": "Point", "coordinates": [ 50.449219, 56.897004 ] } }
{"year": "AD107",  "type": "Feature", "tippecanoe": { "layer": "2AFCA06D60481583917728653", "minzoom": 2, "maxzoom": 8 }, "properties": { "halo": 0.8, "title": "纳赫人", "fontsize": 12, "tyid": "304001", "oid": "103:1576575197486", "color": "#262626" }, "geometry": { "type": "Point", "coordinates": [ 45.878906, 42.875964 ] } }
{"year": "AD107",  "type": "Feature", "tippecanoe": { "layer": "2AFCA06D60481583917728653", "minzoom": 2, "maxzoom": 8 }, "properties": { "halo": 0.8, "title": "马萨格泰人", "fontsize": 12, "tyid": "304001", "oid": "103:1576575197470", "color": "#262626" }, "geometry": { "type": "Point", "coordinates": [ 63.808594, 49.037868 ] } }
{"year": "AD107",  "type": "Feature", "tippecanoe": { "layer": "2AFCA06D60481583917728653", "minzoom": 2, "maxzoom": 8 }, "properties": { "halo": 0.8, "title": "塞迦人", "fontsize": 12, "tyid": "304001", "oid": "103:1576575197767", "color": "#262626" }, "geometry": { "type": "Point", "coordinates": [ 56.777344, 42.163403 ] } }
{"year": "AD107",  "type": "Feature", "tippecanoe": { "layer": "2AFCA06D60481583917728653", "minzoom": 2, "maxzoom": 8 }, "properties": { "halo": 0.8, "title": "驩潜国", "fontsize": 12, "tyid": "304000", "oid": "103:1576575197674", "color": "#202020" }, "geometry": { "type": "Point", "coordinates": [ 59.765625, 42.488302 ] } }
{"year": "AD107",  "type": "Feature", "tippecanoe": { "layer": "2AFCA06D60481583917728653", "minzoom": 2, "maxzoom": 8 }, "properties": { "halo": 0.8, "title": "龟兹国", "fontsize": 12, "tyid": "304000", "oid": "103:1576575197736", "color": "#202020" }, "geometry": { "type": "Point", "coordinates": [ 83.408203, 41.376809 ] } }
{"year": "AD107",  "type": "Feature", "tippecanoe": { "layer": "2AFCA06D60481583917728653", "minzoom": 2, "maxzoom": 8 }, "properties": { "halo": 0.8, "title": "焉耆国", "fontsize": 12, "tyid": "304000", "oid": "103:1576575197766", "color": "#202020" }, "geometry": { "type": "Point", "coordinates": [ 85.693359, 41.640078 ] } }
{"year": "AD107",  "type": "Feature", "tippecanoe": { "layer": "2AFCA06D60481583917728653", "minzoom": 2, "maxzoom": 8 }, "properties": { "halo": 0.8, "title": "车师后国", "fontsize": 12, "tyid": "304000", "oid": "103:1576575197259", "color": "#202020" }, "geometry": { "type": "Point", "coordinates": [ 88.857422, 43.897892 ] } }
{"year": "AD107",  "type": "Feature", "tippecanoe": { "layer": "2AFCA06D60481583917728653", "minzoom": 2, "maxzoom": 8 }, "properties": { "halo": 0.8, "title": "危须国", "fontsize": 12, "tyid": "304000", "oid": "103:1576575197719", "color": "#202020" }, "geometry": { "type": "Point", "coordinates": [ 87.363281, 42.423457 ] } }
{"year": "AD107",  "type": "Feature", "tippecanoe": { "layer": "2AFCA06D60481583917728653", "minzoom": 2, "maxzoom": 8 }, "properties": { "halo": 0.8, "title": "车师前国", "fontsize": 12, "tyid": "304000", "oid": "103:1576575197255", "color": "#202020" }, "geometry": { "type": "Point", "coordinates": [ 89.736328, 43.004647 ] } }
{"year": "AD107",  "type": "Feature", "tippecanoe": { "layer": "2AFCA06D60481583917728653", "minzoom": 2, "maxzoom": 8 }, "properties": { "halo": 0.8, "title": "墨山国", "fontsize": 12, "tyid": "304000", "oid": "103:1576575197765", "color": "#202020" }, "geometry": { "type": "Point", "coordinates": [ 88.593750, 41.310824 ] } }
{"year": "AD107",  "type": "Feature", "tippecanoe": { "layer": "2AFCA06D60481583917728653", "minzoom": 2, "maxzoom": 8 }, "properties": { "halo": 0.8, "title": "高加索阿尔巴尼亚王国", "fontsize": 12, "tyid": "304000", "oid": "103:1576575197563", "color": "#202020" }, "geometry": { "type": "Point", "coordinates": [ 48.076172, 40.580585 ] } }
{"year": "AD107",  "type": "Feature", "tippecanoe": { "layer": "2AFCA06D60481583917728653", "minzoom": 2, "maxzoom": 8 }, "properties": { "halo": 0.8, "title": "阿特罗帕特尼王国", "fontsize": 12, "tyid": "304000", "oid": "103:1576575197725", "color": "#202020" }, "geometry": { "type": "Point", "coordinates": [ 47.900391, 37.996163 ] } }
{"year": "AD107",  "type": "Feature", "tippecanoe": { "layer": "2AFCA06D60481583917728653", "minzoom": 2, "maxzoom": 8 }, "properties": { "halo": 0.8, "title": "查拉塞尼王国", "fontsize": 12, "tyid": "304000", "oid": "103:1576575197748", "color": "#202020" }, "geometry": { "type": "Point", "coordinates": [ 47.460938, 31.278551 ] } }
{"year": "AD107",  "type": "Feature", "tippecanoe": { "layer": "2AFCA06D60481583917728653", "minzoom": 2, "maxzoom": 8 }, "properties": { "halo": 0.8, "title": "埃利迈斯王国", "fontsize": 12, "tyid": "304000", "oid": "103:1576575197717", "color": "#202020" }, "geometry": { "type": "Point", "coordinates": [ 49.130859, 31.653381 ] } }
{"year": "AD107",  "type": "Feature", "tippecanoe": { "layer": "2AFCA06D60481583917728653", "minzoom": 2, "maxzoom": 8 }, "properties": { "halo": 0.8, "title": "波西斯", "fontsize": 12, "tyid": "304000", "oid": "103:1576575197738", "color": "#202020" }, "geometry": { "type": "Point", "coordinates": [ 53.173828, 28.998532 ] } }
{"year": "AD107",  "type": "Feature", "tippecanoe": { "layer": "2AFCA06D60481583917728653", "minzoom": 2, "maxzoom": 8 }, "properties": { "halo": 0.8, "title": "塞巴王国", "fontsize": 12, "tyid": "304000", "oid": "103:1576575197720", "color": "#202020" }, "geometry": { "type": "Point", "coordinates": [ 45.351562, 16.045813 ] } }
{"year": "AD107",  "type": "Feature", "tippecanoe": { "layer": "2AFCA06D60481583917728653", "minzoom": 2, "maxzoom": 8 }, "properties": { "halo": 0.8, "title": "阿德王国", "fontsize": 12, "tyid": "304000", "oid": "103:1576575197356", "color": "#202020" }, "geometry": { "type": "Point", "coordinates": [ 52.382812, 18.646245 ] } }
{"year": "AD107",  "type": "Feature", "tippecanoe": { "layer": "2AFCA06D60481583917728653", "minzoom": 2, "maxzoom": 8 }, "properties": { "halo": 0.8, "title": "哈德拉毛王国", "fontsize": 12, "tyid": "304000", "oid": "103:1576575197283", "color": "#202020" }, "geometry": { "type": "Point", "coordinates": [ 50.976562, 16.299051 ] } }
{"year": "AD107",  "type": "Feature", "tippecanoe": { "layer": "2AFCA06D60481583917728653", "minzoom": 2, "maxzoom": 8 }, "properties": { "halo": 0.8, "title": "大宛国", "fontsize": 12, "tyid": "304000", "oid": "103:1576575197429", "color": "#202020" }, "geometry": { "type": "Point", "coordinates": [ 71.455078, 40.713956 ] } }
{"year": "AD107",  "type": "Feature", "tippecanoe": { "layer": "2AFCA06D60481583917728653", "minzoom": 2, "maxzoom": 8 }, "properties": { "halo": 0.8, "title": "休循国", "fontsize": 12, "tyid": "304000", "oid": "103:1576575197728", "color": "#202020" }, "geometry": { "type": "Point", "coordinates": [ 72.773438, 39.504041 ] } }
{"year": "AD107",  "type": "Feature", "tippecanoe": { "layer": "2AFCA06D60481583917728653", "minzoom": 2, "maxzoom": 8 }, "properties": { "halo": 0.8, "title": "疏勒国", "fontsize": 12, "tyid": "304000", "oid": "103:1576575197735", "color": "#202020" }, "geometry": { "type": "Point", "coordinates": [ 75.322266, 39.842286 ] } }
{"year": "AD107",  "type": "Feature", "tippecanoe": { "layer": "2AFCA06D60481583917728653", "minzoom": 2, "maxzoom": 8 }, "properties": { "halo": 0.8, "title": "无雷国", "fontsize": 12, "tyid": "304000", "oid": "103:1576575197751", "color": "#202020" }, "geometry": { "type": "Point", "coordinates": [ 73.476562, 38.065392 ] } }
{"year": "AD107",  "type": "Feature", "tippecanoe": { "layer": "2AFCA06D60481583917728653", "minzoom": 2, "maxzoom": 8 }, "properties": { "halo": 0.8, "title": "尉头国", "fontsize": 12, "tyid": "304000", "oid": "103:1576575197726", "color": "#202020" }, "geometry": { "type": "Point", "coordinates": [ 78.222656, 40.313043 ] } }
{"year": "AD107",  "type": "Feature", "tippecanoe": { "layer": "2AFCA06D60481583917728653", "minzoom": 2, "maxzoom": 8 }, "properties": { "halo": 0.8, "title": "西夜国", "fontsize": 12, "tyid": "304000", "oid": "103:1576575197734", "color": "#202020" }, "geometry": { "type": "Point", "coordinates": [ 78.046875, 36.949892 ] } }
{"year": "AD107",  "type": "Feature", "tippecanoe": { "layer": "2AFCA06D60481583917728653", "minzoom": 2, "maxzoom": 8 }, "properties": { "halo": 0.8, "title": "乌秅国", "fontsize": 12, "tyid": "304000", "oid": "103:1576575197741", "color": "#202020" }, "geometry": { "type": "Point", "coordinates": [ 76.728516, 36.385913 ] } }
{"year": "AD107",  "type": "Feature", "tippecanoe": { "layer": "2AFCA06D60481583917728653", "minzoom": 2, "maxzoom": 8 }, "properties": { "halo": 0.8, "title": "西萨特拉普王朝", "fontsize": 12, "tyid": "304000", "oid": "103:1576575197422", "color": "#202020" }, "geometry": { "type": "Point", "coordinates": [ 71.806641, 22.917923 ] } }
{"year": "AD107",  "type": "Feature", "tippecanoe": { "layer": "2AFCA06D60481583917728653", "minzoom": 2, "maxzoom": 8 }, "properties": { "halo": 0.8, "title": "古宁陀王国", "fontsize": 12, "tyid": "304000", "oid": "103:1576575197423", "color": "#202020" }, "geometry": { "type": "Point", "coordinates": [ 76.816406, 31.503629 ] } }
{"year": "AD107",  "type": "Feature", "tippecanoe": { "layer": "2AFCA06D60481583917728653", "minzoom": 2, "maxzoom": 8 }, "properties": { "halo": 0.8, "title": "姑墨国", "fontsize": 12, "tyid": "304000", "oid": "103:1576575197760", "color": "#202020" }, "geometry": { "type": "Point", "coordinates": [ 80.595703, 40.847060 ] } }
{"year": "AD107",  "type": "Feature", "tippecanoe": { "layer": "2AFCA06D60481583917728653", "minzoom": 2, "maxzoom": 8 }, "properties": { "halo": 0.8, "title": "于阗国", "fontsize": 12, "tyid": "304000", "oid": "103:1576575197257", "color": "#202020" }, "geometry": { "type": "Point", "coordinates": [ 79.277344, 37.996163 ] } }
{"year": "AD107",  "type": "Feature", "tippecanoe": { "layer": "2AFCA06D60481583917728653", "minzoom": 2, "maxzoom": 8 }, "properties": { "halo": 0.8, "title": "扜弥国", "fontsize": 12, "tyid": "304000", "oid": "103:1576575197261", "color": "#202020" }, "geometry": { "type": "Point", "coordinates": [ 81.914062, 38.616870 ] } }
{"year": "AD107",  "type": "Feature", "tippecanoe": { "layer": "2AFCA06D60481583917728653", "minzoom": 2, "maxzoom": 8 }, "properties": { "halo": 0.8, "title": "精绝国", "fontsize": 12, "tyid": "304000", "oid": "103:1576575197743", "color": "#202020" }, "geometry": { "type": "Point", "coordinates": [ 82.880859, 37.509726 ] } }
{"year": "AD107",  "type": "Feature", "tippecanoe": { "layer": "2AFCA06D60481583917728653", "minzoom": 2, "maxzoom": 8 }, "properties": { "halo": 0.8, "title": "鄯善国", "fontsize": 12, "tyid": "304000", "oid": "103:1576575197715", "color": "#202020" }, "geometry": { "type": "Point", "coordinates": [ 87.978516, 38.410558 ] } }
{"year": "AD107",  "type": "Feature", "tippecanoe": { "layer": "2AFCA06D60481583917728653", "minzoom": 2, "maxzoom": 8 }, "properties": { "halo": 0.8, "title": "般遮罗国", "fontsize": 12, "tyid": "304000", "oid": "103:1576575197239", "color": "#202020" }, "geometry": { "type": "Point", "coordinates": [ 79.541016, 28.690588 ] } }
{"year": "AD107",  "type": "Feature", "tippecanoe": { "layer": "2AFCA06D60481583917728653", "minzoom": 2, "maxzoom": 8 }, "properties": { "halo": 0.8, "title": "克拉底王国", "fontsize": 12, "tyid": "304000", "oid": "103:1576575197241", "color": "#202020" }, "geometry": { "type": "Point", "coordinates": [ 84.199219, 28.071980 ] } }
{"year": "AD107",  "type": "Feature", "tippecanoe": { "layer": "2AFCA06D60481583917728653", "minzoom": 2, "maxzoom": 8 }, "properties": { "halo": 0.8, "title": "耽摩栗底国", "fontsize": 12, "tyid": "304000", "oid": "103:1576575197777", "color": "#202020" }, "geometry": { "type": "Point", "coordinates": [ 88.593750, 22.836946 ] } }
{"year": "AD107",  "type": "Feature", "tippecanoe": { "layer": "2AFCA06D60481583917728653", "minzoom": 2, "maxzoom": 8 }, "properties": { "halo": 0.8, "title": "楚图王朝", "fontsize": 12, "tyid": "304000", "oid": "103:1576575197594", "color": "#202020" }, "geometry": { "type": "Point", "coordinates": [ 75.058594, 15.368950 ] } }
{"year": "AD107",  "type": "Feature", "tippecanoe": { "layer": "2AFCA06D60481583917728653", "minzoom": 2, "maxzoom": 8 }, "properties": { "halo": 0.8, "title": "哲罗国", "fontsize": 12, "tyid": "304000", "oid": "103:1576575197383", "color": "#202020" }, "geometry": { "type": "Point", "coordinates": [ 76.464844, 10.314919 ] } }
{"year": "AD107",  "type": "Feature", "tippecanoe": { "layer": "2AFCA06D60481583917728653", "minzoom": 2, "maxzoom": 8 }, "properties": { "halo": 0.8, "title": "潘地亚王国", "fontsize": 12, "tyid": "304000", "oid": "103:1576575197237", "color": "#202020" }, "geometry": { "type": "Point", "coordinates": [ 77.958984, 9.535749 ] } }
{"year": "AD107",  "type": "Feature", "tippecanoe": { "layer": "2AFCA06D60481583917728653", "minzoom": 2, "maxzoom": 8 }, "properties": { "halo": 0.8, "title": "朱罗国", "fontsize": 12, "tyid": "304000", "oid": "103:1576575197662", "color": "#202020" }, "geometry": { "type": "Point", "coordinates": [ 78.925781, 11.264612 ] } }
{"year": "AD107",  "type": "Feature", "tippecanoe": { "layer": "2AFCA06D60481583917728653", "minzoom": 2, "maxzoom": 8 }, "properties": { "halo": 0.8, "title": "质多王朝", "fontsize": 12, "tyid": "304000", "oid": "103:1576575197457", "color": "#202020" }, "geometry": { "type": "Point", "coordinates": [ 84.375000, 20.385825 ] } }
{"year": "AD107",  "type": "Feature", "tippecanoe": { "layer": "2AFCA06D60481583917728653", "minzoom": 2, "maxzoom": 8 }, "properties": { "halo": 0.8, "title": "阿努拉德普勒王国", "fontsize": 12, "tyid": "304000", "oid": "103:1576575197276", "color": "#202020" }, "geometry": { "type": "Point", "coordinates": [ 80.683594, 7.623887 ] } }
{"year": "AD107",  "type": "Feature", "tippecanoe": { "layer": "2AFCA06D60481583917728653", "minzoom": 2, "maxzoom": 8 }, "properties": { "halo": 0.8, "title": "蒲类前国", "fontsize": 12, "tyid": "304000", "oid": "103:1576575197746", "color": "#202020" }, "geometry": { "type": "Point", "coordinates": [ 93.867188, 42.617791 ] } }
{"year": "AD107",  "type": "Feature", "tippecanoe": { "layer": "2AFCA06D60481583917728653", "minzoom": 2, "maxzoom": 8 }, "properties": { "halo": 0.8, "title": "乌桓", "fontsize": 12, "tyid": "304001", "oid": "103:1576575197562", "color": "#262626" }, "geometry": { "type": "Point", "coordinates": [ 117.773438, 41.967659 ] } }
{"year": "AD107",  "type": "Feature", "tippecanoe": { "layer": "2AFCA06D60481583917728653", "minzoom": 2, "maxzoom": 8 }, "properties": { "halo": 0.8, "title": "北沃沮", "fontsize": 12, "tyid": "304001", "oid": "103:1576575197622", "color": "#262626" }, "geometry": { "type": "Point", "coordinates": [ 128.935547, 41.967659 ] } }
{"year": "AD107",  "type": "Feature", "tippecanoe": { "layer": "2AFCA06D60481583917728653", "minzoom": 2, "maxzoom": 8 }, "properties": { "halo": 0.8, "title": "烧当羌", "fontsize": 12, "tyid": "304001", "oid": "103:1576575197449", "color": "#262626" }, "geometry": { "type": "Point", "coordinates": [ 100.634766, 37.509726 ] } }
{"year": "AD107",  "type": "Feature", "tippecanoe": { "layer": "2AFCA06D60481583917728653", "minzoom": 2, "maxzoom": 8 }, "properties": { "halo": 0.8, "title": "盘越国", "fontsize": 12, "tyid": "304000", "oid": "103:1576575197710", "color": "#202020" }, "geometry": { "type": "Point", "coordinates": [ 92.724609, 25.958045 ] } }
{"year": "AD107",  "type": "Feature", "tippecanoe": { "layer": "2AFCA06D60481583917728653", "minzoom": 2, "maxzoom": 8 }, "properties": { "halo": 0.8, "title": "三摩呾吒国", "fontsize": 12, "tyid": "304000", "oid": "103:1576575197320", "color": "#202020" }, "geometry": { "type": "Point", "coordinates": [ 91.054688, 23.725012 ] } }
{"year": "AD107",  "type": "Feature", "tippecanoe": { "layer": "2AFCA06D60481583917728653", "minzoom": 2, "maxzoom": 8 }, "properties": { "halo": 0.8, "title": "古曼尼普尔王国", "fontsize": 12, "tyid": "304000", "oid": "103:1576575197445", "color": "#202020" }, "geometry": { "type": "Point", "coordinates": [ 93.867188, 24.766785 ] } }
{"year": "AD107",  "type": "Feature", "tippecanoe": { "layer": "2AFCA06D60481583917728653", "minzoom": 2, "maxzoom": 8 }, "properties": { "halo": 0.8, "title": "达雅瓦底王国", "fontsize": 12, "tyid": "304000", "oid": "103:1576575197466", "color": "#202020" }, "geometry": { "type": "Point", "coordinates": [ 93.339844, 20.550509 ] } }
{"year": "AD107",  "type": "Feature", "tippecanoe": { "layer": "2AFCA06D60481583917728653", "minzoom": 2, "maxzoom": 8 }, "properties": { "halo": 0.8, "title": "直通王国", "fontsize": 12, "tyid": "304000", "oid": "103:1576575197446", "color": "#202020" }, "geometry": { "type": "Point", "coordinates": [ 95.185547, 16.972741 ] } }
{"year": "AD107",  "type": "Feature", "tippecanoe": { "layer": "2AFCA06D60481583917728653", "minzoom": 2, "maxzoom": 8 }, "properties": { "halo": 0.8, "title": "骠国", "fontsize": 12, "tyid": "304000", "oid": "103:1576575197342", "color": "#202020" }, "geometry": { "type": "Point", "coordinates": [ 95.712891, 21.125498 ] } }
{"year": "AD107",  "type": "Feature", "tippecanoe": { "layer": "2AFCA06D60481583917728653", "minzoom": 2, "maxzoom": 8 }, "properties": { "halo": 0.8, "title": "班清文化", "fontsize": 12, "tyid": "304002", "oid": "103:1576575197275", "color": "#262626" }, "geometry": { "type": "Point", "coordinates": [ 103.271484, 17.560247 ] } }
{"year": "AD107",  "type": "Feature", "tippecanoe": { "layer": "2AFCA06D60481583917728653", "minzoom": 2, "maxzoom": 8 }, "properties": { "halo": 0.8, "title": "高句丽", "fontsize": 12, "tyid": "304000", "oid": "103:1576575197489", "color": "#202020" }, "geometry": { "type": "Point", "coordinates": [ 126.210938, 40.979898 ] } }
{"year": "AD107",  "type": "Feature", "tippecanoe": { "layer": "2AFCA06D60481583917728653", "minzoom": 2, "maxzoom": 8 }, "properties": { "halo": 0.8, "title": "东濊", "fontsize": 12, "tyid": "304001", "oid": "103:1576575197623", "color": "#262626" }, "geometry": { "type": "Point", "coordinates": [ 127.792969, 38.065392 ] } }
{"year": "AD107",  "type": "Feature", "tippecanoe": { "layer": "2AFCA06D60481583917728653", "minzoom": 2, "maxzoom": 8 }, "properties": { "halo": 0.8, "title": "马韩", "fontsize": 12, "tyid": "304001", "oid": "103:1576575197384", "color": "#262626" }, "geometry": { "type": "Point", "coordinates": [ 127.529297, 36.385913 ] } }
{"year": "AD107",  "type": "Feature", "tippecanoe": { "layer": "2AFCA06D60481583917728653", "minzoom": 2, "maxzoom": 8 }, "properties": { "halo": 0.8, "title": "辰韩", "fontsize": 12, "tyid": "304001", "oid": "103:1576575197478", "color": "#262626" }, "geometry": { "type": "Point", "coordinates": [ 128.759766, 36.315125 ] } }
{"year": "AD107",  "type": "Feature", "tippecanoe": { "layer": "2AFCA06D60481583917728653", "minzoom": 2, "maxzoom": 8 }, "properties": { "halo": 0.8, "title": "尼格利陀人", "fontsize": 12, "tyid": "304001", "oid": "103:1576575197656", "color": "#262626" }, "geometry": { "type": "Point", "coordinates": [ 121.464844, 17.056785 ] } }
{"year": "AD107",  "type": "Feature", "tippecanoe": { "layer": "2AFCA06D60481583917728653", "minzoom": 2, "maxzoom": 8 }, "properties": { "halo": 0.8, "title": "绳文人", "fontsize": 12, "tyid": "304001", "oid": "103:1576575197560", "color": "#262626" }, "geometry": { "type": "Point", "coordinates": [ 142.558594, 43.389082 ] } }
{"year": "AD107",  "type": "Feature", "tippecanoe": { "layer": "2AFCA06D60481583917728653", "minzoom": 2, "maxzoom": 8 }, "properties": { "halo": 0.8, "title": "弥生人", "fontsize": 12, "tyid": "304001", "oid": "103:1576575197298", "color": "#262626" }, "geometry": { "type": "Point", "coordinates": [ 140.537109, 39.027719 ] } }
{"year": "AD107",  "type": "Feature", "tippecanoe": { "layer": "2AFCA06D60481583917728653", "minzoom": 2, "maxzoom": 8 }, "properties": { "halo": 0.8, "title": "倭人诸邦", "fontsize": 12, "tyid": "304002", "oid": "103:1576575197426", "color": "#262626" }, "geometry": { "type": "Point", "coordinates": [ 138.339844, 36.102376 ] } }
{"year": "AD107",  "type": "Feature", "tippecanoe": { "layer": "2AFCA06D60481583917728653", "minzoom": 2, "maxzoom": 8 }, "properties": { "halo": 0.8, "title": "乌莱维文明", "fontsize": 12, "tyid": "304002", "oid": "103:1576575197280", "color": "#262626" }, "geometry": { "type": "Point", "coordinates": [ 29.882812, -2.547988 ] } }
{"year": "AD107",  "type": "Feature", "tippecanoe": { "layer": "2AFCA06D60481583917728653", "minzoom": 2, "maxzoom": 8 }, "properties": { "halo": 0.8, "title": "艾布兰文化五期", "fontsize": 12, "tyid": "304002", "oid": "103:1576575197453", "color": "#262626" }, "geometry": { "type": "Point", "coordinates": [ 36.474609, -0.175781 ] } }
{"year": "AD107",  "type": "Feature", "tippecanoe": { "layer": "2AFCA06D60481583917728653", "minzoom": 2, "maxzoom": 8 }, "properties": { "halo": 0.8, "title": "巴拉瓦人", "fontsize": 12, "tyid": "304001", "oid": "103:1576575197244", "color": "#262626" }, "geometry": { "type": "Point", "coordinates": [ 146.513672, -41.967659 ] } }
{"year": "AD107",  "type": "Feature", "tippecanoe": { "layer": "2AFCA06D69E81583917728655", "minzoom": 2, "maxzoom": 8 }, "properties": { "halo": 0.8, "title": "古白令海文化", "fontsize": 12, "tyid": "304002", "oid": "103:1576575197401", "color": "#262626" }, "geometry": { "type": "Point", "coordinates": [ -170.332031, 63.470145 ] } }
{"year": "AD107",  "type": "Feature", "tippecanoe": { "layer": "2AFCA06D69E81583917728655", "minzoom": 2, "maxzoom": 8 }, "properties": { "halo": 0.8, "title": "查尔奇维特斯文化", "fontsize": 12, "tyid": "304002", "oid": "103:1576575197498", "color": "#262626" }, "geometry": { "type": "Point", "coordinates": [ -103.974609, 23.483401 ] } }
{"year": "AD107",  "type": "Feature", "tippecanoe": { "layer": "2AFCA06D69E81583917728655", "minzoom": 2, "maxzoom": 8 }, "properties": { "halo": 0.8, "title": "查普卡洛文化", "fontsize": 12, "tyid": "304002", "oid": "103:1576575197611", "color": "#262626" }, "geometry": { "type": "Point", "coordinates": [ -99.931641, 20.303418 ] } }
{"year": "AD107",  "type": "Feature", "tippecanoe": { "layer": "2AFCA06D69E81583917728655", "minzoom": 2, "maxzoom": 8 }, "properties": { "halo": 0.8, "title": "特奥蒂瓦坎", "fontsize": 12, "tyid": "304002", "oid": "103:1576575197321", "color": "#262626" }, "geometry": { "type": "Point", "coordinates": [ -99.404297, 19.808054 ] } }
{"year": "AD107",  "type": "Feature", "tippecanoe": { "layer": "2AFCA06D69E81583917728655", "minzoom": 2, "maxzoom": 8 }, "properties": { "halo": 0.8, "title": "古韦拉克鲁斯文化", "fontsize": 12, "tyid": "304002", "oid": "103:1576575197631", "color": "#262626" }, "geometry": { "type": "Point", "coordinates": [ -96.767578, 19.642588 ] } }
{"year": "AD107",  "type": "Feature", "tippecanoe": { "layer": "2AFCA06D69E81583917728655", "minzoom": 2, "maxzoom": 8 }, "properties": { "halo": 0.8, "title": "米斯特克人", "fontsize": 12, "tyid": "304001", "oid": "103:1576575197655", "color": "#262626" }, "geometry": { "type": "Point", "coordinates": [ -98.349609, 17.224758 ] } }
{"year": "AD107",  "type": "Feature", "tippecanoe": { "layer": "2AFCA06D69E81583917728655", "minzoom": 2, "maxzoom": 8 }, "properties": { "halo": 0.8, "title": "特里克人", "fontsize": 12, "tyid": "304001", "oid": "103:1576575197500", "color": "#262626" }, "geometry": { "type": "Point", "coordinates": [ -97.294922, 17.644022 ] } }
{"year": "AD107",  "type": "Feature", "tippecanoe": { "layer": "2AFCA06D69E81583917728655", "minzoom": 2, "maxzoom": 8 }, "properties": { "halo": 0.8, "title": "洛瓦贾达斯文化", "fontsize": 12, "tyid": "304002", "oid": "103:1576575197628", "color": "#262626" }, "geometry": { "type": "Point", "coordinates": [ -96.416016, 19.145168 ] } }
{"year": "AD107",  "type": "Feature", "tippecanoe": { "layer": "2AFCA06D69E81583917728655", "minzoom": 2, "maxzoom": 8 }, "properties": { "halo": 0.8, "title": "麦克斯人", "fontsize": 12, "tyid": "304001", "oid": "103:1576575197590", "color": "#262626" }, "geometry": { "type": "Point", "coordinates": [ -96.328125, 18.062312 ] } }
{"year": "AD107",  "type": "Feature", "tippecanoe": { "layer": "2AFCA06D69E81583917728655", "minzoom": 2, "maxzoom": 8 }, "properties": { "halo": 0.8, "title": "后奥尔梅克文化", "fontsize": 12, "tyid": "304002", "oid": "103:1576575197310", "color": "#262626" }, "geometry": { "type": "Point", "coordinates": [ -95.625000, 18.479609 ] } }
{"year": "AD107",  "type": "Feature", "tippecanoe": { "layer": "2AFCA06D69E81583917728655", "minzoom": 2, "maxzoom": 8 }, "properties": { "halo": 0.8, "title": "佐齐尔人", "fontsize": 12, "tyid": "304001", "oid": "103:1576575197328", "color": "#262626" }, "geometry": { "type": "Point", "coordinates": [ -93.339844, 16.551962 ] } }
{"year": "AD107",  "type": "Feature", "tippecanoe": { "layer": "2AFCA06D69E81583917728655", "minzoom": 2, "maxzoom": 8 }, "properties": { "halo": 0.8, "title": "祖赫人", "fontsize": 12, "tyid": "304001", "oid": "103:1576575197524", "color": "#262626" }, "geometry": { "type": "Point", "coordinates": [ -92.109375, 16.045813 ] } }
{"year": "AD107",  "type": "Feature", "tippecanoe": { "layer": "2AFCA06D69E81583917728655", "minzoom": 2, "maxzoom": 8 }, "properties": { "halo": 0.8, "title": "基切人", "fontsize": 12, "tyid": "304001", "oid": "103:1576575197288", "color": "#262626" }, "geometry": { "type": "Point", "coordinates": [ -90.966797, 15.029686 ] } }
{"year": "AD107",  "type": "Feature", "tippecanoe": { "layer": "2AFCA06D69E81583917728655", "minzoom": 2, "maxzoom": 8 }, "properties": { "halo": 0.8, "title": "阿尔托山文化", "fontsize": 12, "tyid": "304002", "oid": "103:1576575197432", "color": "#262626" }, "geometry": { "type": "Point", "coordinates": [ -91.054688, 14.349548 ] } }
{"year": "AD107",  "type": "Feature", "tippecanoe": { "layer": "2AFCA06D69E81583917728655", "minzoom": 2, "maxzoom": 8 }, "properties": { "halo": 0.8, "title": "怒溪文化", "fontsize": 12, "tyid": "304002", "oid": "103:1576575197411", "color": "#262626" }, "geometry": { "type": "Point", "coordinates": [ -72.421875, 41.574361 ] } }
{"year": "AD107",  "type": "Feature", "tippecanoe": { "layer": "2AFCA06D69E81583917728655", "minzoom": 2, "maxzoom": 8 }, "properties": { "halo": 0.8, "title": "埃里森-拉莫特文化", "fontsize": 12, "tyid": "304002", "oid": "103:1576575197619", "color": "#262626" }, "geometry": { "type": "Point", "coordinates": [ -87.626953, 39.095963 ] } }
{"year": "AD107",  "type": "Feature", "tippecanoe": { "layer": "2AFCA06D69E81583917728655", "minzoom": 2, "maxzoom": 8 }, "properties": { "halo": 0.8, "title": "科佩纳文化", "fontsize": 12, "tyid": "304002", "oid": "103:1576575197336", "color": "#262626" }, "geometry": { "type": "Point", "coordinates": [ -87.539062, 34.669359 ] } }
{"year": "AD107",  "type": "Feature", "tippecanoe": { "layer": "2AFCA06D69E81583917728655", "minzoom": 2, "maxzoom": 8 }, "properties": { "halo": 0.8, "title": "米勒文化", "fontsize": 12, "tyid": "304002", "oid": "103:1576575197292", "color": "#262626" }, "geometry": { "type": "Point", "coordinates": [ -88.417969, 34.234512 ] } }
{"year": "AD107",  "type": "Feature", "tippecanoe": { "layer": "2AFCA06D69E81583917728655", "minzoom": 2, "maxzoom": 8 }, "properties": { "halo": 0.8, "title": "威廉文化", "fontsize": 12, "tyid": "304002", "oid": "103:1576575197494", "color": "#262626" }, "geometry": { "type": "Point", "coordinates": [ -80.771484, 39.639538 ] } }
{"year": "AD107",  "type": "Feature", "tippecanoe": { "layer": "2AFCA06D69E81583917728655", "minzoom": 2, "maxzoom": 8 }, "properties": { "halo": 0.8, "title": "山地霍普维尔文化", "fontsize": 12, "tyid": "304002", "oid": "103:1576575197497", "color": "#262626" }, "geometry": { "type": "Point", "coordinates": [ -79.980469, 39.300299 ] } }
{"year": "AD107",  "type": "Feature", "tippecanoe": { "layer": "2AFCA06D69E81583917728655", "minzoom": 2, "maxzoom": 8 }, "properties": { "halo": 0.8, "title": "凯兹池塘文化", "fontsize": 12, "tyid": "304002", "oid": "103:1576575197652", "color": "#262626" }, "geometry": { "type": "Point", "coordinates": [ -82.265625, 29.535230 ] } }
{"year": "AD107",  "type": "Feature", "tippecanoe": { "layer": "2AFCA06D69E81583917728655", "minzoom": 2, "maxzoom": 8 }, "properties": { "halo": 0.8, "title": "玛纳索塔文化", "fontsize": 12, "tyid": "304002", "oid": "103:1576575197458", "color": "#262626" }, "geometry": { "type": "Point", "coordinates": [ -82.441406, 27.683528 ] } }
{"year": "AD107",  "type": "Feature", "tippecanoe": { "layer": "2AFCA06D69E81583917728655", "minzoom": 2, "maxzoom": 8 }, "properties": { "halo": 0.8, "title": "卡卢萨人", "fontsize": 12, "tyid": "304001", "oid": "103:1576575197592", "color": "#262626" }, "geometry": { "type": "Point", "coordinates": [ -81.650391, 27.137368 ] } }
{"year": "AD107",  "type": "Feature", "tippecanoe": { "layer": "2AFCA06D69E81583917728655", "minzoom": 2, "maxzoom": 8 }, "properties": { "halo": 0.8, "title": "圣约翰文化", "fontsize": 12, "tyid": "304002", "oid": "103:1576575197597", "color": "#262626" }, "geometry": { "type": "Point", "coordinates": [ -81.474609, 29.382175 ] } }
{"year": "AD107",  "type": "Feature", "tippecanoe": { "layer": "2AFCA06D69E81583917728655", "minzoom": 2, "maxzoom": 8 }, "properties": { "halo": 0.8, "title": "贝尔格莱德文化", "fontsize": 12, "tyid": "304002", "oid": "103:1576575197399", "color": "#262626" }, "geometry": { "type": "Point", "coordinates": [ -80.859375, 27.449790 ] } }
{"year": "AD107",  "type": "Feature", "tippecanoe": { "layer": "2AFCA06D69E81583917728655", "minzoom": 2, "maxzoom": 8 }, "properties": { "halo": 0.8, "title": "格莱兹文化", "fontsize": 12, "tyid": "304002", "oid": "103:1576575197405", "color": "#262626" }, "geometry": { "type": "Point", "coordinates": [ -80.771484, 26.037042 ] } }
{"year": "AD107",  "type": "Feature", "tippecanoe": { "layer": "2AFCA06D69E81583917728655", "minzoom": 2, "maxzoom": 8 }, "properties": { "halo": 0.8, "title": "德贵斯塔族", "fontsize": 12, "tyid": "304001", "oid": "103:1576575197434", "color": "#262626" }, "geometry": { "type": "Point", "coordinates": [ -80.419922, 25.562265 ] } }
{"year": "AD107",  "type": "Feature", "tippecanoe": { "layer": "2AFCA06D69E81583917728655", "minzoom": 2, "maxzoom": 8 }, "properties": { "halo": 0.8, "title": "雷卡人", "fontsize": 12, "tyid": "304001", "oid": "103:1576575197322", "color": "#262626" }, "geometry": { "type": "Point", "coordinates": [ -87.802734, 13.752725 ] } }
{"year": "AD107",  "type": "Feature", "tippecanoe": { "layer": "2AFCA06D69E81583917728655", "minzoom": 2, "maxzoom": 8 }, "properties": { "halo": 0.8, "title": "格兰科克勒文化", "fontsize": 12, "tyid": "304002", "oid": "103:1576575197316", "color": "#262626" }, "geometry": { "type": "Point", "coordinates": [ -80.507812, 8.581021 ] } }
{"year": "AD107",  "type": "Feature", "tippecanoe": { "layer": "2AFCA06D69E81583917728655", "minzoom": 2, "maxzoom": 8 }, "properties": { "halo": 0.8, "title": "泰罗纳", "fontsize": 12, "tyid": "304002", "oid": "103:1576575197365", "color": "#262626" }, "geometry": { "type": "Point", "coordinates": [ -73.564453, 10.833306 ] } }
{"year": "AD107",  "type": "Feature", "tippecanoe": { "layer": "2AFCA06D69E81583917728655", "minzoom": 2, "maxzoom": 8 }, "properties": { "halo": 0.8, "title": "约托科文化", "fontsize": 12, "tyid": "304002", "oid": "103:1576575197525", "color": "#262626" }, "geometry": { "type": "Point", "coordinates": [ -76.289062, 4.302591 ] } }
{"year": "AD107",  "type": "Feature", "tippecanoe": { "layer": "2AFCA06D69E81583917728655", "minzoom": 2, "maxzoom": 8 }, "properties": { "halo": 0.8, "title": "卡利玛文化", "fontsize": 12, "tyid": "304002", "oid": "103:1576575197410", "color": "#262626" }, "geometry": { "type": "Point", "coordinates": [ -76.728516, 4.214943 ] } }
{"year": "AD107",  "type": "Feature", "tippecanoe": { "layer": "2AFCA06D69E81583917728655", "minzoom": 2, "maxzoom": 8 }, "properties": { "halo": 0.8, "title": "马拉加纳文化", "fontsize": 12, "tyid": "304002", "oid": "103:1576575197363", "color": "#262626" }, "geometry": { "type": "Point", "coordinates": [ -76.289062, 3.425692 ] } }
{"year": "AD107",  "type": "Feature", "tippecanoe": { "layer": "2AFCA06D69E81583917728655", "minzoom": 2, "maxzoom": 8 }, "properties": { "halo": 0.8, "title": "昆巴雅文明", "fontsize": 12, "tyid": "304002", "oid": "103:1576575197327", "color": "#262626" }, "geometry": { "type": "Point", "coordinates": [ -75.761719, 5.090944 ] } }
{"year": "AD107",  "type": "Feature", "tippecanoe": { "layer": "2AFCA06D69E81583917728655", "minzoom": 2, "maxzoom": 8 }, "properties": { "halo": 0.8, "title": "科罗索文化", "fontsize": 12, "tyid": "304002", "oid": "103:1576575197667", "color": "#262626" }, "geometry": { "type": "Point", "coordinates": [ -66.533203, 18.229351 ] } }
{"year": "AD107",  "type": "Feature", "tippecanoe": { "layer": "2AFCA06D69E81583917728655", "minzoom": 2, "maxzoom": 8 }, "properties": { "halo": 0.8, "title": "大庄园文化", "fontsize": 12, "tyid": "304002", "oid": "103:1576575197595", "color": "#262626" }, "geometry": { "type": "Point", "coordinates": [ -65.917969, 18.396230 ] } }
{"year": "AD107",  "type": "Feature", "tippecanoe": { "layer": "2AFCA06D69E81583917728655", "minzoom": 2, "maxzoom": 8 }, "properties": { "halo": 0.8, "title": "萨拉杜文化", "fontsize": 12, "tyid": "304002", "oid": "103:1576575197441", "color": "#262626" }, "geometry": { "type": "Point", "coordinates": [ -61.699219, 16.214675 ] } }
{"year": "AD107",  "type": "Feature", "tippecanoe": { "layer": "2AFCA06D69E81583917728655", "minzoom": 2, "maxzoom": 8 }, "properties": { "halo": 0.8, "title": "皮克特人", "fontsize": 12, "tyid": "304001", "oid": "103:1576575197553", "color": "#262626" }, "geometry": { "type": "Point", "coordinates": [ -1.406250, 60.326948 ] } }
{"year": "AD107",  "type": "Feature", "tippecanoe": { "layer": "2AFCA06D69E81583917728655", "minzoom": 2, "maxzoom": 8 }, "properties": { "halo": 0.8, "title": "凯雷尼人", "fontsize": 12, "tyid": "304001", "oid": "103:1576575197371", "color": "#262626" }, "geometry": { "type": "Point", "coordinates": [ -5.097656, 58.077876 ] } }
{"year": "AD107",  "type": "Feature", "tippecanoe": { "layer": "2AFCA06D69E81583917728655", "minzoom": 2, "maxzoom": 8 }, "properties": { "halo": 0.8, "title": "卡诺奈卡人", "fontsize": 12, "tyid": "304001", "oid": "103:1576575197556", "color": "#262626" }, "geometry": { "type": "Point", "coordinates": [ -5.537109, 57.657158 ] } }
{"year": "AD107",  "type": "Feature", "tippecanoe": { "layer": "2AFCA06D69E81583917728655", "minzoom": 2, "maxzoom": 8 }, "properties": { "halo": 0.8, "title": "斯梅尔泰人", "fontsize": 12, "tyid": "304001", "oid": "103:1576575197367", "color": "#262626" }, "geometry": { "type": "Point", "coordinates": [ -4.746094, 57.984808 ] } }
{"year": "AD107",  "type": "Feature", "tippecanoe": { "layer": "2AFCA06D69E81583917728655", "minzoom": 2, "maxzoom": 8 }, "properties": { "halo": 0.8, "title": "卢吉人", "fontsize": 12, "tyid": "304001", "oid": "103:1576575197368", "color": "#262626" }, "geometry": { "type": "Point", "coordinates": [ -4.130859, 58.124320 ] } }
{"year": "AD107",  "type": "Feature", "tippecanoe": { "layer": "2AFCA06D69E81583917728655", "minzoom": 2, "maxzoom": 8 }, "properties": { "halo": 0.8, "title": "克洛维人[凯瑟尼斯]", "fontsize": 12, "tyid": "304001", "oid": "103:1576575197245", "color": "#262626" }, "geometry": { "type": "Point", "coordinates": [ -3.867188, 58.447733 ] } }
{"year": "AD107",  "type": "Feature", "tippecanoe": { "layer": "2AFCA06D69E81583917728655", "minzoom": 2, "maxzoom": 8 }, "properties": { "halo": 0.8, "title": "德坎泰人", "fontsize": 12, "tyid": "304001", "oid": "103:1576575197366", "color": "#262626" }, "geometry": { "type": "Point", "coordinates": [ -4.218750, 57.610107 ] } }
{"year": "AD107",  "type": "Feature", "tippecanoe": { "layer": "2AFCA06D69E81583917728655", "minzoom": 2, "maxzoom": 8 }, "properties": { "halo": 0.8, "title": "维格梅京人", "fontsize": 12, "tyid": "304001", "oid": "103:1576575197557", "color": "#262626" }, "geometry": { "type": "Point", "coordinates": [ -3.339844, 57.515823 ] } }
{"year": "AD107",  "type": "Feature", "tippecanoe": { "layer": "2AFCA06D69E81583917728655", "minzoom": 2, "maxzoom": 8 }, "properties": { "halo": 0.8, "title": "克鲁尼人", "fontsize": 12, "tyid": "304001", "oid": "103:1576575197558", "color": "#262626" }, "geometry": { "type": "Point", "coordinates": [ -5.449219, 57.040730 ] } }
{"year": "AD107",  "type": "Feature", "tippecanoe": { "layer": "2AFCA06D69E81583917728655", "minzoom": 2, "maxzoom": 8 }, "properties": { "halo": 0.8, "title": "埃皮迪人", "fontsize": 12, "tyid": "304001", "oid": "103:1576575197374", "color": "#262626" }, "geometry": { "type": "Point", "coordinates": [ -5.273438, 56.267761 ] } }
{"year": "AD107",  "type": "Feature", "tippecanoe": { "layer": "2AFCA06D69E81583917728655", "minzoom": 2, "maxzoom": 8 }, "properties": { "halo": 0.8, "title": "维尼科内人", "fontsize": 12, "tyid": "304001", "oid": "103:1576575197373", "color": "#262626" }, "geometry": { "type": "Point", "coordinates": [ -3.691406, 56.218923 ] } }
{"year": "AD107",  "type": "Feature", "tippecanoe": { "layer": "2AFCA06D69E81583917728655", "minzoom": 2, "maxzoom": 8 }, "properties": { "halo": 0.8, "title": "德克萨利人", "fontsize": 12, "tyid": "304001", "oid": "103:1576575197372", "color": "#262626" }, "geometry": { "type": "Point", "coordinates": [ -2.197266, 57.326521 ] } }
{"year": "AD107",  "type": "Feature", "tippecanoe": { "layer": "2AFCA06D69E81583917728655", "minzoom": 2, "maxzoom": 8 }, "properties": { "halo": 0.8, "title": "关切人", "fontsize": 12, "tyid": "304001", "oid": "103:1576575197419", "color": "#262626" }, "geometry": { "type": "Point", "coordinates": [ -16.611328, 28.304381 ] } }
{"year": "AD107",  "type": "Feature", "tippecanoe": { "layer": "2AFCA06D69E81583917728655", "minzoom": 2, "maxzoom": 8 }, "properties": { "halo": 0.8, "title": "瓜纳加拉文化", "fontsize": 12, "tyid": "304002", "oid": "103:1576575197311", "color": "#262626" }, "geometry": { "type": "Point", "coordinates": [ -80.595703, -1.669686 ] } }
{"year": "AD107",  "type": "Feature", "tippecanoe": { "layer": "2AFCA06D69E81583917728655", "minzoom": 2, "maxzoom": 8 }, "properties": { "halo": 0.8, "title": "巴伊亚文化", "fontsize": 12, "tyid": "304002", "oid": "103:1576575197266", "color": "#262626" }, "geometry": { "type": "Point", "coordinates": [ -80.068359, -0.527336 ] } }
{"year": "AD107",  "type": "Feature", "tippecanoe": { "layer": "2AFCA06D69E81583917728655", "minzoom": 2, "maxzoom": 8 }, "properties": { "halo": 0.8, "title": "维克斯文化", "fontsize": 12, "tyid": "304002", "oid": "103:1576575197626", "color": "#262626" }, "geometry": { "type": "Point", "coordinates": [ -80.419922, -5.878332 ] } }
{"year": "AD107",  "type": "Feature", "tippecanoe": { "layer": "2AFCA06D69E81583917728655", "minzoom": 2, "maxzoom": 8 }, "properties": { "halo": 0.8, "title": "萨利纳尔文化", "fontsize": 12, "tyid": "304002", "oid": "103:1576575197475", "color": "#262626" }, "geometry": { "type": "Point", "coordinates": [ -78.925781, -7.798079 ] } }
{"year": "AD107",  "type": "Feature", "tippecanoe": { "layer": "2AFCA06D69E81583917728655", "minzoom": 2, "maxzoom": 8 }, "properties": { "halo": 0.8, "title": "莫切文明", "fontsize": 12, "tyid": "304002", "oid": "103:1576575197450", "color": "#262626" }, "geometry": { "type": "Point", "coordinates": [ -79.013672, -8.146243 ] } }
{"year": "AD107",  "type": "Feature", "tippecanoe": { "layer": "2AFCA06D69E81583917728655", "minzoom": 2, "maxzoom": 8 }, "properties": { "halo": 0.8, "title": "维鲁文化", "fontsize": 12, "tyid": "304002", "oid": "103:1576575197409", "color": "#262626" }, "geometry": { "type": "Point", "coordinates": [ -78.837891, -8.320212 ] } }
{"year": "AD107",  "type": "Feature", "tippecanoe": { "layer": "2AFCA06D69E81583917728655", "minzoom": 2, "maxzoom": 8 }, "properties": { "halo": 0.8, "title": "瑞克文化", "fontsize": 12, "tyid": "304002", "oid": "103:1576575197657", "color": "#262626" }, "geometry": { "type": "Point", "coordinates": [ -77.607422, -9.622414 ] } }
{"year": "AD107",  "type": "Feature", "tippecanoe": { "layer": "2AFCA06D69E81583917728655", "minzoom": 2, "maxzoom": 8 }, "properties": { "halo": 0.8, "title": "加伊纳索文化", "fontsize": 12, "tyid": "304002", "oid": "103:1576575197396", "color": "#262626" }, "geometry": { "type": "Point", "coordinates": [ -77.080078, -11.092166 ] } }
{"year": "AD107",  "type": "Feature", "tippecanoe": { "layer": "2AFCA06D69E81583917728655", "minzoom": 2, "maxzoom": 8 }, "properties": { "halo": 0.8, "title": "利马文化", "fontsize": 12, "tyid": "304002", "oid": "103:1576575197324", "color": "#262626" }, "geometry": { "type": "Point", "coordinates": [ -76.289062, -12.382928 ] } }
{"year": "AD107",  "type": "Feature", "tippecanoe": { "layer": "2AFCA06D69E81583917728655", "minzoom": 2, "maxzoom": 8 }, "properties": { "halo": 0.8, "title": "华帕文化", "fontsize": 12, "tyid": "304002", "oid": "103:1576575197421", "color": "#262626" }, "geometry": { "type": "Point", "coordinates": [ -74.179688, -13.581921 ] } }
{"year": "AD107",  "type": "Feature", "tippecanoe": { "layer": "2AFCA06D69E81583917728655", "minzoom": 2, "maxzoom": 8 }, "properties": { "halo": 0.8, "title": "纳斯卡文化", "fontsize": 12, "tyid": "304002", "oid": "103:1576575197637", "color": "#262626" }, "geometry": { "type": "Point", "coordinates": [ -75.058594, -14.944785 ] } }
{"year": "AD107",  "type": "Feature", "tippecanoe": { "layer": "2AFCA06D69E81583917728655", "minzoom": 2, "maxzoom": 8 }, "properties": { "halo": 0.8, "title": "普加拉文化", "fontsize": 12, "tyid": "304002", "oid": "103:1576575197625", "color": "#262626" }, "geometry": { "type": "Point", "coordinates": [ -69.697266, -13.838080 ] } }
{"year": "AD107",  "type": "Feature", "tippecanoe": { "layer": "2AFCA06D69E81583917728655", "minzoom": 2, "maxzoom": 8 }, "properties": { "halo": 0.8, "title": "塔夫文化", "fontsize": 12, "tyid": "304002", "oid": "103:1576575197329", "color": "#262626" }, "geometry": { "type": "Point", "coordinates": [ -65.654297, -26.980829 ] } }
{"year": "AD107",  "type": "Feature", "tippecanoe": { "layer": "2AFCA06D69E81583917728655", "minzoom": 2, "maxzoom": 8 }, "properties": { "halo": 0.8, "title": "豪什人", "fontsize": 12, "tyid": "304001", "oid": "103:1576575197248", "color": "#262626" }, "geometry": { "type": "Point", "coordinates": [ -65.917969, -54.724620 ] } }
{"year": "AD107",  "type": "Feature", "tippecanoe": { "layer": "2AFCA06D69E81583917728655", "minzoom": 2, "maxzoom": 8 }, "properties": { "halo": 0.8, "title": "哥得兰人", "fontsize": 12, "tyid": "304001", "oid": "103:1576575197435", "color": "#262626" }, "geometry": { "type": "Point", "coordinates": [ 18.457031, 57.515823 ] } }
{"year": "AD107",  "type": "Feature", "tippecanoe": { "layer": "2AFCA06D69E81583917728655", "minzoom": 2, "maxzoom": 8 }, "properties": { "halo": 0.8, "title": "盎格鲁人", "fontsize": 12, "tyid": "304001", "oid": "103:1576575197639", "color": "#262626" }, "geometry": { "type": "Point", "coordinates": [ 9.316406, 54.622978 ] } }
{"year": "AD107",  "type": "Feature", "tippecanoe": { "layer": "2AFCA06D69E81583917728655", "minzoom": 2, "maxzoom": 8 }, "properties": { "halo": 0.8, "title": "萨克森人", "fontsize": 12, "tyid": "304001", "oid": "103:1576575197552", "color": "#262626" }, "geometry": { "type": "Point", "coordinates": [ 10.019531, 54.007769 ] } }
{"year": "AD107",  "type": "Feature", "tippecanoe": { "layer": "2AFCA06D69E81583917728655", "minzoom": 2, "maxzoom": 8 }, "properties": { "halo": 0.8, "title": "查马维人", "fontsize": 12, "tyid": "304001", "oid": "103:1576575197706", "color": "#262626" }, "geometry": { "type": "Point", "coordinates": [ 7.119141, 51.944265 ] } }
{"year": "AD107",  "type": "Feature", "tippecanoe": { "layer": "2AFCA06D69E81583917728655", "minzoom": 2, "maxzoom": 8 }, "properties": { "halo": 0.8, "title": "辛坎布雷人", "fontsize": 12, "tyid": "304001", "oid": "103:1576575197369", "color": "#262626" }, "geometry": { "type": "Point", "coordinates": [ 7.646484, 51.289406 ] } }
{"year": "AD107",  "type": "Feature", "tippecanoe": { "layer": "2AFCA06D69E81583917728655", "minzoom": 2, "maxzoom": 8 }, "properties": { "halo": 0.8, "title": "布鲁克特人", "fontsize": 12, "tyid": "304001", "oid": "103:1576575197517", "color": "#262626" }, "geometry": { "type": "Point", "coordinates": [ 8.437500, 51.998410 ] } }
{"year": "AD107",  "type": "Feature", "tippecanoe": { "layer": "2AFCA06D69E81583917728655", "minzoom": 2, "maxzoom": 8 }, "properties": { "halo": 0.8, "title": "奥耶塞利人", "fontsize": 12, "tyid": "304001", "oid": "103:1576575197390", "color": "#262626" }, "geometry": { "type": "Point", "coordinates": [ 22.500000, 58.447733 ] } }
{"year": "AD107",  "type": "Feature", "tippecanoe": { "layer": "2AFCA06D69E81583917728655", "minzoom": 2, "maxzoom": 8 }, "properties": { "halo": 0.8, "title": "罗克索拉尼人", "fontsize": 12, "tyid": "304001", "oid": "103:1576575197606", "color": "#262626" }, "geometry": { "type": "Point", "coordinates": [ 27.158203, 44.902578 ] } }
{"year": "AD107",  "type": "Feature", "tippecanoe": { "layer": "2AFCA06D69E81583917728655", "minzoom": 2, "maxzoom": 8 }, "properties": { "halo": 0.8, "title": "奥里维亚", "fontsize": 12, "tyid": "304002", "oid": "103:1576575197693", "color": "#262626" }, "geometry": { "type": "Point", "coordinates": [ 31.816406, 46.679594 ] } }
{"year": "AD107",  "type": "Feature", "tippecanoe": { "layer": "2AFCA06D69E81583917728655", "minzoom": 2, "maxzoom": 8 }, "properties": { "halo": 0.8, "title": "自由拉科尼亚同盟", "fontsize": 12, "tyid": "304000", "oid": "103:1576575197754", "color": "#202020" }, "geometry": { "type": "Point", "coordinates": [ 22.851562, 36.879621 ] } }
{"year": "AD107",  "type": "Feature", "tippecanoe": { "layer": "2AFCA06D69E81583917728655", "minzoom": 2, "maxzoom": 8 }, "properties": { "halo": 0.8, "title": "埃米萨王朝", "fontsize": 12, "tyid": "304000", "oid": "103:1576575197729", "color": "#202020" }, "geometry": { "type": "Point", "coordinates": [ 36.650391, 34.741612 ] } }
{"year": "AD107",  "type": "Feature", "tippecanoe": { "layer": "2AFCA06D69E81583917728655", "minzoom": 2, "maxzoom": 8 }, "properties": { "halo": 0.8, "title": "索芬尼王国", "fontsize": 12, "tyid": "304000", "oid": "103:1576575197482", "color": "#202020" }, "geometry": { "type": "Point", "coordinates": [ 39.638672, 37.996163 ] } }
{"year": "AD107",  "type": "Feature", "tippecanoe": { "layer": "2AFCA06D69E81583917728655", "minzoom": 2, "maxzoom": 8 }, "properties": { "halo": 0.8, "title": "阿拉巴王国", "fontsize": 12, "tyid": "304000", "oid": "103:1576575197742", "color": "#202020" }, "geometry": { "type": "Point", "coordinates": [ 42.363281, 35.532226 ] } }
{"year": "AD107",  "type": "Feature", "tippecanoe": { "layer": "2AFCA06D69E81583917728655", "minzoom": 2, "maxzoom": 8 }, "properties": { "halo": 0.8, "title": "列兹金人", "fontsize": 12, "tyid": "304001", "oid": "103:1576575197677", "color": "#262626" }, "geometry": { "type": "Point", "coordinates": [ 47.812500, 41.640078 ] } }
{"year": "AD107",  "type": "Feature", "tippecanoe": { "layer": "2AFCA06D69E81583917728655", "minzoom": 2, "maxzoom": 8 }, "properties": { "halo": 0.8, "title": "西且弥国", "fontsize": 12, "tyid": "304000", "oid": "103:1576575197744", "color": "#202020" }, "geometry": { "type": "Point", "coordinates": [ 86.220703, 43.834527 ] } }
{"year": "AD107",  "type": "Feature", "tippecanoe": { "layer": "2AFCA06D69E81583917728655", "minzoom": 2, "maxzoom": 8 }, "properties": { "halo": 0.8, "title": "东且弥国", "fontsize": 12, "tyid": "304000", "oid": "103:1576575197753", "color": "#202020" }, "geometry": { "type": "Point", "coordinates": [ 86.923828, 43.707594 ] } }
{"year": "AD107",  "type": "Feature", "tippecanoe": { "layer": "2AFCA06D69E81583917728655", "minzoom": 2, "maxzoom": 8 }, "properties": { "halo": 0.8, "title": "劫国", "fontsize": 12, "tyid": "304000", "oid": "103:1576575197762", "color": "#202020" }, "geometry": { "type": "Point", "coordinates": [ 87.802734, 44.150681 ] } }
{"year": "AD107",  "type": "Feature", "tippecanoe": { "layer": "2AFCA06D69E81583917728655", "minzoom": 2, "maxzoom": 8 }, "properties": { "halo": 0.8, "title": "卑陆国", "fontsize": 12, "tyid": "304000", "oid": "103:1576575197761", "color": "#202020" }, "geometry": { "type": "Point", "coordinates": [ 87.539062, 43.644026 ] } }
{"year": "AD107",  "type": "Feature", "tippecanoe": { "layer": "2AFCA06D69E81583917728655", "minzoom": 2, "maxzoom": 8 }, "properties": { "halo": 0.8, "title": "卡塔班王国", "fontsize": 12, "tyid": "304000", "oid": "103:1576575197749", "color": "#202020" }, "geometry": { "type": "Point", "coordinates": [ 45.791016, 14.774883 ] } }
{"year": "AD107",  "type": "Feature", "tippecanoe": { "layer": "2AFCA06D69E81583917728655", "minzoom": 2, "maxzoom": 8 }, "properties": { "halo": 0.8, "title": "蒲犁国", "fontsize": 12, "tyid": "304000", "oid": "103:1576575197757", "color": "#202020" }, "geometry": { "type": "Point", "coordinates": [ 75.234375, 37.996163 ] } }
{"year": "AD107",  "type": "Feature", "tippecanoe": { "layer": "2AFCA06D69E81583917728655", "minzoom": 2, "maxzoom": 8 }, "properties": { "halo": 0.8, "title": "依耐国", "fontsize": 12, "tyid": "304000", "oid": "103:1576575197733", "color": "#202020" }, "geometry": { "type": "Point", "coordinates": [ 75.937500, 38.616870 ] } }
{"year": "AD107",  "type": "Feature", "tippecanoe": { "layer": "2AFCA06D69E81583917728655", "minzoom": 2, "maxzoom": 8 }, "properties": { "halo": 0.8, "title": "子合国", "fontsize": 12, "tyid": "304000", "oid": "103:1576575197714", "color": "#202020" }, "geometry": { "type": "Point", "coordinates": [ 76.376953, 37.718590 ] } }
{"year": "AD107",  "type": "Feature", "tippecanoe": { "layer": "2AFCA06D69E81583917728655", "minzoom": 2, "maxzoom": 8 }, "properties": { "halo": 0.8, "title": "戎卢国", "fontsize": 12, "tyid": "304000", "oid": "103:1576575197718", "color": "#202020" }, "geometry": { "type": "Point", "coordinates": [ 83.144531, 36.668419 ] } }
{"year": "AD107",  "type": "Feature", "tippecanoe": { "layer": "2AFCA06D69E81583917728655", "minzoom": 2, "maxzoom": 8 }, "properties": { "halo": 0.8, "title": "罗昂", "fontsize": 12, "tyid": "304000", "oid": "103:1576575197414", "color": "#202020" }, "geometry": { "type": "Point", "coordinates": [ 89.208984, 29.152161 ] } }
{"year": "AD107",  "type": "Feature", "tippecanoe": { "layer": "2AFCA06D69E81583917728655", "minzoom": 2, "maxzoom": 8 }, "properties": { "halo": 0.8, "title": "藏", "fontsize": 12, "tyid": "304000", "oid": "103:1576575197360", "color": "#202020" }, "geometry": { "type": "Point", "coordinates": [ 89.736328, 28.844674 ] } }
{"year": "AD107",  "type": "Feature", "tippecanoe": { "layer": "2AFCA06D69E81583917728655", "minzoom": 2, "maxzoom": 8 }, "properties": { "halo": 0.8, "title": "卓木南木松", "fontsize": 12, "tyid": "304000", "oid": "103:1576575197472", "color": "#202020" }, "geometry": { "type": "Point", "coordinates": [ 88.945312, 27.839076 ] } }
{"year": "AD107",  "type": "Feature", "tippecanoe": { "layer": "2AFCA06D69E81583917728655", "minzoom": 2, "maxzoom": 8 }, "properties": { "halo": 0.8, "title": "牟湿迦王国", "fontsize": 12, "tyid": "304000", "oid": "103:1576575197359", "color": "#202020" }, "geometry": { "type": "Point", "coordinates": [ 75.322266, 12.640338 ] } }
{"year": "AD107",  "type": "Feature", "tippecanoe": { "layer": "2AFCA06D69E81583917728655", "minzoom": 2, "maxzoom": 8 }, "properties": { "halo": 0.8, "title": "阿伊王国", "fontsize": 12, "tyid": "304000", "oid": "103:1576575197271", "color": "#202020" }, "geometry": { "type": "Point", "coordinates": [ 77.080078, 8.667918 ] } }
{"year": "AD107",  "type": "Feature", "tippecanoe": { "layer": "2AFCA06D69E81583917728655", "minzoom": 2, "maxzoom": 8 }, "properties": { "halo": 0.8, "title": "吉", "fontsize": 12, "tyid": "304000", "oid": "103:1576575197306", "color": "#202020" }, "geometry": { "type": "Point", "coordinates": [ 91.406250, 29.764377 ] } }
{"year": "AD107",  "type": "Feature", "tippecanoe": { "layer": "2AFCA06D69E81583917728655", "minzoom": 2, "maxzoom": 8 }, "properties": { "halo": 0.8, "title": "琛", "fontsize": 12, "tyid": "304000", "oid": "103:1576575197233", "color": "#202020" }, "geometry": { "type": "Point", "coordinates": [ 91.230469, 29.382175 ] } }
{"year": "AD107",  "type": "Feature", "tippecanoe": { "layer": "2AFCA06D69E81583917728655", "minzoom": 2, "maxzoom": 8 }, "properties": { "halo": 0.8, "title": "悉补野", "fontsize": 12, "tyid": "304000", "oid": "103:1576575197269", "color": "#202020" }, "geometry": { "type": "Point", "coordinates": [ 91.845703, 29.152161 ] } }
{"year": "AD107",  "type": "Feature", "tippecanoe": { "layer": "2AFCA06D69E81583917728655", "minzoom": 2, "maxzoom": 8 }, "properties": { "halo": 0.8, "title": "俄玉邦噶", "fontsize": 12, "tyid": "304000", "oid": "103:1576575197571", "color": "#202020" }, "geometry": { "type": "Point", "coordinates": [ 92.548828, 29.152161 ] } }
{"year": "AD107",  "type": "Feature", "tippecanoe": { "layer": "2AFCA06D69E81583917728655", "minzoom": 2, "maxzoom": 8 }, "properties": { "halo": 0.8, "title": "娘", "fontsize": 12, "tyid": "304000", "oid": "103:1576575197572", "color": "#202020" }, "geometry": { "type": "Point", "coordinates": [ 93.339844, 29.916852 ] } }
{"year": "AD107",  "type": "Feature", "tippecanoe": { "layer": "2AFCA06D69E81583917728655", "minzoom": 2, "maxzoom": 8 }, "properties": { "halo": 0.8, "title": "贡", "fontsize": 12, "tyid": "304000", "oid": "103:1576575197570", "color": "#202020" }, "geometry": { "type": "Point", "coordinates": [ 94.482422, 29.688053 ] } }
{"year": "AD107",  "type": "Feature", "tippecanoe": { "layer": "2AFCA06D69E81583917728655", "minzoom": 2, "maxzoom": 8 }, "properties": { "halo": 0.8, "title": "达", "fontsize": 12, "tyid": "304000", "oid": "103:1576575197352", "color": "#202020" }, "geometry": { "type": "Point", "coordinates": [ 93.603516, 29.152161 ] } }
{"year": "AD107",  "type": "Feature", "tippecanoe": { "layer": "2AFCA06D69E81583917728655", "minzoom": 2, "maxzoom": 8 }, "properties": { "halo": 0.8, "title": "狼牙脩国", "fontsize": 12, "tyid": "304000", "oid": "103:1576575197621", "color": "#202020" }, "geometry": { "type": "Point", "coordinates": [ 100.546875, 5.965754 ] } }
{"year": "AD107",  "type": "Feature", "tippecanoe": { "layer": "2AFCA06D69E81583917728655", "minzoom": 2, "maxzoom": 8 }, "properties": { "halo": 0.8, "title": "石坛文化", "fontsize": 12, "tyid": "304002", "oid": "103:1576575197291", "color": "#262626" }, "geometry": { "type": "Point", "coordinates": [ 103.359375, 19.559790 ] } }
{"year": "AD107",  "type": "Feature", "tippecanoe": { "layer": "2AFCA06D69E81583917728655", "minzoom": 2, "maxzoom": 8 }, "properties": { "halo": 0.8, "title": "番仔园文化", "fontsize": 12, "tyid": "304002", "oid": "103:1576575197774", "color": "#262626" }, "geometry": { "type": "Point", "coordinates": [ 120.673828, 24.287027 ] } }
{"year": "AD107",  "type": "Feature", "tippecanoe": { "layer": "2AFCA06D69E81583917728655", "minzoom": 2, "maxzoom": 8 }, "properties": { "halo": 0.8, "title": "茑松文化", "fontsize": 12, "tyid": "304002", "oid": "103:1576575197770", "color": "#262626" }, "geometry": { "type": "Point", "coordinates": [ 120.322266, 23.079732 ] } }
{"year": "AD107",  "type": "Feature", "tippecanoe": { "layer": "2AFCA06D69E81583917728655", "minzoom": 2, "maxzoom": 8 }, "properties": { "halo": 0.8, "title": "龟山文化", "fontsize": 12, "tyid": "304002", "oid": "103:1576575197771", "color": "#262626" }, "geometry": { "type": "Point", "coordinates": [ 120.585938, 22.674847 ] } }
{"year": "AD107",  "type": "Feature", "tippecanoe": { "layer": "2AFCA06D69E81583917728655", "minzoom": 2, "maxzoom": 8 }, "properties": { "halo": 0.8, "title": "十三行文化", "fontsize": 12, "tyid": "304002", "oid": "103:1576575197768", "color": "#262626" }, "geometry": { "type": "Point", "coordinates": [ 121.376953, 24.846565 ] } }
{"year": "AD107",  "type": "Feature", "tippecanoe": { "layer": "2AFCA06D69E81583917728655", "minzoom": 2, "maxzoom": 8 }, "properties": { "halo": 0.8, "title": "静浦文化", "fontsize": 12, "tyid": "304002", "oid": "103:1576575197773", "color": "#262626" }, "geometry": { "type": "Point", "coordinates": [ 121.025391, 22.998852 ] } }
{"year": "AD107",  "type": "Feature", "tippecanoe": { "layer": "2AFCA06D69E81583917728655", "minzoom": 2, "maxzoom": 8 }, "properties": { "halo": 0.8, "title": "百济", "fontsize": 12, "tyid": "304000", "oid": "103:1576575197520", "color": "#202020" }, "geometry": { "type": "Point", "coordinates": [ 127.089844, 37.300275 ] } }
{"year": "AD107",  "type": "Feature", "tippecanoe": { "layer": "2AFCA06D69E81583917728655", "minzoom": 2, "maxzoom": 8 }, "properties": { "halo": 0.8, "title": "耽罗国", "fontsize": 12, "tyid": "304000", "oid": "103:1576575197427", "color": "#202020" }, "geometry": { "type": "Point", "coordinates": [ 126.474609, 33.431441 ] } }
{"year": "AD107",  "type": "Feature", "tippecanoe": { "layer": "2AFCA06D69E81583917728655", "minzoom": 2, "maxzoom": 8 }, "properties": { "halo": 0.8, "title": "弁韩", "fontsize": 12, "tyid": "304001", "oid": "103:1576575197395", "color": "#262626" }, "geometry": { "type": "Point", "coordinates": [ 127.968750, 35.317366 ] } }
{"year": "AD107",  "type": "Feature", "tippecanoe": { "layer": "2AFCA06D69E81583917728655", "minzoom": 2, "maxzoom": 8 }, "properties": { "halo": 0.8, "title": "伽倻", "fontsize": 12, "tyid": "304000", "oid": "103:1576575197299", "color": "#202020" }, "geometry": { "type": "Point", "coordinates": [ 128.847656, 35.245619 ] } }
{"year": "AD107",  "type": "Feature", "tippecanoe": { "layer": "2AFCA06D69E81583917728655", "minzoom": 2, "maxzoom": 8 }, "properties": { "halo": 0.8, "title": "对马国", "fontsize": 12, "tyid": "304000", "oid": "103:1576575197479", "color": "#202020" }, "geometry": { "type": "Point", "coordinates": [ 129.287109, 34.524661 ] } }
{"year": "AD107",  "type": "Feature", "tippecanoe": { "layer": "2AFCA06D69E81583917728655", "minzoom": 2, "maxzoom": 8 }, "properties": { "halo": 0.8, "title": "一支国", "fontsize": 12, "tyid": "304000", "oid": "103:1576575197428", "color": "#202020" }, "geometry": { "type": "Point", "coordinates": [ 129.638672, 33.797409 ] } }
{"year": "AD107",  "type": "Feature", "tippecanoe": { "layer": "2AFCA06D69E81583917728655", "minzoom": 2, "maxzoom": 8 }, "properties": { "halo": 0.8, "title": "末卢国", "fontsize": 12, "tyid": "304000", "oid": "103:1576575197481", "color": "#202020" }, "geometry": { "type": "Point", "coordinates": [ 129.902344, 33.431441 ] } }
{"year": "AD107",  "type": "Feature", "tippecanoe": { "layer": "2AFCA06D69E81583917728655", "minzoom": 2, "maxzoom": 8 }, "properties": { "halo": 0.8, "title": "伊都国", "fontsize": 12, "tyid": "304000", "oid": "103:1576575197297", "color": "#202020" }, "geometry": { "type": "Point", "coordinates": [ 130.166016, 33.578015 ] } }
{"year": "AD107",  "type": "Feature", "tippecanoe": { "layer": "2AFCA06D69E81583917728655", "minzoom": 2, "maxzoom": 8 }, "properties": { "halo": 0.8, "title": "奴国", "fontsize": 12, "tyid": "304000", "oid": "103:1576575197393", "color": "#202020" }, "geometry": { "type": "Point", "coordinates": [ 130.605469, 33.724340 ] } }
{"year": "AD107",  "type": "Feature", "tippecanoe": { "layer": "2AFCA06D69E81583917728655", "minzoom": 2, "maxzoom": 8 }, "properties": { "halo": 0.8, "title": "不弥国", "fontsize": 12, "tyid": "304000", "oid": "103:1576575197345", "color": "#202020" }, "geometry": { "type": "Point", "coordinates": [ 130.957031, 33.651208 ] } }
{"year": "AD107",  "type": "Feature", "tippecanoe": { "layer": "2AFCA06D69E81583917728655", "minzoom": 2, "maxzoom": 8 }, "properties": { "halo": 0.8, "title": "邪马台国", "fontsize": 12, "tyid": "304000", "oid": "103:1576575197319", "color": "#202020" }, "geometry": { "type": "Point", "coordinates": [ 130.869141, 33.137551 ] } }
{"year": "AD107",  "type": "Feature", "tippecanoe": { "layer": "2AFCA06D69E81583917728655", "minzoom": 2, "maxzoom": 8 }, "properties": { "halo": 0.8, "title": "投马国", "fontsize": 12, "tyid": "304000", "oid": "103:1576575197424", "color": "#202020" }, "geometry": { "type": "Point", "coordinates": [ 131.220703, 32.249974 ] } }
{"year": "AD107",  "type": "Feature", "tippecanoe": { "layer": "2AFCA06D69E81583917728655", "minzoom": 2, "maxzoom": 8 }, "properties": { "halo": 0.8, "title": "狗奴国", "fontsize": 12, "tyid": "304000", "oid": "103:1576575197392", "color": "#202020" }, "geometry": { "type": "Point", "coordinates": [ 130.605469, 31.952162 ] } }
{"year": "AD107",  "type": "Feature", "tippecanoe": { "layer": "2AFCA06D69E81583917728655", "minzoom": 2, "maxzoom": 8 }, "properties": { "halo": 0.8, "title": "托雷斯海峡岛民", "fontsize": 12, "tyid": "304001", "oid": "103:1576575197290", "color": "#262626" }, "geometry": { "type": "Point", "coordinates": [ 142.382812, -11.264612 ] } }
{"year": "AD107",  "type": "Feature", "tippecanoe": { "layer": "2AFCA86BD0F01583917728679", "minzoom": 2, "maxzoom": 8 }, "properties": { "halo": 1.6, "title": "图勒人", "fontsize": 12, "tyid": "304001", "oid": "103:1576575197305", "color": "#0056E7" }, "geometry": { "type": "Point", "coordinates": [ -130.781250, 68.942607 ] } }
{"year": "AD107",  "type": "Feature", "tippecanoe": { "layer": "2AFCA86BD0F01583917728679", "minzoom": 2, "maxzoom": 8 }, "properties": { "halo": 1.6, "title": "诺顿文化", "fontsize": 12, "tyid": "304002", "oid": "103:1576575197402", "color": "#0056E7" }, "geometry": { "type": "Point", "coordinates": [ -163.740234, 65.330178 ] } }
{"year": "AD107",  "type": "Feature", "tippecanoe": { "layer": "2AFCA86BD0F01583917728679", "minzoom": 2, "maxzoom": 8 }, "properties": { "halo": 1.6, "title": "尤皮克人", "fontsize": 12, "tyid": "304001", "oid": "103:1576575197418", "color": "#0056E7" }, "geometry": { "type": "Point", "coordinates": [ -159.169922, 60.630102 ] } }
{"year": "AD107",  "type": "Feature", "tippecanoe": { "layer": "2AFCA86BD0F01583917728679", "minzoom": 2, "maxzoom": 8 }, "properties": { "halo": 1.6, "title": "因纽皮雅特人", "fontsize": 12, "tyid": "304001", "oid": "103:1576575197438", "color": "#0056E7" }, "geometry": { "type": "Point", "coordinates": [ -150.908203, 65.476508 ] } }
{"year": "AD107",  "type": "Feature", "tippecanoe": { "layer": "2AFCA86BD0F01583917728679", "minzoom": 2, "maxzoom": 8 }, "properties": { "halo": 1.6, "title": "阿留申人", "fontsize": 12, "tyid": "304001", "oid": "103:1576575197712", "color": "#0056E7" }, "geometry": { "type": "Point", "coordinates": [ -152.226562, 61.312452 ] } }
{"year": "AD107",  "type": "Feature", "tippecanoe": { "layer": "2AFCA86BD0F01583917728679", "minzoom": 2, "maxzoom": 8 }, "properties": { "halo": 1.6, "title": "因纽特人", "fontsize": 12, "tyid": "304001", "oid": "103:1576575197294", "color": "#0056E7" }, "geometry": { "type": "Point", "coordinates": [ -97.822266, 64.997939 ] } }
{"year": "AD107",  "type": "Feature", "tippecanoe": { "layer": "2AFCA86BD0F01583917728679", "minzoom": 2, "maxzoom": 8 }, "properties": { "halo": 1.6, "title": "泰萨勒页岩文化", "fontsize": 12, "tyid": "304002", "oid": "103:1576575197587", "color": "#0056E7" }, "geometry": { "type": "Point", "coordinates": [ -100.371094, 56.559482 ] } }
{"year": "AD107",  "type": "Feature", "tippecanoe": { "layer": "2AFCA86BD0F01583917728679", "minzoom": 2, "maxzoom": 8 }, "properties": { "halo": 1.6, "title": "坎贝尔文化", "fontsize": 12, "tyid": "304002", "oid": "103:1576575197312", "color": "#0056E7" }, "geometry": { "type": "Point", "coordinates": [ -121.289062, 38.685510 ] } }
{"year": "AD107",  "type": "Feature", "tippecanoe": { "layer": "2AFCA86BD0F01583917728679", "minzoom": 2, "maxzoom": 8 }, "properties": { "halo": 1.6, "title": "圣迪基图文化", "fontsize": 12, "tyid": "304002", "oid": "103:1576575197599", "color": "#0056E7" }, "geometry": { "type": "Point", "coordinates": [ -115.224609, 33.211116 ] } }
{"year": "AD107",  "type": "Feature", "tippecanoe": { "layer": "2AFCA86BD0F01583917728679", "minzoom": 2, "maxzoom": 8 }, "properties": { "halo": 1.6, "title": "多赛特文化", "fontsize": 12, "tyid": "304002", "oid": "103:1576575197627", "color": "#0056E7" }, "geometry": { "type": "Point", "coordinates": [ -70.312500, 67.609221 ] } }
{"year": "AD107",  "type": "Feature", "tippecanoe": { "layer": "2AFCA86BD0F01583917728679", "minzoom": 2, "maxzoom": 8 }, "properties": { "halo": 1.6, "title": "波茵特半岛文化", "fontsize": 12, "tyid": "304002", "oid": "103:1576575197521", "color": "#0056E7" }, "geometry": { "type": "Point", "coordinates": [ -76.816406, 45.336702 ] } }
{"year": "AD107",  "type": "Feature", "tippecanoe": { "layer": "2AFCA86BD0F01583917728679", "minzoom": 2, "maxzoom": 8 }, "properties": { "halo": 1.6, "title": "古海洋文化", "fontsize": 12, "tyid": "304002", "oid": "103:1576575197300", "color": "#0056E7" }, "geometry": { "type": "Point", "coordinates": [ -68.466797, 46.920255 ] } }
{"year": "AD107",  "type": "Feature", "tippecanoe": { "layer": "2AFCA86BD0F01583917728679", "minzoom": 2, "maxzoom": 8 }, "properties": { "halo": 1.6, "title": "巴富尔人", "fontsize": 12, "tyid": "304001", "oid": "103:1576575197462", "color": "#0056E7" }, "geometry": { "type": "Point", "coordinates": [ -8.261719, 22.755921 ] } }
{"year": "AD107",  "type": "Feature", "tippecanoe": { "layer": "2AFCA86BD0F01583917728679", "minzoom": 2, "maxzoom": 8 }, "properties": { "halo": 1.6, "title": "索宁克人", "fontsize": 12, "tyid": "304001", "oid": "103:1576575197463", "color": "#0056E7" }, "geometry": { "type": "Point", "coordinates": [ -8.964844, 15.284185 ] } }
{"year": "AD107",  "type": "Feature", "tippecanoe": { "layer": "2AFCA86BD0F01583917728679", "minzoom": 2, "maxzoom": 8 }, "properties": { "halo": 1.6, "title": "曼德人", "fontsize": 12, "tyid": "304001", "oid": "103:1576575197582", "color": "#0056E7" }, "geometry": { "type": "Point", "coordinates": [ -7.558594, 8.146243 ] } }
{"year": "AD107",  "type": "Feature", "tippecanoe": { "layer": "2AFCA86BD0F01583917728679", "minzoom": 2, "maxzoom": 8 }, "properties": { "halo": 1.6, "title": "图皮人", "fontsize": 12, "tyid": "304001", "oid": "103:1576575197618", "color": "#0056E7" }, "geometry": { "type": "Point", "coordinates": [ -47.812500, -23.966176 ] } }
{"year": "AD107",  "type": "Feature", "tippecanoe": { "layer": "2AFCA86BD0F01583917728679", "minzoom": 2, "maxzoom": 8 }, "properties": { "halo": 1.6, "title": "萨米人", "fontsize": 12, "tyid": "304001", "oid": "103:1576575197630", "color": "#0056E7" }, "geometry": { "type": "Point", "coordinates": [ 25.400391, 68.171555 ] } }
{"year": "AD107",  "type": "Feature", "tippecanoe": { "layer": "2AFCA86BD0F01583917728679", "minzoom": 2, "maxzoom": 8 }, "properties": { "halo": 1.6, "title": "乌斯特波卢伊文化", "fontsize": 12, "tyid": "304002", "oid": "103:1576575197388", "color": "#0056E7" }, "geometry": { "type": "Point", "coordinates": [ 66.533203, 66.548263 ] } }
{"year": "AD107",  "type": "Feature", "tippecanoe": { "layer": "2AFCA86BD0F01583917728679", "minzoom": 2, "maxzoom": 8 }, "properties": { "halo": 1.6, "title": "原始日耳曼人", "fontsize": 12, "tyid": "304001", "oid": "103:1576575197377", "color": "#0056E7" }, "geometry": { "type": "Point", "coordinates": [ 8.437500, 60.500525 ] } }
{"year": "AD107",  "type": "Feature", "tippecanoe": { "layer": "2AFCA86BD0F01583917728679", "minzoom": 2, "maxzoom": 8 }, "properties": { "halo": 1.6, "title": "古瑞典人", "fontsize": 12, "tyid": "304001", "oid": "103:1576575197379", "color": "#0056E7" }, "geometry": { "type": "Point", "coordinates": [ 15.820312, 61.312452 ] } }
{"year": "AD107",  "type": "Feature", "tippecanoe": { "layer": "2AFCA86BD0F01583917728679", "minzoom": 2, "maxzoom": 8 }, "properties": { "halo": 1.8, "title": "罗马帝国", "fontsize": 12, "tyid": "304000", "oid": "103:1576575197381", "color": "#0056E7" }, "geometry": { "type": "Point", "coordinates": [ 5.800781, 46.498392 ] } }
{"year": "AD107",  "type": "Feature", "tippecanoe": { "layer": "2AFCA86BD0F01583917728679", "minzoom": 2, "maxzoom": 8 }, "properties": { "halo": 1.6, "title": "芬尼人", "fontsize": 12, "tyid": "304001", "oid": "103:1576575197495", "color": "#0056E7" }, "geometry": { "type": "Point", "coordinates": [ 29.970703, 64.510643 ] } }
{"year": "AD107",  "type": "Feature", "tippecanoe": { "layer": "2AFCA86BD0F01583917728679", "minzoom": 2, "maxzoom": 8 }, "properties": { "halo": 1.6, "title": "波罗的人", "fontsize": 12, "tyid": "304002", "oid": "103:1576575197692", "color": "#0056E7" }, "geometry": { "type": "Point", "coordinates": [ 24.785156, 54.622978 ] } }
{"year": "AD107",  "type": "Feature", "tippecanoe": { "layer": "2AFCA86BD0F01583917728679", "minzoom": 2, "maxzoom": 8 }, "properties": { "halo": 1.6, "title": "维内德人", "fontsize": 12, "tyid": "304001", "oid": "103:1576575197634", "color": "#0056E7" }, "geometry": { "type": "Point", "coordinates": [ 25.839844, 51.013755 ] } }
{"year": "AD107",  "type": "Feature", "tippecanoe": { "layer": "2AFCA86BD0F01583917728679", "minzoom": 2, "maxzoom": 8 },