{"year": "AD1127",  "type": "Feature", "tippecanoe": { "layer": "7F5D8492D4001585558602311", "minzoom": 2, "maxzoom": 8 }, "properties": { "title": "千里长沙", "color": "#4D4848", "oid": "103:1535120175165", "tyid": "304006", "fontsize": 12, "halo": 0.3 }, "geometry": { "type": "Point", "coordinates": [ 111.972656, 16.383391 ] } }
{"year": "AD1127",  "type": "Feature", "tippecanoe": { "layer": "7F5D8492D4001585558602311", "minzoom": 2, "maxzoom": 8 }, "properties": { "title": "澎湖", "color": "#4D4848", "oid": "103:1543577238914", "tyid": "304006", "fontsize": 12, "halo": 0.3 }, "geometry": { "type": "Point", "coordinates": [ 119.531250, 23.644524 ] } }
{"year": "AD1127",  "type": "Feature", "tippecanoe": { "layer": "7F5D8492D4001585558602311", "minzoom": 2, "maxzoom": 8 }, "properties": { "title": "红头屿", "color": "#4D4848", "oid": "103:1543577238916", "tyid": "304006", "fontsize": 12, "halo": 0.3 }, "geometry": { "type": "Point", "coordinates": [ 121.464844, 22.105999 ] } }
{"year": "AD1127",  "type": "Feature", "tippecanoe": { "layer": "7F5D8492D4001585558602311", "minzoom": 2, "maxzoom": 8 }, "properties": { "title": "万里石塘", "color": "#4D4848", "oid": "103:1535120175162", "tyid": "304006", "fontsize": 12, "halo": 0.3 }, "geometry": { "type": "Point", "coordinates": [ 114.257812, 9.795678 ] } }
{"year": "AD1127",  "type": "Feature", "tippecanoe": { "layer": "7F5D8492D4E01585558602299", "minzoom": 2, "maxzoom": 8 }, "properties": { "opacity": 1, "oid": "103:1582721307215", "tyid": "410000", "width": 3, "centroid": "{\"type\":\"Point\",\"coordinates\":[102.890655519,50.32448578]}", "color": "#A11300" }, "geometry": { "type": "MultiLineString", "coordinates": [ [ [ 108.017578, 21.616579 ], [ 106.611328, 22.024546 ], [ 106.523438, 22.512557 ], [ 106.699219, 22.836946 ], [ 105.820312, 22.998852 ], [ 105.205078, 23.402765 ], [ 103.886719, 22.512557 ], [ 103.535156, 22.836946 ], [ 103.183594, 22.105999 ], [ 102.480469, 22.512557 ], [ 101.777344, 21.861499 ], [ 101.689453, 21.207459 ], [ 101.162109, 21.207459 ], [ 100.986328, 21.779905 ], [ 100.195312, 21.534847 ], [ 99.843750, 22.105999 ], [ 99.140625, 22.187405 ], [ 99.228516, 22.917923 ], [ 98.437500, 23.079732 ], [ 98.701172, 23.402765 ], [ 98.349609, 23.966176 ], [ 98.525391, 24.206890 ], [ 97.294922, 23.805450 ], [ 97.470703, 25.324167 ], [ 98.261719, 26.431228 ], [ 98.701172, 26.667096 ], [ 98.613281, 27.605671 ], [ 98.261719, 27.605671 ], [ 98.085938, 28.226970 ], [ 97.558594, 28.536275 ], [ 97.031250, 27.761330 ], [ 96.240234, 28.304381 ], [ 95.625000, 28.304381 ], [ 94.218750, 27.605671 ], [ 93.691406, 27.059126 ], [ 92.988281, 26.902477 ], [ 92.021484, 26.902477 ], [ 92.109375, 27.371767 ], [ 91.494141, 27.605671 ], [ 91.494141, 27.916767 ], [ 90.791016, 28.071980 ] ], [ [ 130.605469, 42.293564 ], [ 130.166016, 42.940339 ], [ 129.814453, 43.004647 ], [ 129.638672, 42.488302 ], [ 129.287109, 42.423457 ], [ 128.847656, 42.032974 ], [ 127.968750, 42.032974 ], [ 128.232422, 41.574361 ], [ 128.056641, 41.442726 ], [ 127.177734, 41.508577 ], [ 126.826172, 41.836828 ], [ 125.947266, 40.913513 ], [ 124.804688, 40.513799 ], [ 124.277344, 40.044438 ] ], [ [ 135.263672, 54.775346 ], [ 132.978516, 54.162434 ], [ 130.517578, 54.110943 ], [ 131.835938, 54.927142 ], [ 131.044922, 55.677584 ], [ 129.462891, 55.776573 ], [ 128.759766, 55.528631 ], [ 127.705078, 55.727110 ], [ 126.123047, 55.627996 ], [ 125.859375, 55.825973 ], [ 124.804688, 55.924586 ], [ 123.134766, 54.775346 ], [ 121.376953, 54.265224 ], [ 121.025391, 54.521081 ], [ 120.234375, 54.162434 ], [ 119.267578, 54.007769 ], [ 119.003906, 53.383328 ], [ 119.179688, 53.120405 ], [ 120.058594, 53.488046 ], [ 121.201172, 53.540307 ], [ 121.376953, 53.383328 ], [ 120.761719, 53.278353 ], [ 119.970703, 52.802761 ], [ 120.058594, 52.589701 ], [ 120.673828, 52.536273 ], [ 120.673828, 51.998410 ], [ 120.058594, 51.672555 ], [ 119.091797, 50.401515 ], [ 119.355469, 50.401515 ], [ 119.267578, 50.120578 ], [ 118.037109, 49.610710 ], [ 116.191406, 50.064192 ], [ 115.312500, 49.951220 ], [ 114.960938, 50.233152 ], [ 114.257812, 50.289339 ], [ 112.675781, 49.496675 ], [ 110.654297, 49.152970 ], [ 108.457031, 49.382373 ], [ 107.929688, 49.724479 ], [ 107.929688, 49.951220 ], [ 107.050781, 50.064192 ], [ 106.523438, 50.345460 ], [ 105.292969, 50.513427 ], [ 103.974609, 50.176898 ], [ 103.271484, 50.233152 ], [ 102.216797, 50.625073 ], [ 102.041016, 51.399206 ], [ 98.964844, 52.106505 ], [ 98.613281, 52.482780 ], [ 98.876953, 52.908902 ], [ 99.140625, 52.961875 ], [ 98.789062, 53.173119 ], [ 98.173828, 53.120405 ], [ 96.767578, 53.800651 ], [ 96.416016, 53.592505 ], [ 94.658203, 53.435719 ], [ 94.394531, 52.961875 ], [ 94.130859, 52.908902 ], [ 93.515625, 52.214339 ], [ 92.812500, 51.890054 ], [ 91.054688, 51.890054 ], [ 90.175781, 52.696361 ], [ 87.802734, 53.383328 ], [ 86.396484, 53.173119 ], [ 86.132812, 52.908902 ], [ 83.056641, 51.618017 ], [ 82.617188, 51.179343 ], [ 83.056641, 50.958427 ], [ 83.232422, 50.513427 ], [ 82.529297, 49.724479 ], [ 82.529297, 49.325122 ], [ 81.298828, 48.690960 ], [ 81.035156, 48.166085 ], [ 79.628906, 47.694974 ], [ 79.453125, 46.800059 ], [ 78.750000, 46.800059 ], [ 78.750000, 46.619261 ], [ 78.574219, 46.800059 ], [ 78.222656, 46.498392 ], [ 77.783203, 46.679594 ], [ 74.531250, 46.800059 ], [ 73.564453, 46.134170 ], [ 73.388672, 45.706179 ], [ 72.070312, 44.964798 ], [ 70.488281, 44.402392 ], [ 69.521484, 43.452919 ], [ 70.927734, 42.293564 ], [ 73.212891, 42.163403 ], [ 73.916016, 41.836828 ], [ 74.003906, 41.574361 ], [ 73.300781, 41.508577 ], [ 73.828125, 41.046217 ], [ 73.212891, 40.847060 ], [ 72.949219, 40.446947 ], [ 73.125000, 40.044438 ], [ 72.773438, 39.842286 ], [ 72.861328, 39.368279 ], [ 72.421875, 39.436193 ], [ 72.070312, 39.095963 ], [ 72.246094, 38.548165 ], [ 71.894531, 38.272689 ], [ 72.158203, 37.649034 ], [ 71.718750, 36.738884 ], [ 73.476562, 37.509726 ], [ 73.740234, 37.439974 ], [ 73.740234, 37.160317 ], [ 74.531250, 37.090240 ], [ 75.673828, 36.385913 ], [ 75.761719, 36.031332 ], [ 74.882812, 35.817813 ], [ 75.322266, 35.173808 ], [ 75.146484, 34.669359 ], [ 76.113281, 33.578015 ], [ 77.080078, 32.990236 ], [ 77.080078, 32.472695 ], [ 77.871094, 31.802893 ], [ 78.662109, 31.728167 ], [ 79.013672, 31.052934 ], [ 79.892578, 30.826781 ], [ 80.683594, 30.145127 ], [ 82.001953, 30.145127 ], [ 83.583984, 29.228890 ], [ 83.935547, 29.305561 ], [ 84.462891, 28.536275 ], [ 85.605469, 28.226970 ], [ 85.869141, 27.916767 ], [ 87.714844, 27.839076 ], [ 88.681641, 28.071980 ], [ 88.945312, 27.215556 ], [ 89.560547, 28.226970 ], [ 90.791016, 28.071980 ] ] ] } }
{"year": "AD1127",  "type": "Feature", "tippecanoe": { "layer": "7F5D8492D4E01585558602299", "minzoom": 2, "maxzoom": 8 }, "properties": { "opacity": 1, "oid": "103:1582721307213", "tyid": "410000", "width": 3, "centroid": "{\"type\":\"Point\",\"coordinates\":[118.9965612163,11.9748626986]}", "color": "#A11300" }, "geometry": { "type": "MultiLineString", "coordinates": [ [ [ 122.695312, 24.447150 ], [ 122.431641, 23.402765 ] ], [ [ 120.849609, 20.550509 ], [ 121.728516, 21.616579 ] ], [ [ 119.355469, 17.727759 ], [ 119.794922, 18.895893 ] ], [ [ 118.916016, 14.689881 ], [ 118.916016, 16.045813 ] ], [ [ 118.476562, 10.833306 ], [ 119.003906, 12.039321 ] ], [ [ 115.312500, 7.013668 ], [ 116.191406, 8.059230 ] ], [ [ 111.708984, 3.425692 ], [ 112.939453, 3.864255 ] ], [ [ 108.281250, 5.965754 ], [ 108.193359, 7.362467 ] ], [ [ 110.039062, 11.264612 ], [ 110.214844, 12.468760 ] ], [ [ 109.775391, 15.029686 ], [ 109.248047, 16.214675 ] ] ] } }
{"year": "AD1127",  "type": "Feature", "tippecanoe": { "layer": "7F5D849371281585558602337", "minzoom": 2, "maxzoom": 8 }, "properties": { "title": "奇穆王国", "color": "#0056E7", "oid": "103:1535120175155", "tyid": "304000", "fontsize": 12, "halo": 1.8 }, "geometry": { "type": "Point", "coordinates": [ -79.189453, -7.188101 ] } }
{"year": "AD1127",  "type": "Feature", "tippecanoe": { "layer": "7F5D849371281585558602337", "minzoom": 2, "maxzoom": 8 }, "properties": { "title": "威尼斯共和国", "color": "#0056E7", "oid": "103:1535120175051", "tyid": "304000", "fontsize": 12, "halo": 1.8 }, "geometry": { "type": "Point", "coordinates": [ 13.710938, 45.213004 ] } }
{"year": "AD1127",  "type": "Feature", "tippecanoe": { "layer": "7F5D849371281585558602337", "minzoom": 2, "maxzoom": 8 }, "properties": { "title": "教皇国", "color": "#0056E7", "oid": "103:1535120175076", "tyid": "304000", "fontsize": 12, "halo": 1.8 }, "geometry": { "type": "Point", "coordinates": [ 12.568359, 42.098222 ] } }
{"year": "AD1127",  "type": "Feature", "tippecanoe": { "layer": "7F5D849371281585558602337", "minzoom": 2, "maxzoom": 8 }, "properties": { "title": "阿兰王国", "color": "#0056E7", "oid": "103:1535120174851", "tyid": "304000", "fontsize": 12, "halo": 1.8 }, "geometry": { "type": "Point", "coordinates": [ 43.769531, 43.197167 ] } }
{"year": "AD1127",  "type": "Feature", "tippecanoe": { "layer": "7F5D849371281585558602337", "minzoom": 2, "maxzoom": 8 }, "properties": { "title": "兹里王朝", "color": "#0056E7", "oid": "103:1535120174902", "tyid": "304000", "fontsize": 12, "halo": 1.8 }, "geometry": { "type": "Point", "coordinates": [ 10.458984, 35.245619 ] } }
{"year": "AD1127",  "type": "Feature", "tippecanoe": { "layer": "7F5D849371281585558602337", "minzoom": 2, "maxzoom": 8 }, "properties": { "title": "鲁贝尼亲王国", "color": "#0056E7", "oid": "103:1535120174878", "tyid": "304000", "fontsize": 12, "halo": 1.8 }, "geometry": { "type": "Point", "coordinates": [ 36.123047, 37.579413 ] } }
{"year": "AD1127",  "type": "Feature", "tippecanoe": { "layer": "7F5D849371281585558602337", "minzoom": 2, "maxzoom": 8 }, "properties": { "title": "安条克公国", "color": "#0056E7", "oid": "103:1537436001324", "tyid": "304000", "fontsize": 12, "halo": 1.8 }, "geometry": { "type": "Point", "coordinates": [ 36.474609, 36.031332 ] } }
{"year": "AD1127",  "type": "Feature", "tippecanoe": { "layer": "7F5D849371281585558602337", "minzoom": 2, "maxzoom": 8 }, "properties": { "title": "尼扎里伊思马里国[伊朗]", "color": "#0056E7", "oid": "103:1577244861149", "tyid": "304002", "fontsize": 12, "halo": 1.6 }, "geometry": { "type": "Point", "coordinates": [ 36.474609, 35.173808 ] } }
{"year": "AD1127",  "type": "Feature", "tippecanoe": { "layer": "7F5D849371281585558602337", "minzoom": 2, "maxzoom": 8 }, "properties": { "title": "的黎波里伯国", "color": "#0056E7", "oid": "103:1535120174883", "tyid": "304000", "fontsize": 12, "halo": 1.8 }, "geometry": { "type": "Point", "coordinates": [ 35.771484, 34.161818 ] } }
{"year": "AD1127",  "type": "Feature", "tippecanoe": { "layer": "7F5D849371281585558602337", "minzoom": 2, "maxzoom": 8 }, "properties": { "title": "布里迪王朝", "color": "#0056E7", "oid": "103:1535120174890", "tyid": "304000", "fontsize": 12, "halo": 1.8 }, "geometry": { "type": "Point", "coordinates": [ 36.210938, 33.578015 ] } }
{"year": "AD1127",  "type": "Feature", "tippecanoe": { "layer": "7F5D849371281585558602337", "minzoom": 2, "maxzoom": 8 }, "properties": { "title": "伊纳尔贝伊国", "color": "#0056E7", "oid": "103:1535120174869", "tyid": "304000", "fontsize": 12, "halo": 1.8 }, "geometry": { "type": "Point", "coordinates": [ 39.814453, 37.926868 ] } }
{"year": "AD1127",  "type": "Feature", "tippecanoe": { "layer": "7F5D849371281585558602337", "minzoom": 2, "maxzoom": 8 }, "properties": { "title": "萨松的马米科尼扬王朝", "color": "#0056E7", "oid": "103:1537436001307", "tyid": "304000", "fontsize": 12, "halo": 1.8 }, "geometry": { "type": "Point", "coordinates": [ 41.220703, 38.548165 ] } }
{"year": "AD1127",  "type": "Feature", "tippecanoe": { "layer": "7F5D849371281585558602337", "minzoom": 2, "maxzoom": 8 }, "properties": { "title": "迪尔马克贝伊国", "color": "#0056E7", "oid": "103:1535120174864", "tyid": "304000", "fontsize": 12, "halo": 1.8 }, "geometry": { "type": "Point", "coordinates": [ 41.835938, 38.616870 ] } }
{"year": "AD1127",  "type": "Feature", "tippecanoe": { "layer": "7F5D849371281585558602337", "minzoom": 2, "maxzoom": 8 }, "properties": { "title": "阿拔斯哈里发国", "color": "#0056E7", "oid": "103:1535120174987", "tyid": "304000", "fontsize": 12, "halo": 1.8 }, "geometry": { "type": "Point", "coordinates": [ 44.472656, 33.358062 ] } }
{"year": "AD1127",  "type": "Feature", "tippecanoe": { "layer": "7F5D849371281585558602337", "minzoom": 2, "maxzoom": 8 }, "properties": { "title": "纳贾辛王朝", "color": "#0056E7", "oid": "103:1537436001399", "tyid": "304000", "fontsize": 12, "halo": 1.8 }, "geometry": { "type": "Point", "coordinates": [ 43.505859, 14.093957 ] } }
{"year": "AD1127",  "type": "Feature", "tippecanoe": { "layer": "7F5D849371281585558602337", "minzoom": 2, "maxzoom": 8 }, "properties": { "title": "杜尔祖克提王国", "color": "#0056E7", "oid": "103:1535120174847", "tyid": "304000", "fontsize": 12, "halo": 1.8 }, "geometry": { "type": "Point", "coordinates": [ 45.615234, 42.875964 ] } }
{"year": "AD1127",  "type": "Feature", "tippecanoe": { "layer": "7F5D849371281585558602337", "minzoom": 2, "maxzoom": 8 }, "properties": { "title": "萨里尔王国", "color": "#0056E7", "oid": "103:1535120174842", "tyid": "304000", "fontsize": 12, "halo": 1.8 }, "geometry": { "type": "Point", "coordinates": [ 46.669922, 42.293564 ] } }
{"year": "AD1127",  "type": "Feature", "tippecanoe": { "layer": "7F5D849371281585558602337", "minzoom": 2, "maxzoom": 8 }, "properties": { "title": "列兹金人", "color": "#0056E7", "oid": "103:1535120174840", "tyid": "304001", "fontsize": 12, "halo": 1.6 }, "geometry": { "type": "Point", "coordinates": [ 47.812500, 41.574361 ] } }
{"year": "AD1127",  "type": "Feature", "tippecanoe": { "layer": "7F5D849371281585558602337", "minzoom": 2, "maxzoom": 8 }, "properties": { "title": "巴文德王朝", "color": "#0056E7", "oid": "103:1535120175150", "tyid": "304000", "fontsize": 12, "halo": 1.8 }, "geometry": { "type": "Point", "coordinates": [ 52.646484, 36.173357 ] } }
{"year": "AD1127",  "type": "Feature", "tippecanoe": { "layer": "7F5D849371281585558602337", "minzoom": 2, "maxzoom": 8 }, "properties": { "title": "巽他王国", "color": "#0056E7", "oid": "103:1535120174822", "tyid": "304000", "fontsize": 12, "halo": 1.8 }, "geometry": { "type": "Point", "coordinates": [ 106.611328, -6.664608 ] } }
{"year": "AD1127",  "type": "Feature", "tippecanoe": { "layer": "7F5D849374A81585558602342", "minzoom": 2, "maxzoom": 8 }, "properties": { "title": "英格兰王国", "color": "#0056E7", "oid": "103:1535120175056", "tyid": "304000", "fontsize": 12, "halo": 1.8 }, "geometry": { "type": "Point", "coordinates": [ -1.494141, 52.536273 ] } }
{"year": "AD1127",  "type": "Feature", "tippecanoe": { "layer": "7F5D849374A81585558602342", "minzoom": 2, "maxzoom": 8 }, "properties": { "title": "穆拉比特王朝", "color": "#0056E7", "oid": "103:1535120174909", "tyid": "304000", "fontsize": 12, "halo": 1.8 }, "geometry": { "type": "Point", "coordinates": [ -9.843750, 24.686952 ] } }
{"year": "AD1127",  "type": "Feature", "tippecanoe": { "layer": "7F5D849374A81585558602342", "minzoom": 2, "maxzoom": 8 }, "properties": { "title": "曼德人", "color": "#0056E7", "oid": "103:1537436001373", "tyid": "304000", "fontsize": 12, "halo": 1.8 }, "geometry": { "type": "Point", "coordinates": [ -5.097656, 12.039321 ] } }
{"year": "AD1127",  "type": "Feature", "tippecanoe": { "layer": "7F5D849374A81585558602342", "minzoom": 2, "maxzoom": 8 }, "properties": { "title": "约鲁巴人", "color": "#0056E7", "oid": "103:1535120175131", "tyid": "304001", "fontsize": 12, "halo": 1.6 }, "geometry": { "type": "Point", "coordinates": [ -3.779297, 8.494105 ] } }
{"year": "AD1127",  "type": "Feature", "tippecanoe": { "layer": "7F5D849374A81585558602342", "minzoom": 2, "maxzoom": 8 }, "properties": { "title": "挪威王国[维京时期]", "color": "#0056E7", "oid": "103:1577244861311", "tyid": "304000", "fontsize": 12, "halo": 1.8 }, "geometry": { "type": "Point", "coordinates": [ 11.250000, 62.226996 ] } }
{"year": "AD1127",  "type": "Feature", "tippecanoe": { "layer": "7F5D849374A81585558602342", "minzoom": 2, "maxzoom": 8 }, "properties": { "title": "瑞典王国[维京时期]", "color": "#0056E7", "oid": "103:1577244861309", "tyid": "304000", "fontsize": 12, "halo": 1.8 }, "geometry": { "type": "Point", "coordinates": [ 15.205078, 59.756395 ] } }
{"year": "AD1127",  "type": "Feature", "tippecanoe": { "layer": "7F5D849374A81585558602342", "minzoom": 2, "maxzoom": 8 }, "properties": { "title": "法兰西王国", "color": "#0056E7", "oid": "103:1535120175053", "tyid": "304000", "fontsize": 12, "halo": 1.8 }, "geometry": { "type": "Point", "coordinates": [ 1.494141, 46.679594 ] } }
{"year": "AD1127",  "type": "Feature", "tippecanoe": { "layer": "7F5D849374A81585558602342", "minzoom": 2, "maxzoom": 8 }, "properties": { "title": "神圣罗马帝国", "color": "#0056E7", "oid": "103:1535120175049", "tyid": "304000", "fontsize": 12, "halo": 1.8 }, "geometry": { "type": "Point", "coordinates": [ 10.283203, 48.690960 ] } }
{"year": "AD1127",  "type": "Feature", "tippecanoe": { "layer": "7F5D849374A81585558602342", "minzoom": 2, "maxzoom": 8 }, "properties": { "title": "波兰王国", "color": "#0056E7", "oid": "103:1535120175080", "tyid": "304000", "fontsize": 12, "halo": 1.8 }, "geometry": { "type": "Point", "coordinates": [ 19.072266, 51.618017 ] } }
{"year": "AD1127",  "type": "Feature", "tippecanoe": { "layer": "7F5D849374A81585558602342", "minzoom": 2, "maxzoom": 8 }, "properties": { "title": "匈牙利王国", "color": "#0056E7", "oid": "103:1535120175086", "tyid": "304000", "fontsize": 12, "halo": 1.8 }, "geometry": { "type": "Point", "coordinates": [ 19.863281, 46.739861 ] } }
{"year": "AD1127",  "type": "Feature", "tippecanoe": { "layer": "7F5D849374A81585558602342", "minzoom": 2, "maxzoom": 8 }, "properties": { "title": "基辅罗斯", "color": "#0056E7", "oid": "103:1535120175042", "tyid": "304000", "fontsize": 12, "halo": 1.8 }, "geometry": { "type": "Point", "coordinates": [ 34.101562, 61.396719 ] } }
{"year": "AD1127",  "type": "Feature", "tippecanoe": { "layer": "7F5D849374A81585558602342", "minzoom": 2, "maxzoom": 8 }, "properties": { "title": "罗斯托夫-苏兹达尔公国", "color": "#0056E7", "oid": "103:1576922414371", "tyid": "304000", "fontsize": 12, "halo": 1.8 }, "geometry": { "type": "Point", "coordinates": [ 41.044922, 58.401712 ] } }
{"year": "AD1127",  "type": "Feature", "tippecanoe": { "layer": "7F5D849374A81585558602342", "minzoom": 2, "maxzoom": 8 }, "properties": { "title": "东罗马帝国", "color": "#0056E7", "oid": "103:1537436001294", "tyid": "304000", "fontsize": 12, "halo": 1.8 }, "geometry": { "type": "Point", "coordinates": [ 24.521484, 42.358544 ] } }
{"year": "AD1127",  "type": "Feature", "tippecanoe": { "layer": "7F5D849374A81585558602342", "minzoom": 2, "maxzoom": 8 }, "properties": { "title": "切尔尼戈夫公国", "color": "#0056E7", "oid": "103:1535120175025", "tyid": "304000", "fontsize": 12, "halo": 1.8 }, "geometry": { "type": "Point", "coordinates": [ 37.968750, 52.802761 ] } }
{"year": "AD1127",  "type": "Feature", "tippecanoe": { "layer": "7F5D849374A81585558602342", "minzoom": 2, "maxzoom": 8 }, "properties": { "title": "格鲁吉亚王国", "color": "#0056E7", "oid": "103:1535120174830", "tyid": "304000", "fontsize": 12, "halo": 1.8 }, "geometry": { "type": "Point", "coordinates": [ 44.384766, 41.112469 ] } }
{"year": "AD1127",  "type": "Feature", "tippecanoe": { "layer": "7F5D849374A81585558602342", "minzoom": 2, "maxzoom": 8 }, "properties": { "title": "图阿雷格人", "color": "#0056E7", "oid": "103:1535120174917", "tyid": "304001", "fontsize": 12, "halo": 1.6 }, "geometry": { "type": "Point", "coordinates": [ 10.722656, 24.367114 ] } }
{"year": "AD1127",  "type": "Feature", "tippecanoe": { "layer": "7F5D849374A81585558602342", "minzoom": 2, "maxzoom": 8 }, "properties": { "title": "瓦努苏莱姆", "color": "#0056E7", "oid": "103:1535120174898", "tyid": "304001", "fontsize": 12, "halo": 1.6 }, "geometry": { "type": "Point", "coordinates": [ 21.708984, 30.902225 ] } }
{"year": "AD1127",  "type": "Feature", "tippecanoe": { "layer": "7F5D849374A81585558602342", "minzoom": 2, "maxzoom": 8 }, "properties": { "title": "豪萨人", "color": "#0056E7", "oid": "103:1535120175135", "tyid": "304001", "fontsize": 12, "halo": 1.6 }, "geometry": { "type": "Point", "coordinates": [ 6.240234, 12.726084 ] } }
{"year": "AD1127",  "type": "Feature", "tippecanoe": { "layer": "7F5D849374A81585558602342", "minzoom": 2, "maxzoom": 8 }, "properties": { "title": "加涅姆帝国", "color": "#0056E7", "oid": "103:1535120174932", "tyid": "304000", "fontsize": 12, "halo": 1.8 }, "geometry": { "type": "Point", "coordinates": [ 15.908203, 12.897489 ] } }
{"year": "AD1127",  "type": "Feature", "tippecanoe": { "layer": "7F5D849374A81585558602342", "minzoom": 2, "maxzoom": 8 }, "properties": { "title": "贝蒂-帕胡因人", "color": "#0056E7", "oid": "103:1535120175116", "tyid": "304001", "fontsize": 12, "halo": 1.6 }, "geometry": { "type": "Point", "coordinates": [ 13.798828, 1.230374 ] } }
{"year": "AD1127",  "type": "Feature", "tippecanoe": { "layer": "7F5D849374A81585558602342", "minzoom": 2, "maxzoom": 8 }, "properties": { "title": "法蒂玛哈里发国", "color": "#0056E7", "oid": "103:1535120174896", "tyid": "304000", "fontsize": 12, "halo": 1.8 }, "geometry": { "type": "Point", "coordinates": [ 30.410156, 26.824071 ] } }
{"year": "AD1127",  "type": "Feature", "tippecanoe": { "layer": "7F5D849374A81585558602342", "minzoom": 2, "maxzoom": 8 }, "properties": { "title": "贝都因人", "color": "#0056E7", "oid": "103:1537436001438", "tyid": "304001", "fontsize": 12, "halo": 1.6 }, "geometry": { "type": "Point", "coordinates": [ 44.648438, 25.005973 ] } }
{"year": "AD1127",  "type": "Feature", "tippecanoe": { "layer": "7F5D849374A81585558602342", "minzoom": 2, "maxzoom": 8 }, "properties": { "title": "马库里亚王国", "color": "#0056E7", "oid": "103:1535120174936", "tyid": "304000", "fontsize": 12, "halo": 1.8 }, "geometry": { "type": "Point", "coordinates": [ 32.080078, 19.808054 ] } }
{"year": "AD1127",  "type": "Feature", "tippecanoe": { "layer": "7F5D849374A81585558602342", "minzoom": 2, "maxzoom": 8 }, "properties": { "title": "卢欧诸部", "color": "#0056E7", "oid": "103:1537436001568", "tyid": "304001", "fontsize": 12, "halo": 1.6 }, "geometry": { "type": "Point", "coordinates": [ 31.640625, 5.878332 ] } }
{"year": "AD1127",  "type": "Feature", "tippecanoe": { "layer": "7F5D849374A81585558602342", "minzoom": 2, "maxzoom": 8 }, "properties": { "title": "尼罗特人", "color": "#0056E7", "oid": "103:1537436001561", "tyid": "304000", "fontsize": 12, "halo": 1.8 }, "geometry": { "type": "Point", "coordinates": [ 30.761719, 1.142502 ] } }
{"year": "AD1127",  "type": "Feature", "tippecanoe": { "layer": "7F5D849374A81585558602342", "minzoom": 2, "maxzoom": 8 }, "properties": { "title": "阿罗底亚王国", "color": "#0056E7", "oid": "103:1576922414365", "tyid": "304000", "fontsize": 12, "halo": 1.8 }, "geometry": { "type": "Point", "coordinates": [ 33.837891, 14.179186 ] } }
{"year": "AD1127",  "type": "Feature", "tippecanoe": { "layer": "7F5D849374A81585558602342", "minzoom": 2, "maxzoom": 8 }, "properties": { "title": "雅库特人", "color": "#0056E7", "oid": "103:1535120175144", "tyid": "304000", "fontsize": 12, "halo": 1.8 }, "geometry": { "type": "Point", "coordinates": [ 65.566406, 59.756395 ] } }
{"year": "AD1127",  "type": "Feature", "tippecanoe": { "layer": "7F5D849374A81585558602342", "minzoom": 2, "maxzoom": 8 }, "properties": { "title": "土库曼人", "color": "#0056E7", "oid": "103:1537436001434", "tyid": "304001", "fontsize": 12, "halo": 1.6 }, "geometry": { "type": "Point", "coordinates": [ 56.337891, 41.967659 ] } }
{"year": "AD1127",  "type": "Feature", "tippecanoe": { "layer": "7F5D849374A81585558602342", "minzoom": 2, "maxzoom": 8 }, "properties": { "title": "花剌子模王朝", "color": "#0056E7", "oid": "103:1535120174989", "tyid": "304000", "fontsize": 12, "halo": 1.8 }, "geometry": { "type": "Point", "coordinates": [ 62.490234, 41.902277 ] } }
{"year": "AD1127",  "type": "Feature", "tippecanoe": { "layer": "7F5D849374A81585558602342", "minzoom": 2, "maxzoom": 8 }, "properties": { "title": "库曼-钦察联盟", "color": "#0056E7", "oid": "103:1535120174995", "tyid": "304001", "fontsize": 12, "halo": 1.6 }, "geometry": { "type": "Point", "coordinates": [ 68.027344, 49.382373 ] } }
{"year": "AD1127",  "type": "Feature", "tippecanoe": { "layer": "7F5D849374A81585558602342", "minzoom": 2, "maxzoom": 8 }, "properties": { "title": "葛逻禄", "color": "#0056E7", "oid": "103:1535120174993", "tyid": "304001", "fontsize": 12, "halo": 1.6 }, "geometry": { "type": "Point", "coordinates": [ 75.585938, 45.890008 ] } }
{"year": "AD1127",  "type": "Feature", "tippecanoe": { "layer": "7F5D849374A81585558602342", "minzoom": 2, "maxzoom": 8 }, "properties": { "title": "东喀喇汗国", "color": "#0056E7", "oid": "103:1577244861172", "tyid": "304000", "fontsize": 12, "halo": 1.8 }, "geometry": { "type": "Point", "coordinates": [ 84.375000, 42.747012 ] } }
{"year": "AD1127",  "type": "Feature", "tippecanoe": { "layer": "7F5D849374A81585558602342", "minzoom": 2, "maxzoom": 8 }, "properties": { "title": "塞尔柱帝国", "color": "#0056E7", "oid": "103:1535120174980", "tyid": "304000", "fontsize": 12, "halo": 1.8 }, "geometry": { "type": "Point", "coordinates": [ 54.052734, 34.016242 ] } }
{"year": "AD1127",  "type": "Feature", "tippecanoe": { "layer": "7F5D849374A81585558602342", "minzoom": 2, "maxzoom": 8 }, "properties": { "title": "锡斯坦的纳斯里王朝", "color": "#0056E7", "oid": "103:1535120175002", "tyid": "304001", "fontsize": 12, "halo": 1.6 }, "geometry": { "type": "Point", "coordinates": [ 61.083984, 29.840644 ] } }
{"year": "AD1127",  "type": "Feature", "tippecanoe": { "layer": "7F5D849374A81585558602342", "minzoom": 2, "maxzoom": 8 }, "properties": { "title": "俾路支人", "color": "#0056E7", "oid": "103:1535120175004", "tyid": "304001", "fontsize": 12, "halo": 1.6 }, "geometry": { "type": "Point", "coordinates": [ 62.753906, 26.824071 ] } }
{"year": "AD1127",  "type": "Feature", "tippecanoe": { "layer": "7F5D849374A81585558602342", "minzoom": 2, "maxzoom": 8 }, "properties": { "title": "西喀喇汗国", "color": "#0056E7", "oid": "103:1535120174991", "tyid": "304000", "fontsize": 12, "halo": 1.8 }, "geometry": { "type": "Point", "coordinates": [ 69.785156, 40.713956 ] } }
{"year": "AD1127",  "type": "Feature", "tippecanoe": { "layer": "7F5D849374A81585558602342", "minzoom": 2, "maxzoom": 8 }, "properties": { "title": "伽色尼王朝", "color": "#0056E7", "oid": "103:1535120174983", "tyid": "304000", "fontsize": 12, "halo": 1.8 }, "geometry": { "type": "Point", "coordinates": [ 69.609375, 31.728167 ] } }
{"year": "AD1127",  "type": "Feature", "tippecanoe": { "layer": "7F5D849374A81585558602342", "minzoom": 2, "maxzoom": 8 }, "properties": { "title": "特里普里的卡拉丘里王朝", "color": "#0056E7", "oid": "103:1537436001247", "tyid": "304000", "fontsize": 12, "halo": 1.8 }, "geometry": { "type": "Point", "coordinates": [ 82.089844, 22.187405 ] } }
{"year": "AD1127",  "type": "Feature", "tippecanoe": { "layer": "7F5D849374A81585558602342", "minzoom": 2, "maxzoom": 8 }, "properties": { "title": "波罗帝国", "color": "#0056E7", "oid": "103:1576922414357", "tyid": "304000", "fontsize": 12, "halo": 1.8 }, "geometry": { "type": "Point", "coordinates": [ 88.945312, 25.165173 ] } }
{"year": "AD1127",  "type": "Feature", "tippecanoe": { "layer": "7F5D849374A81585558602342", "minzoom": 2, "maxzoom": 8 }, "properties": { "title": "西遮娄其帝国", "color": "#0056E7", "oid": "103:1576922414352", "tyid": "304000", "fontsize": 12, "halo": 1.8 }, "geometry": { "type": "Point", "coordinates": [ 77.783203, 19.145168 ] } }
{"year": "AD1127",  "type": "Feature", "tippecanoe": { "layer": "7F5D849374A81585558602342", "minzoom": 2, "maxzoom": 8 }, "properties": { "title": "蒙古诸部", "color": "#0056E7", "oid": "103:1535120174781", "tyid": "304000", "fontsize": 12, "halo": 1.8 }, "geometry": { "type": "Point", "coordinates": [ 103.447266, 48.632909 ] } }
{"year": "AD1127",  "type": "Feature", "tippecanoe": { "layer": "7F5D849374A81585558602342", "minzoom": 2, "maxzoom": 8 }, "properties": { "title": "金", "color": "#0056E7", "oid": "103:1535120174792", "tyid": "304000", "fontsize": 12, "halo": 1.8 }, "geometry": { "type": "Point", "coordinates": [ 123.486328, 45.089036 ] } }
{"year": "AD1127",  "type": "Feature", "tippecanoe": { "layer": "7F5D849374A81585558602342", "minzoom": 2, "maxzoom": 8 }, "properties": { "title": "吐蕃诸部", "color": "#0056E7", "oid": "103:1535120174787", "tyid": "304001", "fontsize": 12, "halo": 1.6 }, "geometry": { "type": "Point", "coordinates": [ 90.615234, 31.728167 ] } }
{"year": "AD1127",  "type": "Feature", "tippecanoe": { "layer": "7F5D849374A81585558602342", "minzoom": 2, "maxzoom": 8 }, "properties": { "title": "后理国", "color": "#0056E7", "oid": "103:1537436001226", "tyid": "304000", "fontsize": 12, "halo": 1.8 }, "geometry": { "type": "Point", "coordinates": [ 100.458984, 24.766785 ] } }
{"year": "AD1127",  "type": "Feature", "tippecanoe": { "layer": "7F5D849374A81585558602342", "minzoom": 2, "maxzoom": 8 }, "properties": { "title": "西夏", "color": "#0056E7", "oid": "103:1535120174785", "tyid": "304001", "fontsize": 12, "halo": 1.6 }, "geometry": { "type": "Point", "coordinates": [ 106.699219, 39.707187 ] } }
{"year": "AD1127",  "type": "Feature", "tippecanoe": { "layer": "7F5D849374A81585558602342", "minzoom": 2, "maxzoom": 8 }, "properties": { "title": "南宋", "color": "#0056E7", "oid": "103:1535120175013", "tyid": "304000", "fontsize": 12, "halo": 1.8 }, "geometry": { "type": "Point", "coordinates": [ 111.621094, 27.994401 ] } }
{"year": "AD1127",  "type": "Feature", "tippecanoe": { "layer": "7F5D849374A81585558602342", "minzoom": 2, "maxzoom": 8 }, "properties": { "title": "蒲甘王国", "color": "#0056E7", "oid": "103:1535120175035", "tyid": "304000", "fontsize": 12, "halo": 1.8 }, "geometry": { "type": "Point", "coordinates": [ 95.976562, 20.220966 ] } }
{"year": "AD1127",  "type": "Feature", "tippecanoe": { "layer": "7F5D849374A81585558602342", "minzoom": 2, "maxzoom": 8 }, "properties": { "title": "高棉帝国", "color": "#0056E7", "oid": "103:1535120175031", "tyid": "304000", "fontsize": 12, "halo": 1.8 }, "geometry": { "type": "Point", "coordinates": [ 103.183594, 14.604847 ] } }
{"year": "AD1127",  "type": "Feature", "tippecanoe": { "layer": "7F5D849374A81585558602342", "minzoom": 2, "maxzoom": 8 }, "properties": { "title": "日本平安时代", "color": "#0056E7", "oid": "103:1576922414370", "tyid": "304000", "fontsize": 12, "halo": 1.8 }, "geometry": { "type": "Point", "coordinates": [ 138.955078, 36.315125 ] } }
{"year": "AD1127",  "type": "Feature", "tippecanoe": { "layer": "7F5D849374A81585558602342", "minzoom": 2, "maxzoom": 8 }, "properties": { "title": "班图人诸部", "color": "#0056E7", "oid": "103:1535120175112", "tyid": "304001", "fontsize": 12, "halo": 1.6 }, "geometry": { "type": "Point", "coordinates": [ 27.070312, -5.528511 ] } }
{"year": "AD1127",  "type": "Feature", "tippecanoe": { "layer": "7F5D849374A81585558602342", "minzoom": 2, "maxzoom": 8 }, "properties": { "title": "科伊桑人", "color": "#0056E7", "oid": "103:1535120175105", "tyid": "304001", "fontsize": 12, "halo": 1.6 }, "geometry": { "type": "Point", "coordinates": [ 24.521484, -20.961440 ] } }
{"year": "AD1127",  "type": "Feature", "tippecanoe": { "layer": "7F5D849374A81585558602342", "minzoom": 2, "maxzoom": 8 }, "properties": { "title": "基卢瓦苏丹国", "color": "#0056E7", "oid": "103:1535120175107", "tyid": "304001", "fontsize": 12, "halo": 1.6 }, "geometry": { "type": "Point", "coordinates": [ 39.375000, -12.726084 ] } }
{"year": "AD1127",  "type": "Feature", "tippecanoe": { "layer": "7F5D849374A81585558602342", "minzoom": 2, "maxzoom": 8 }, "properties": { "title": "三佛齐王国", "color": "#0056E7", "oid": "103:1537436001547", "tyid": "304000", "fontsize": 12, "halo": 1.8 }, "geometry": { "type": "Point", "coordinates": [ 101.513672, -0.439449 ] } }
{"year": "AD1127",  "type": "Feature", "tippecanoe": { "layer": "7F5D849375881585558602343", "minzoom": 2, "maxzoom": 8 }, "properties": { "title": "玛雅文明[后古典时期]", "color": "#202020", "oid": "103:1576922414380", "tyid": "304000", "fontsize": 12, "halo": 0.8 }, "geometry": { "type": "Point", "coordinates": [ -89.472656, 18.562947 ] } }
{"year": "AD1127",  "type": "Feature", "tippecanoe": { "layer": "7F5D849375881585558602343", "minzoom": 2, "maxzoom": 8 }, "properties": { "title": "冰岛自由邦", "color": "#202020", "oid": "103:1535120175093", "tyid": "304000", "fontsize": 12, "halo": 0.8 }, "geometry": { "type": "Point", "coordinates": [ -19.072266, 64.811557 ] } }
{"year": "AD1127",  "type": "Feature", "tippecanoe": { "layer": "7F5D849375881585558602343", "minzoom": 2, "maxzoom": 8 }, "properties": { "title": "苏格兰王国", "color": "#202020", "oid": "103:1535120175058", "tyid": "304000", "fontsize": 12, "halo": 0.8 }, "geometry": { "type": "Point", "coordinates": [ -4.042969, 56.607885 ] } }
{"year": "AD1127",  "type": "Feature", "tippecanoe": { "layer": "7F5D849375881585558602343", "minzoom": 2, "maxzoom": 8 }, "properties": { "title": "葡萄牙第二伯国", "color": "#202020", "oid": "103:1576922414377", "tyid": "304000", "fontsize": 12, "halo": 0.8 }, "geometry": { "type": "Point", "coordinates": [ -7.822266, 41.178654 ] } }
{"year": "AD1127",  "type": "Feature", "tippecanoe": { "layer": "7F5D849375881585558602343", "minzoom": 2, "maxzoom": 8 }, "properties": { "title": "莱昂王国", "color": "#202020", "oid": "103:1537436001509", "tyid": "304000", "fontsize": 12, "halo": 0.8 }, "geometry": { "type": "Point", "coordinates": [ -6.416016, 42.617791 ] } }
{"year": "AD1127",  "type": "Feature", "tippecanoe": { "layer": "7F5D849375881585558602343", "minzoom": 2, "maxzoom": 8 }, "properties": { "title": "布列塔尼公国", "color": "#202020", "oid": "103:1535120175091", "tyid": "304000", "fontsize": 12, "halo": 0.8 }, "geometry": { "type": "Point", "coordinates": [ -2.636719, 47.989922 ] } }
{"year": "AD1127",  "type": "Feature", "tippecanoe": { "layer": "7F5D849375881585558602343", "minzoom": 2, "maxzoom": 8 }, "properties": { "title": "潘普洛纳王国", "color": "#202020", "oid": "103:1577244861179", "tyid": "304000", "fontsize": 12, "halo": 0.8 }, "geometry": { "type": "Point", "coordinates": [ -2.197266, 42.682435 ] } }
{"year": "AD1127",  "type": "Feature", "tippecanoe": { "layer": "7F5D849375881585558602343", "minzoom": 2, "maxzoom": 8 }, "properties": { "title": "阿拉贡王国", "color": "#202020", "oid": "103:1535120174795", "tyid": "304000", "fontsize": 12, "halo": 0.8 }, "geometry": { "type": "Point", "coordinates": [ -0.527344, 41.705729 ] } }
{"year": "AD1127",  "type": "Feature", "tippecanoe": { "layer": "7F5D849375881585558602343", "minzoom": 2, "maxzoom": 8 }, "properties": { "title": "穆瓦希德王朝", "color": "#202020", "oid": "103:1537436001351", "tyid": "304000", "fontsize": 12, "halo": 0.8 }, "geometry": { "type": "Point", "coordinates": [ -7.822266, 30.751278 ] } }
{"year": "AD1127",  "type": "Feature", "tippecanoe": { "layer": "7F5D849375881585558602343", "minzoom": 2, "maxzoom": 8 }, "properties": { "title": "塔克鲁尔王国", "color": "#202020", "oid": "103:1535120174919", "tyid": "304000", "fontsize": 12, "halo": 0.8 }, "geometry": { "type": "Point", "coordinates": [ -13.359375, 16.551962 ] } }
{"year": "AD1127",  "type": "Feature", "tippecanoe": { "layer": "7F5D849375881585558602343", "minzoom": 2, "maxzoom": 8 }, "properties": { "title": "加纳帝国", "color": "#202020", "oid": "103:1535120174921", "tyid": "304000", "fontsize": 12, "halo": 0.8 }, "geometry": { "type": "Point", "coordinates": [ -6.855469, 13.923404 ] } }
{"year": "AD1127",  "type": "Feature", "tippecanoe": { "layer": "7F5D849375881585558602343", "minzoom": 2, "maxzoom": 8 }, "properties": { "title": "莫西人诸国", "color": "#202020", "oid": "103:1582720889981", "tyid": "304000", "fontsize": 12, "halo": 0.8 }, "geometry": { "type": "Point", "coordinates": [ -2.373047, 13.752725 ] } }
{"year": "AD1127",  "type": "Feature", "tippecanoe": { "layer": "7F5D849375881585558602343", "minzoom": 2, "maxzoom": 8 }, "properties": { "title": "阿坎人", "color": "#262626", "oid": "103:1535120175125", "tyid": "304001", "fontsize": 12, "halo": 0.8 }, "geometry": { "type": "Point", "coordinates": [ -2.285156, 6.315299 ] } }
{"year": "AD1127",  "type": "Feature", "tippecanoe": { "layer": "7F5D849375881585558602343", "minzoom": 2, "maxzoom": 8 }, "properties": { "title": "丹麦王国[维京时期]", "color": "#202020", "oid": "103:1577244861308", "tyid": "304000", "fontsize": 12, "halo": 0.8 }, "geometry": { "type": "Point", "coordinates": [ 9.140625, 55.973798 ] } }
{"year": "AD1127",  "type": "Feature", "tippecanoe": { "layer": "7F5D849375881585558602343", "minzoom": 2, "maxzoom": 8 }, "properties": { "title": "巴塞罗那伯国", "color": "#202020", "oid": "103:1535120175073", "tyid": "304000", "fontsize": 12, "halo": 0.8 }, "geometry": { "type": "Point", "coordinates": [ 2.109375, 42.228517 ] } }
{"year": "AD1127",  "type": "Feature", "tippecanoe": { "layer": "7F5D849375881585558602343", "minzoom": 2, "maxzoom": 8 }, "properties": { "title": "古普鲁士人", "color": "#262626", "oid": "103:1535120175082", "tyid": "304002", "fontsize": 12, "halo": 0.8 }, "geometry": { "type": "Point", "coordinates": [ 21.093750, 54.265224 ] } }
{"year": "AD1127",  "type": "Feature", "tippecanoe": { "layer": "7F5D849375881585558602343", "minzoom": 2, "maxzoom": 8 }, "properties": { "title": "塞尔维亚大公国", "color": "#202020", "oid": "103:1535120175089", "tyid": "304000", "fontsize": 12, "halo": 0.8 }, "geometry": { "type": "Point", "coordinates": [ 19.423828, 43.516689 ] } }
{"year": "AD1127",  "type": "Feature", "tippecanoe": { "layer": "7F5D849375881585558602343", "minzoom": 2, "maxzoom": 8 }, "properties": { "title": "立陶宛人", "color": "#202020", "oid": "103:1537436001519", "tyid": "304000", "fontsize": 12, "halo": 0.8 }, "geometry": { "type": "Point", "coordinates": [ 22.939453, 56.218923 ] } }
{"year": "AD1127",  "type": "Feature", "tippecanoe": { "layer": "7F5D849375881585558602343", "minzoom": 2, "maxzoom": 8 }, "properties": { "title": "古爱沙尼亚人", "color": "#202020", "oid": "103:1576922414375", "tyid": "304000", "fontsize": 12, "halo": 0.8 }, "geometry": { "type": "Point", "coordinates": [ 25.400391, 58.309489 ] } }
{"year": "AD1127",  "type": "Feature", "tippecanoe": { "layer": "7F5D849375881585558602343", "minzoom": 2, "maxzoom": 8 }, "properties": { "title": "波洛茨克公国", "color": "#202020", "oid": "103:1535120175040", "tyid": "304000", "fontsize": 12, "halo": 0.8 }, "geometry": { "type": "Point", "coordinates": [ 27.333984, 54.775346 ] } }
{"year": "AD1127",  "type": "Feature", "tippecanoe": { "layer": "7F5D849375881585558602343", "minzoom": 2, "maxzoom": 8 }, "properties": { "title": "捷列博夫利亚公国", "color": "#202020", "oid": "103:1535120175044", "tyid": "304000", "fontsize": 12, "halo": 0.8 }, "geometry": { "type": "Point", "coordinates": [ 24.785156, 48.980217 ] } }
{"year": "AD1127",  "type": "Feature", "tippecanoe": { "layer": "7F5D849375881585558602343", "minzoom": 2, "maxzoom": 8 }, "properties": { "title": "佩列亚斯拉夫公国", "color": "#202020", "oid": "103:1576922414372", "tyid": "304000", "fontsize": 12, "halo": 0.8 }, "geometry": { "type": "Point", "coordinates": [ 32.431641, 50.345460 ] } }
{"year": "AD1127",  "type": "Feature", "tippecanoe": { "layer": "7F5D849375881585558602343", "minzoom": 2, "maxzoom": 8 }, "properties": { "title": "切尔克斯人", "color": "#262626", "oid": "103:1535120174854", "tyid": "304001", "fontsize": 12, "halo": 0.8 }, "geometry": { "type": "Point", "coordinates": [ 39.375000, 44.653024 ] } }
{"year": "AD1127",  "type": "Feature", "tippecanoe": { "layer": "7F5D849375881585558602343", "minzoom": 2, "maxzoom": 8 }, "properties": { "title": "柏柏尔人诸部", "color": "#262626", "oid": "103:1537436001359", "tyid": "304002", "fontsize": 12, "halo": 0.8 }, "geometry": { "type": "Point", "coordinates": [ 1.494141, 33.211116 ] } }
{"year": "AD1127",  "type": "Feature", "tippecanoe": { "layer": "7F5D849375881585558602343", "minzoom": 2, "maxzoom": 8 }, "properties": { "title": "哈马迪王朝", "color": "#202020", "oid": "103:1585278505388", "tyid": "304000", "fontsize": 12, "halo": 0.8 }, "geometry": { "type": "Point", "coordinates": [ 5.097656, 35.889050 ] } }
{"year": "AD1127",  "type": "Feature", "tippecanoe": { "layer": "7F5D849375881585558602343", "minzoom": 2, "maxzoom": 8 }, "properties": { "title": "瓦努希拉尔联盟", "color": "#262626", "oid": "103:1537436001344", "tyid": "304001", "fontsize": 12, "halo": 0.8 }, "geometry": { "type": "Point", "coordinates": [ 7.998047, 34.524661 ] } }
{"year": "AD1127",  "type": "Feature", "tippecanoe": { "layer": "7F5D849375881585558602343", "minzoom": 2, "maxzoom": 8 }, "properties": { "title": "瓦努贾米王朝", "color": "#262626", "oid": "103:1537436001356", "tyid": "304001", "fontsize": 12, "halo": 0.8 }, "geometry": { "type": "Point", "coordinates": [ 10.107422, 33.211116 ] } }
{"year": "AD1127",  "type": "Feature", "tippecanoe": { "layer": "7F5D849375881585558602343", "minzoom": 2, "maxzoom": 8 }, "properties": { "title": "加奥帝国", "color": "#202020", "oid": "103:1535120174931", "tyid": "304000", "fontsize": 12, "halo": 0.8 }, "geometry": { "type": "Point", "coordinates": [ 0.527344, 16.551962 ] } }
{"year": "AD1127",  "type": "Feature", "tippecanoe": { "layer": "7F5D849375881585558602343", "minzoom": 2, "maxzoom": 8 }, "properties": { "title": "伊博人", "color": "#262626", "oid": "103:1537436001574", "tyid": "304001", "fontsize": 12, "halo": 0.8 }, "geometry": { "type": "Point", "coordinates": [ 9.140625, 6.140555 ] } }
{"year": "AD1127",  "type": "Feature", "tippecanoe": { "layer": "7F5D849375881585558602343", "minzoom": 2, "maxzoom": 8 }, "properties": { "title": "鲁姆苏丹国", "color": "#202020", "oid": "103:1537436001337", "tyid": "304000", "fontsize": 12, "halo": 0.8 }, "geometry": { "type": "Point", "coordinates": [ 31.904297, 38.616870 ] } }
{"year": "AD1127",  "type": "Feature", "tippecanoe": { "layer": "7F5D849375881585558602343", "minzoom": 2, "maxzoom": 8 }, "properties": { "title": "达尼什曼德贝伊国", "color": "#202020", "oid": "103:1535120174862", "tyid": "304000", "fontsize": 12, "halo": 0.8 }, "geometry": { "type": "Point", "coordinates": [ 35.332031, 39.707187 ] } }
{"year": "AD1127",  "type": "Feature", "tippecanoe": { "layer": "7F5D849375881585558602343", "minzoom": 2, "maxzoom": 8 }, "properties": { "title": "门居切克贝伊国", "color": "#202020", "oid": "103:1535120174871", "tyid": "304000", "fontsize": 12, "halo": 0.8 }, "geometry": { "type": "Point", "coordinates": [ 38.847656, 39.504041 ] } }
{"year": "AD1127",  "type": "Feature", "tippecanoe": { "layer": "7F5D849375881585558602343", "minzoom": 2, "maxzoom": 8 }, "properties": { "title": "埃德萨伯国", "color": "#202020", "oid": "103:1535120174875", "tyid": "304000", "fontsize": 12, "halo": 0.8 }, "geometry": { "type": "Point", "coordinates": [ 37.968750, 37.439974 ] } }
{"year": "AD1127",  "type": "Feature", "tippecanoe": { "layer": "7F5D849375881585558602343", "minzoom": 2, "maxzoom": 8 }, "properties": { "title": "萨尔图克贝伊国", "color": "#202020", "oid": "103:1535120174857", "tyid": "304000", "fontsize": 12, "halo": 0.8 }, "geometry": { "type": "Point", "coordinates": [ 40.869141, 40.178873 ] } }
{"year": "AD1127",  "type": "Feature", "tippecanoe": { "layer": "7F5D849375881585558602343", "minzoom": 2, "maxzoom": 8 }, "properties": { "title": "赞吉王朝", "color": "#202020", "oid": "103:1535120174873", "tyid": "304000", "fontsize": 12, "halo": 0.8 }, "geometry": { "type": "Point", "coordinates": [ 41.484375, 36.738884 ] } }
{"year": "AD1127",  "type": "Feature", "tippecanoe": { "layer": "7F5D849375881585558602343", "minzoom": 2, "maxzoom": 8 }, "properties": { "title": "阿赫拉特贝伊国", "color": "#202020", "oid": "103:1537436001299", "tyid": "304000", "fontsize": 12, "halo": 0.8 }, "geometry": { "type": "Point", "coordinates": [ 43.593750, 38.479395 ] } }
{"year": "AD1127",  "type": "Feature", "tippecanoe": { "layer": "7F5D849375881585558602343", "minzoom": 2, "maxzoom": 8 }, "properties": { "title": "耶路撒冷拉丁王国", "color": "#202020", "oid": "103:1537436001332", "tyid": "304000", "fontsize": 12, "halo": 0.8 }, "geometry": { "type": "Point", "coordinates": [ 35.244141, 31.503629 ] } }
{"year": "AD1127",  "type": "Feature", "tippecanoe": { "layer": "7F5D849375881585558602343", "minzoom": 2, "maxzoom": 8 }, "properties": { "title": "达优人", "color": "#262626", "oid": "103:1535120175137", "tyid": "304001", "fontsize": 12, "halo": 0.8 }, "geometry": { "type": "Point", "coordinates": [ 24.521484, 17.056785 ] } }
{"year": "AD1127",  "type": "Feature", "tippecanoe": { "layer": "7F5D849375881585558602343", "minzoom": 2, "maxzoom": 8 }, "properties": { "title": "贝扎人", "color": "#262626", "oid": "103:1535120174940", "tyid": "304001", "fontsize": 12, "halo": 0.8 }, "geometry": { "type": "Point", "coordinates": [ 36.123047, 19.228177 ] } }
{"year": "AD1127",  "type": "Feature", "tippecanoe": { "layer": "7F5D849375881585558602343", "minzoom": 2, "maxzoom": 8 }, "properties": { "title": "扎格维王朝", "color": "#202020", "oid": "103:1537436001386", "tyid": "304000", "fontsize": 12, "halo": 0.8 }, "geometry": { "type": "Point", "coordinates": [ 38.583984, 13.068777 ] } }
{"year": "AD1127",  "type": "Feature", "tippecanoe": { "layer": "7F5D849375881585558602343", "minzoom": 2, "maxzoom": 8 }, "properties": { "title": "麦加埃米尔国", "color": "#202020", "oid": "103:1576922414367", "tyid": "304000", "fontsize": 12, "halo": 0.8 }, "geometry": { "type": "Point", "coordinates": [ 40.078125, 21.861499 ] } }
{"year": "AD1127",  "type": "Feature", "tippecanoe": { "layer": "7F5D849375881585558602343", "minzoom": 2, "maxzoom": 8 }, "properties": { "title": "苏莱曼尼王朝", "color": "#202020", "oid": "103:1535120174970", "tyid": "304000", "fontsize": 12, "halo": 0.8 }, "geometry": { "type": "Point", "coordinates": [ 41.660156, 19.062118 ] } }
{"year": "AD1127",  "type": "Feature", "tippecanoe": { "layer": "7F5D849375881585558602343", "minzoom": 2, "maxzoom": 8 }, "properties": { "title": "萨里哈王朝", "color": "#202020", "oid": "103:1537436001397", "tyid": "304000", "fontsize": 12, "halo": 0.8 }, "geometry": { "type": "Point", "coordinates": [ 44.648438, 14.774883 ] } }
{"year": "AD1127",  "type": "Feature", "tippecanoe": { "layer": "7F5D849375881585558602343", "minzoom": 2, "maxzoom": 8 }, "properties": { "title": "锡达马人", "color": "#262626", "oid": "103:1537436001395", "tyid": "304001", "fontsize": 12, "halo": 0.8 }, "geometry": { "type": "Point", "coordinates": [ 35.771484, 4.390229 ] } }
{"year": "AD1127",  "type": "Feature", "tippecanoe": { "layer": "7F5D849375881585558602343", "minzoom": 2, "maxzoom": 8 }, "properties": { "title": "谢瓦苏丹国", "color": "#202020", "oid": "103:1537436001391", "tyid": "304000", "fontsize": 12, "halo": 0.8 }, "geometry": { "type": "Point", "coordinates": [ 39.990234, 8.146243 ] } }
{"year": "AD1127",  "type": "Feature", "tippecanoe": { "layer": "7F5D849375881585558602343", "minzoom": 2, "maxzoom": 8 }, "properties": { "title": "伏尔加保加利亚汗国", "color": "#202020", "oid": "103:1537436001450", "tyid": "304000", "fontsize": 12, "halo": 0.8 }, "geometry": { "type": "Point", "coordinates": [ 47.373047, 55.028022 ] } }
{"year": "AD1127",  "type": "Feature", "tippecanoe": { "layer": "7F5D849375881585558602343", "minzoom": 2, "maxzoom": 8 }, "properties": { "title": "巴什基尔人", "color": "#202020", "oid": "103:1535120175141", "tyid": "304000", "fontsize": 12, "halo": 0.8 }, "geometry": { "type": "Point", "coordinates": [ 56.953125, 52.908902 ] } }
{"year": "AD1127",  "type": "Feature", "tippecanoe": { "layer": "7F5D849375881585558602343", "minzoom": 2, "maxzoom": 8 }, "properties": { "title": "阿赫马蒂斯王朝", "color": "#202020", "oid": "103:1537436001411", "tyid": "304000", "fontsize": 12, "halo": 0.8 }, "geometry": { "type": "Point", "coordinates": [ 45.966797, 37.857507 ] } }
{"year": "AD1127",  "type": "Feature", "tippecanoe": { "layer": "7F5D849375881585558602343", "minzoom": 2, "maxzoom": 8 }, "properties": { "title": "卡库伊埃米尔国", "color": "#202020", "oid": "103:1576922414368", "tyid": "304000", "fontsize": 12, "halo": 0.8 }, "geometry": { "type": "Point", "coordinates": [ 53.789062, 31.653381 ] } }
{"year": "AD1127",  "type": "Feature", "tippecanoe": { "layer": "7F5D849375881585558602343", "minzoom": 2, "maxzoom": 8 }, "properties": { "title": "也门的哈姆达尼王朝", "color": "#202020", "oid": "103:1585278505524", "tyid": "304000", "fontsize": 12, "halo": 0.8 }, "geometry": { "type": "Point", "coordinates": [ 46.406250, 16.383391 ] } }
{"year": "AD1127",  "type": "Feature", "tippecanoe": { "layer": "7F5D849375881585558602343", "minzoom": 2, "maxzoom": 8 }, "properties": { "title": "祖拉伊王朝", "color": "#262626", "oid": "103:1537436001404", "tyid": "304002", "fontsize": 12, "halo": 0.8 }, "geometry": { "type": "Point", "coordinates": [ 48.076172, 15.029686 ] } }
{"year": "AD1127",  "type": "Feature", "tippecanoe": { "layer": "7F5D849375881585558602343", "minzoom": 2, "maxzoom": 8 }, "properties": { "title": "古尔王朝", "color": "#202020", "oid": "103:1535120174985", "tyid": "304000", "fontsize": 12, "halo": 0.8 }, "geometry": { "type": "Point", "coordinates": [ 68.554688, 35.389050 ] } }
{"year": "AD1127",  "type": "Feature", "tippecanoe": { "layer": "7F5D849375881585558602343", "minzoom": 2, "maxzoom": 8 }, "properties": { "title": "苏姆拉王朝", "color": "#202020", "oid": "103:1537436001444", "tyid": "304000", "fontsize": 12, "halo": 0.8 }, "geometry": { "type": "Point", "coordinates": [ 68.554688, 26.588527 ] } }
{"year": "AD1127",  "type": "Feature", "tippecanoe": { "layer": "7F5D849375881585558602343", "minzoom": 2, "maxzoom": 8 }, "properties": { "title": "索兰基王朝", "color": "#202020", "oid": "103:1576922414350", "tyid": "304000", "fontsize": 12, "halo": 0.8 }, "geometry": { "type": "Point", "coordinates": [ 71.367188, 22.024546 ] } }
{"year": "AD1127",  "type": "Feature", "tippecanoe": { "layer": "7F5D849375881585558602343", "minzoom": 2, "maxzoom": 8 }, "properties": { "title": "萨姆巴尔的乔汉王朝", "color": "#202020", "oid": "103:1576922414348", "tyid": "304000", "fontsize": 12, "halo": 0.8 }, "geometry": { "type": "Point", "coordinates": [ 74.443359, 27.215556 ] } }
{"year": "AD1127",  "type": "Feature", "tippecanoe": { "layer": "7F5D849375881585558602343", "minzoom": 2, "maxzoom": 8 }, "properties": { "title": "帕拉玛拉王朝", "color": "#202020", "oid": "103:1535120174803", "tyid": "304000", "fontsize": 12, "halo": 0.8 }, "geometry": { "type": "Point", "coordinates": [ 75.673828, 24.527135 ] } }
{"year": "AD1127",  "type": "Feature", "tippecanoe": { "layer": "7F5D849375881585558602343", "minzoom": 2, "maxzoom": 8 }, "properties": { "title": "哥霍多伏罗王朝", "color": "#202020", "oid": "103:1576922414347", "tyid": "304000", "fontsize": 12, "halo": 0.8 }, "geometry": { "type": "Point", "coordinates": [ 80.595703, 27.527758 ] } }
{"year": "AD1127",  "type": "Feature", "tippecanoe": { "layer": "7F5D849375881585558602343", "minzoom": 2, "maxzoom": 8 }, "properties": { "title": "昌德拉王朝", "color": "#202020", "oid": "103:1535120174805", "tyid": "304000", "fontsize": 12, "halo": 0.8 }, "geometry": { "type": "Point", "coordinates": [ 79.541016, 25.324167 ] } }
{"year": "AD1127",  "type": "Feature", "tippecanoe": { "layer": "7F5D849375881585558602343", "minzoom": 2, "maxzoom": 8 }, "properties": { "title": "曷萨拉帝国", "color": "#202020", "oid": "103:1576922414353", "tyid": "304000", "fontsize": 12, "halo": 0.8 }, "geometry": { "type": "Point", "coordinates": [ 74.970703, 15.284185 ] } }
{"year": "AD1127",  "type": "Feature", "tippecanoe": { "layer": "7F5D849375881585558602343", "minzoom": 2, "maxzoom": 8 }, "properties": { "title": "东恒伽王朝", "color": "#202020", "oid": "103:1535120174817", "tyid": "304000", "fontsize": 12, "halo": 0.8 }, "geometry": { "type": "Point", "coordinates": [ 84.375000, 19.725342 ] } }
{"year": "AD1127",  "type": "Feature", "tippecanoe": { "layer": "7F5D849375881585558602343", "minzoom": 2, "maxzoom": 8 }, "properties": { "title": "犀那王朝", "color": "#202020", "oid": "103:1535120174819", "tyid": "304000", "fontsize": 12, "halo": 0.8 }, "geometry": { "type": "Point", "coordinates": [ 86.484375, 21.943046 ] } }
{"year": "AD1127",  "type": "Feature", "tippecanoe": { "layer": "7F5D849375881585558602343", "minzoom": 2, "maxzoom": 8 }, "properties": { "title": "波隆拉努沃王国", "color": "#202020", "oid": "103:1576922414356", "tyid": "304000", "fontsize": 12, "halo": 0.8 }, "geometry": { "type": "Point", "coordinates": [ 80.683594, 7.623887 ] } }
{"year": "AD1127",  "type": "Feature", "tippecanoe": { "layer": "7F5D849375881585558602343", "minzoom": 2, "maxzoom": 8 }, "properties": { "title": "若开诸国", "color": "#202020", "oid": "103:1537436001545", "tyid": "304000", "fontsize": 12, "halo": 0.8 }, "geometry": { "type": "Point", "coordinates": [ 93.339844, 20.961440 ] } }
{"year": "AD1127",  "type": "Feature", "tippecanoe": { "layer": "7F5D849375881585558602343", "minzoom": 2, "maxzoom": 8 }, "properties": { "title": "骇黎朋猜国", "color": "#202020", "oid": "103:1576922414374", "tyid": "304000", "fontsize": 12, "halo": 0.8 }, "geometry": { "type": "Point", "coordinates": [ 99.492188, 18.312811 ] } }
{"year": "AD1127",  "type": "Feature", "tippecanoe": { "layer": "7F5D849375881585558602343", "minzoom": 2, "maxzoom": 8 }, "properties": { "title": "大越国", "color": "#202020", "oid": "103:1537436001477", "tyid": "304000", "fontsize": 12, "halo": 0.8 }, "geometry": { "type": "Point", "coordinates": [ 105.117188, 19.642588 ] } }
{"year": "AD1127",  "type": "Feature", "tippecanoe": { "layer": "7F5D849375881585558602343", "minzoom": 2, "maxzoom": 8 }, "properties": { "title": "占婆国", "color": "#202020", "oid": "103:1537436001479", "tyid": "304000", "fontsize": 12, "halo": 0.8 }, "geometry": { "type": "Point", "coordinates": [ 108.808594, 13.410994 ] } }
{"year": "AD1127",  "type": "Feature", "tippecanoe": { "layer": "7F5D849375881585558602343", "minzoom": 2, "maxzoom": 8 }, "properties": { "title": "高丽", "color": "#202020", "oid": "103:1535120175015", "tyid": "304000", "fontsize": 12, "halo": 0.8 }, "geometry": { "type": "Point", "coordinates": [ 127.705078, 37.090240 ] } }
{"year": "AD1127",  "type": "Feature", "tippecanoe": { "layer": "7F5D849375881585558602343", "minzoom": 2, "maxzoom": 8 }, "properties": { "title": "虾夷", "color": "#262626", "oid": "103:1535120175021", "tyid": "304002", "fontsize": 12, "halo": 0.8 }, "geometry": { "type": "Point", "coordinates": [ 142.558594, 43.389082 ] } }
{"year": "AD1127",  "type": "Feature", "tippecanoe": { "layer": "7F5D849375881585558602343", "minzoom": 2, "maxzoom": 8 }, "properties": { "title": "加鲁王国", "color": "#202020", "oid": "103:1535120174824", "tyid": "304000", "fontsize": 12, "halo": 0.8 }, "geometry": { "type": "Point", "coordinates": [ 108.193359, -7.013668 ] } }
{"year": "AD1127",  "type": "Feature", "tippecanoe": { "layer": "7F5D849375881585558602343", "minzoom": 2, "maxzoom": 8 }, "properties": { "title": "谏义里国", "color": "#202020", "oid": "103:1535120174826", "tyid": "304000", "fontsize": 12, "halo": 0.8 }, "geometry": { "type": "Point", "coordinates": [ 110.742188, -7.449624 ] } }
{"year": "AD1127",  "type": "Feature", "tippecanoe": { "layer": "7F5D849375881585558602343", "minzoom": 2, "maxzoom": 8 }, "properties": { "title": "戎牙路王国", "color": "#202020", "oid": "103:1576922414359", "tyid": "304000", "fontsize": 12, "halo": 0.8 }, "geometry": { "type": "Point", "coordinates": [ 112.939453, -7.972198 ] } }
{"year": "AD1127",  "type": "Feature", "tippecanoe": { "layer": "7F5D84937AC81585558602351", "minzoom": 2, "maxzoom": 8 }, "properties": { "title": "英格兰王国", "color": "#202020", "oid": "103:1535120175056", "tyid": "304000", "fontsize": 12, "halo": 0.8 }, "geometry": { "type": "Point", "coordinates": [ -1.494141, 52.536273 ] } }
{"year": "AD1127",  "type": "Feature", "tippecanoe": { "layer": "7F5D84937AC81585558602351", "minzoom": 2, "maxzoom": 8 }, "properties": { "title": "穆拉比特王朝", "color": "#202020", "oid": "103:1535120174909", "tyid": "304000", "fontsize": 12, "halo": 0.8 }, "geometry": { "type": "Point", "coordinates": [ -9.843750, 24.686952 ] } }
{"year": "AD1127",  "type": "Feature", "tippecanoe": { "layer": "7F5D84937AC81585558602351", "minzoom": 2, "maxzoom": 8 }, "properties": { "title": "曼德人", "color": "#202020", "oid": "103:1537436001373", "tyid": "304000", "fontsize": 12, "halo": 0.8 }, "geometry": { "type": "Point", "coordinates": [ -5.097656, 12.039321 ] } }
{"year": "AD1127",  "type": "Feature", "tippecanoe": { "layer": "7F5D84937AC81585558602351", "minzoom": 2, "maxzoom": 8 }, "properties": { "title": "约鲁巴人", "color": "#262626", "oid": "103:1535120175131", "tyid": "304001", "fontsize": 12, "halo": 0.8 }, "geometry": { "type": "Point", "coordinates": [ -3.779297, 8.494105 ] } }
{"year": "AD1127",  "type": "Feature", "tippecanoe": { "layer": "7F5D84937AC81585558602351", "minzoom": 2, "maxzoom": 8 }, "properties": { "title": "挪威王国[维京时期]", "color": "#202020", "oid": "103:1577244861311", "tyid": "304000", "fontsize": 12, "halo": 0.8 }, "geometry": { "type": "Point", "coordinates": [ 11.250000, 62.226996 ] } }
{"year": "AD1127",  "type": "Feature", "tippecanoe": { "layer": "7F5D84937AC81585558602351", "minzoom": 2, "maxzoom": 8 }, "properties": { "title": "瑞典王国[维京时期]", "color": "#202020", "oid": "103:1577244861309", "tyid": "304000", "fontsize": 12, "halo": 0.8 }, "geometry": { "type": "Point", "coordinates": [ 15.205078, 59.756395 ] } }
{"year": "AD1127",  "type": "Feature", "tippecanoe": { "layer": "7F5D84937AC81585558602351", "minzoom": 2, "maxzoom": 8 }, "properties": { "title": "法兰西王国", "color": "#202020", "oid": "103:1535120175053", "tyid": "304000", "fontsize": 12, "halo": 0.8 }, "geometry": { "type": "Point", "coordinates": [ 1.494141, 46.679594 ] } }
{"year": "AD1127",  "type": "Feature", "tippecanoe": { "layer": "7F5D84937AC81585558602351", "minzoom": 2, "maxzoom": 8 }, "properties": { "title": "神圣罗马帝国", "color": "#202020", "oid": "103:1535120175049", "tyid": "304000", "fontsize": 12, "halo": 0.8 }, "geometry": { "type": "Point", "coordinates": [ 10.283203, 48.690960 ] } }
{"year": "AD1127",  "type": "Feature", "tippecanoe": { "layer": "7F5D84937AC81585558602351", "minzoom": 2, "maxzoom": 8 }, "properties": { "title": "波兰王国", "color": "#202020", "oid": "103:1535120175080", "tyid": "304000", "fontsize": 12, "halo": 0.8 }, "geometry": { "type": "Point", "coordinates": [ 19.072266, 51.618017 ] } }
{"year": "AD1127",  "type": "Feature", "tippecanoe": { "layer": "7F5D84937AC81585558602351", "minzoom": 2, "maxzoom": 8 }, "properties": { "title": "匈牙利王国", "color": "#202020", "oid": "103:1535120175086", "tyid": "304000", "fontsize": 12, "halo": 0.8 }, "geometry": { "type": "Point", "coordinates": [ 19.863281, 46.739861 ] } }
{"year": "AD1127",  "type": "Feature", "tippecanoe": { "layer": "7F5D84937AC81585558602351", "minzoom": 2, "maxzoom": 8 }, "properties": { "title": "基辅罗斯", "color": "#202020", "oid": "103:1535120175042", "tyid": "304000", "fontsize": 12, "halo": 0.8 }, "geometry": { "type": "Point", "coordinates": [ 34.101562, 61.396719 ] } }
{"year": "AD1127",  "type": "Feature", "tippecanoe": { "layer": "7F5D84937AC81585558602351", "minzoom": 2, "maxzoom": 8 }, "properties": { "title": "罗斯托夫-苏兹达尔公国", "color": "#202020", "oid": "103:1576922414371", "tyid": "304000", "fontsize": 12, "halo": 0.8 }, "geometry": { "type": "Point", "coordinates": [ 41.044922, 58.401712 ] } }
{"year": "AD1127",  "type": "Feature", "tippecanoe": { "layer": "7F5D84937AC81585558602351", "minzoom": 2, "maxzoom": 8 }, "properties": { "title": "东罗马帝国", "color": "#202020", "oid": "103:1537436001294", "tyid": "304000", "fontsize": 12, "halo": 0.8 }, "geometry": { "type": "Point", "coordinates": [ 24.521484, 42.358544 ] } }
{"year": "AD1127",  "type": "Feature", "tippecanoe": { "layer": "7F5D84937AC81585558602351", "minzoom": 2, "maxzoom": 8 }, "properties": { "title": "切尔尼戈夫公国", "color": "#202020", "oid": "103:1535120175025", "tyid": "304000", "fontsize": 12, "halo": 0.8 }, "geometry": { "type": "Point", "coordinates": [ 37.968750, 52.802761 ] } }
{"year": "AD1127",  "type": "Feature", "tippecanoe": { "layer": "7F5D84937AC81585558602351", "minzoom": 2, "maxzoom": 8 }, "properties": { "title": "格鲁吉亚王国", "color": "#202020", "oid": "103:1535120174830", "tyid": "304000", "fontsize": 12, "halo": 0.8 }, "geometry": { "type": "Point", "coordinates": [ 44.384766, 41.112469 ] } }
{"year": "AD1127",  "type": "Feature", "tippecanoe": { "layer": "7F5D84937AC81585558602351", "minzoom": 2, "maxzoom": 8 }, "properties": { "title": "图阿雷格人", "color": "#262626", "oid": "103:1535120174917", "tyid": "304001", "fontsize": 12, "halo": 0.8 }, "geometry": { "type": "Point", "coordinates": [ 10.722656, 24.367114 ] } }
{"year": "AD1127",  "type": "Feature", "tippecanoe": { "layer": "7F5D84937AC81585558602351", "minzoom": 2, "maxzoom": 8 }, "properties": { "title": "瓦努苏莱姆", "color": "#262626", "oid": "103:1535120174898", "tyid": "304001", "fontsize": 12, "halo": 0.8 }, "geometry": { "type": "Point", "coordinates": [ 21.708984, 30.902225 ] } }
{"year": "AD1127",  "type": "Feature", "tippecanoe": { "layer": "7F5D84937AC81585558602351", "minzoom": 2, "maxzoom": 8 }, "properties": { "title": "豪萨人", "color": "#262626", "oid": "103:1535120175135", "tyid": "304001", "fontsize": 12, "halo": 0.8 }, "geometry": { "type": "Point", "coordinates": [ 6.240234, 12.726084 ] } }
{"year": "AD1127",  "type": "Feature", "tippecanoe": { "layer": "7F5D84937AC81585558602351", "minzoom": 2, "maxzoom": 8 }, "properties": { "title": "加涅姆帝国", "color": "#202020", "oid": "103:1535120174932", "tyid": "304000", "fontsize": 12, "halo": 0.8 }, "geometry": { "type": "Point", "coordinates": [ 15.908203, 12.897489 ] } }
{"year": "AD1127",  "type": "Feature", "tippecanoe": { "layer": "7F5D84937AC81585558602351", "minzoom": 2, "maxzoom": 8 }, "properties": { "title": "贝蒂-帕胡因人", "color": "#262626", "oid": "103:1535120175116", "tyid": "304001", "fontsize": 12, "halo": 0.8 }, "geometry": { "type": "Point", "coordinates": [ 13.798828, 1.230374 ] } }
{"year": "AD1127",  "type": "Feature", "tippecanoe": { "layer": "7F5D84937AC81585558602351", "minzoom": 2, "maxzoom": 8 }, "properties": { "title": "法蒂玛哈里发国", "color": "#202020", "oid": "103:1535120174896", "tyid": "304000", "fontsize": 12, "halo": 0.8 }, "geometry": { "type": "Point", "coordinates": [ 30.410156, 26.824071 ] } }
{"year": "AD1127",  "type": "Feature", "tippecanoe": { "layer": "7F5D84937AC81585558602351", "minzoom": 2, "maxzoom": 8 }, "properties": { "title": "贝都因人", "color": "#262626", "oid": "103:1537436001438", "tyid": "304001", "fontsize": 12, "halo": 0.8 }, "geometry": { "type": "Point", "coordinates": [ 44.648438, 25.005973 ] } }
{"year": "AD1127",  "type": "Feature", "tippecanoe": { "layer": "7F5D84937AC81585558602351", "minzoom": 2, "maxzoom": 8 }, "properties": { "title": "马库里亚王国", "color": "#202020", "oid": "103:1535120174936", "tyid": "304000", "fontsize": 12, "halo": 0.8 }, "geometry": { "type": "Point", "coordinates": [ 32.080078, 19.808054 ] } }
{"year": "AD1127",  "type": "Feature", "tippecanoe": { "layer": "7F5D84937AC81585558602351", "minzoom": 2, "maxzoom": 8 }, "properties": { "title": "卢欧诸部", "color": "#262626", "oid": "103:1537436001568", "tyid": "304001", "fontsize": 12, "halo": 0.8 }, "geometry": { "type": "Point", "coordinates": [ 31.640625, 5.878332 ] } }
{"year": "AD1127",  "type": "Feature", "tippecanoe": { "layer": "7F5D84937AC81585558602351", "minzoom": 2, "maxzoom": 8 }, "properties": { "title": "尼罗特人", "color": "#202020", "oid": "103:1537436001561", "tyid": "304000", "fontsize": 12, "halo": 0.8 }, "geometry": { "type": "Point", "coordinates": [ 30.761719, 1.142502 ] } }
{"year": "AD1127",  "type": "Feature", "tippecanoe": { "layer": "7F5D84937AC81585558602351", "minzoom": 2, "maxzoom": 8 }, "properties": { "title": "阿罗底亚王国", "color": "#202020", "oid": "103:1576922414365", "tyid": "304000", "fontsize": 12, "halo": 0.8 }, "geometry": { "type": "Point", "coordinates": [ 33.837891, 14.179186 ] } }
{"year": "AD1127",  "type": "Feature", "tippecanoe": { "layer": "7F5D84937AC81585558602351", "minzoom": 2, "maxzoom": 8 }, "properties": { "title": "雅库特人", "color": "#202020", "oid": "103:1535120175144", "tyid": "304000", "fontsize": 12, "halo": 0.8 }, "geometry": { "type": "Point", "coordinates": [ 65.566406, 59.756395 ] } }
{"year": "AD1127",  "type": "Feature", "tippecanoe": { "layer": "7F5D84937AC81585558602351", "minzoom": 2, "maxzoom": 8 }, "properties": { "title": "土库曼人", "color": "#262626", "oid": "103:1537436001434", "tyid": "304001", "fontsize": 12, "halo": 0.8 }, "geometry": { "type": "Point", "coordinates": [ 56.337891, 41.967659 ] } }
{"year": "AD1127",  "type": "Feature", "tippecanoe": { "layer": "7F5D84937AC81585558602351", "minzoom": 2, "maxzoom": 8 }, "properties": { "title": "花剌子模王朝", "color": "#202020", "oid": "103:1535120174989", "tyid": "304000", "fontsize": 12, "halo": 0.8 }, "geometry": { "type": "Point", "coordinates": [ 62.490234, 41.902277 ] } }
{"year": "AD1127",  "type": "Feature", "tippecanoe": { "layer": "7F5D84937AC81585558602351", "minzoom": 2, "maxzoom": 8 }, "properties": { "title": "库曼-钦察联盟", "color": "#262626", "oid": "103:1535120174995", "tyid": "304001", "fontsize": 12, "halo": 0.8 }, "geometry": { "type": "Point", "coordinates": [ 68.027344, 49.382373 ] } }
{"year": "AD1127",  "type": "Feature", "tippecanoe": { "layer": "7F5D84937AC81585558602351", "minzoom": 2, "maxzoom": 8 }, "properties": { "title": "葛逻禄", "color": "#262626", "oid": "103:1535120174993", "tyid": "304001", "fontsize": 12, "halo": 0.8 }, "geometry": { "type": "Point", "coordinates": [ 75.585938, 45.890008 ] } }
{"year": "AD1127",  "type": "Feature", "tippecanoe": { "layer": "7F5D84937AC81585558602351", "minzoom": 2, "maxzoom": 8 }, "properties": { "title": "东喀喇汗国", "color": "#202020", "oid": "103:1577244861172", "tyid": "304000", "fontsize": 12, "halo": 0.8 }, "geometry": { "type": "Point", "coordinates": [ 84.375000, 42.747012 ] } }
{"year": "AD1127",  "type": "Feature", "tippecanoe": { "layer": "7F5D84937AC81585558602351", "minzoom": 2, "maxzoom": 8 }, "properties": { "title": "塞尔柱帝国", "color": "#202020", "oid": "103:1535120174980", "tyid": "304000", "fontsize": 12, "halo": 0.8 }, "geometry": { "type": "Point", "coordinates": [ 54.052734, 34.016242 ] } }
{"year": "AD1127",  "type": "Feature", "tippecanoe": { "layer": "7F5D84937AC81585558602351", "minzoom": 2, "maxzoom": 8 }, "properties": { "title": "锡斯坦的纳斯里王朝", "color": "#262626", "oid": "103:1535120175002", "tyid": "304001", "fontsize": 12, "halo": 0.8 }, "geometry": { "type": "Point", "coordinates": [ 61.083984, 29.840644 ] } }
{"year": "AD1127",  "type": "Feature", "tippecanoe": { "layer": "7F5D84937AC81585558602351", "minzoom": 2, "maxzoom": 8 }, "properties": { "title": "俾路支人", "color": "#262626", "oid": "103:1535120175004", "tyid": "304001", "fontsize": 12, "halo": 0.8 }, "geometry": { "type": "Point", "coordinates": [ 62.753906, 26.824071 ] } }
{"year": "AD1127",  "type": "Feature", "tippecanoe": { "layer": "7F5D84937AC81585558602351", "minzoom": 2, "maxzoom": 8 }, "properties": { "title": "西喀喇汗国", "color": "#202020", "oid": "103:1535120174991", "tyid": "304000", "fontsize": 12, "halo": 0.8 }, "geometry": { "type": "Point", "coordinates": [ 69.785156, 40.713956 ] } }
{"year": "AD1127",  "type": "Feature", "tippecanoe": { "layer": "7F5D84937AC81585558602351", "minzoom": 2, "maxzoom": 8 }, "properties": { "title": "伽色尼王朝", "color": "#202020", "oid": "103:1535120174983", "tyid": "304000", "fontsize": 12, "halo": 0.8 }, "geometry": { "type": "Point", "coordinates": [ 69.609375, 31.728167 ] } }
{"year": "AD1127",  "type": "Feature", "tippecanoe": { "layer": "7F5D84937AC81585558602351", "minzoom": 2, "maxzoom": 8 }, "properties": { "title": "特里普里的卡拉丘里王朝", "color": "#202020", "oid": "103:1537436001247", "tyid": "304000", "fontsize": 12, "halo": 0.8 }, "geometry": { "type": "Point", "coordinates": [ 82.089844, 22.187405 ] } }
{"year": "AD1127",  "type": "Feature", "tippecanoe": { "layer": "7F5D84937AC81585558602351", "minzoom": 2, "maxzoom": 8 }, "properties": { "title": "波罗帝国", "color": "#202020", "oid": "103:1576922414357", "tyid": "304000", "fontsize": 12, "halo": 0.8 }, "geometry": { "type": "Point", "coordinates": [ 88.945312, 25.165173 ] } }
{"year": "AD1127",  "type": "Feature", "tippecanoe": { "layer": "7F5D84937AC81585558602351", "minzoom": 2, "maxzoom": 8 }, "properties": { "title": "西遮娄其帝国", "color": "#202020", "oid": "103:1576922414352", "tyid": "304000", "fontsize": 12, "halo": 0.8 }, "geometry": { "type": "Point", "coordinates": [ 77.783203, 19.145168 ] } }
{"year": "AD1127",  "type": "Feature", "tippecanoe": { "layer": "7F5D84937AC81585558602351", "minzoom": 2, "maxzoom": 8 }, "properties": { "title": "蒙古诸部", "color": "#202020", "oid": "103:1535120174781", "tyid": "304000", "fontsize": 12, "halo": 0.8 }, "geometry": { "type": "Point", "coordinates": [ 103.447266, 48.632909 ] } }
{"year": "AD1127",  "type": "Feature", "tippecanoe": { "layer": "7F5D84937AC81585558602351", "minzoom": 2, "maxzoom": 8 }, "properties": { "title": "金", "color": "#202020", "oid": "103:1535120174792", "tyid": "304000", "fontsize": 12, "halo": 0.8 }, "geometry": { "type": "Point", "coordinates": [ 123.486328, 45.089036 ] } }
{"year": "AD1127",  "type": "Feature", "tippecanoe": { "layer": "7F5D84937AC81585558602351", "minzoom": 2, "maxzoom": 8 }, "properties": { "title": "吐蕃诸部", "color": "#262626", "oid": "103:1535120174787", "tyid": "304001", "fontsize": 12, "halo": 0.8 }, "geometry": { "type": "Point", "coordinates": [ 90.615234, 31.728167 ] } }
{"year": "AD1127",  "type": "Feature", "tippecanoe": { "layer": "7F5D84937AC81585558602351", "minzoom": 2, "maxzoom": 8 }, "properties": { "title": "后理国", "color": "#202020", "oid": "103:1537436001226", "tyid": "304000", "fontsize": 12, "halo": 0.8 }, "geometry": { "type": "Point", "coordinates": [ 100.458984, 24.766785 ] } }
{"year": "AD1127",  "type": "Feature", "tippecanoe": { "layer": "7F5D84937AC81585558602351", "minzoom": 2, "maxzoom": 8 }, "properties": { "title": "西夏", "color": "#262626", "oid": "103:1535120174785", "tyid": "304001", "fontsize": 12, "halo": 0.8 }, "geometry": { "type": "Point", "coordinates": [ 106.699219, 39.707187 ] } }
{"year": "AD1127",  "type": "Feature", "tippecanoe": { "layer": "7F5D84937AC81585558602351", "minzoom": 2, "maxzoom": 8 }, "properties": { "title": "南宋", "color": "#202020", "oid": "103:1535120175013", "tyid": "304000", "fontsize": 12, "halo": 0.8 }, "geometry": { "type": "Point", "coordinates": [ 111.621094, 27.994401 ] } }
{"year": "AD1127",  "type": "Feature", "tippecanoe": { "layer": "7F5D84937AC81585558602351", "minzoom": 2, "maxzoom": 8 }, "properties": { "title": "蒲甘王国", "color": "#202020", "oid": "103:1535120175035", "tyid": "304000", "fontsize": 12, "halo": 0.8 }, "geometry": { "type": "Point", "coordinates": [ 95.976562, 20.220966 ] } }
{"year": "AD1127",  "type": "Feature", "tippecanoe": { "layer": "7F5D84937AC81585558602351", "minzoom": 2, "maxzoom": 8 }, "properties": { "title": "高棉帝国", "color": "#202020", "oid": "103:1535120175031", "tyid": "304000", "fontsize": 12, "halo": 0.8 }, "geometry": { "type": "Point", "coordinates": [ 103.183594, 14.604847 ] } }
{"year": "AD1127",  "type": "Feature", "tippecanoe": { "layer": "7F5D84937AC81585558602351", "minzoom": 2, "maxzoom": 8 }, "properties": { "title": "日本平安时代", "color": "#202020", "oid": "103:1576922414370", "tyid": "304000", "fontsize": 12, "halo": 0.8 }, "geometry": { "type": "Point", "coordinates": [ 138.955078, 36.315125 ] } }
{"year": "AD1127",  "type": "Feature", "tippecanoe": { "layer": "7F5D84937AC81585558602351", "minzoom": 2, "maxzoom": 8 }, "properties": { "title": "班图人诸部", "color": "#262626", "oid": "103:1535120175112", "tyid": "304001", "fontsize": 12, "halo": 0.8 }, "geometry": { "type": "Point", "coordinates": [ 27.070312, -5.528511 ] } }
{"year": "AD1127",  "type": "Feature", "tippecanoe": { "layer": "7F5D84937AC81585558602351", "minzoom": 2, "maxzoom": 8 }, "properties": { "title": "科伊桑人", "color": "#262626", "oid": "103:1535120175105", "tyid": "304001", "fontsize": 12, "halo": 0.8 }, "geometry": { "type": "Point", "coordinates": [ 24.521484, -20.961440 ] } }
{"year": "AD1127",  "type": "Feature", "tippecanoe": { "layer": "7F5D84937AC81585558602351", "minzoom": 2, "maxzoom": 8 }, "properties": { "title": "基卢瓦苏丹国", "color": "#262626", "oid": "103:1535120175107", "tyid": "304001", "fontsize": 12, "halo": 0.8 }, "geometry": { "type": "Point", "coordinates": [ 39.375000, -12.726084 ] } }
{"year": "AD1127",  "type": "Feature", "tippecanoe": { "layer": "7F5D84937AC81585558602351", "minzoom": 2, "maxzoom": 8 }, "properties": { "title": "三佛齐王国", "color": "#202020", "oid": "103:1537436001547", "tyid": "304000", "fontsize": 12, "halo": 0.8 }, "geometry": { "type": "Point", "coordinates": [ 101.513672, -0.439449 ] } }
{"year": "AD1127",  "type": "Feature", "tippecanoe": { "layer": "7F5D851754001585558602331", "minzoom": 2, "maxzoom": 8 }, "properties": { "title": "玛雅文明[后古典时期]", "color": "#0056E7", "oid": "103:1576922414380", "tyid": "304000", "fontsize": 12, "halo": 1.8 }, "geometry": { "type": "Point", "coordinates": [ -89.472656, 18.562947 ] } }
{"year": "AD1127",  "type": "Feature", "tippecanoe": { "layer": "7F5D851754001585558602331", "minzoom": 2, "maxzoom": 8 }, "properties": { "title": "冰岛自由邦", "color": "#0056E7", "oid": "103:1535120175093", "tyid": "304000", "fontsize": 12, "halo": 1.8 }, "geometry": { "type": "Point", "coordinates": [ -19.072266, 64.811557 ] } }
{"year": "AD1127",  "type": "Feature", "tippecanoe": { "layer": "7F5D851754001585558602331", "minzoom": 2, "maxzoom": 8 }, "properties": { "title": "苏格兰王国", "color": "#0056E7", "oid": "103:1535120175058", "tyid": "304000", "fontsize": 12, "halo": 1.8 }, "geometry": { "type": "Point", "coordinates": [ -4.042969, 56.607885 ] } }
{"year": "AD1127",  "type": "Feature", "tippecanoe": { "layer": "7F5D851754001585558602331", "minzoom": 2, "maxzoom": 8 }, "properties": { "title": "葡萄牙第二伯国", "color": "#0056E7", "oid": "103:1576922414377", "tyid": "304000", "fontsize": 12, "halo": 1.8 }, "geometry": { "type": "Point", "coordinates": [ -7.822266, 41.178654 ] } }
{"year": "AD1127",  "type": "Feature", "tippecanoe": { "layer": "7F5D851754001585558602331", "minzoom": 2, "maxzoom": 8 }, "properties": { "title": "莱昂王国", "color": "#0056E7", "oid": "103:1537436001509", "tyid": "304000", "fontsize": 12, "halo": 1.8 }, "geometry": { "type": "Point", "coordinates": [ -6.416016, 42.617791 ] } }
{"year": "AD1127",  "type": "Feature", "tippecanoe": { "layer": "7F5D851754001585558602331", "minzoom": 2, "maxzoom": 8 }, "properties": { "title": "布列塔尼公国", "color": "#0056E7", "oid": "103:1535120175091", "tyid": "304000", "fontsize": 12, "halo": 1.8 }, "geometry": { "type": "Point", "coordinates": [ -2.636719, 47.989922 ] } }
{"year": "AD1127",  "type": "Feature", "tippecanoe": { "layer": "7F5D851754001585558602331", "minzoom": 2, "maxzoom": 8 }, "properties": { "title": "潘普洛纳王国", "color": "#0056E7", "oid": "103:1577244861179", "tyid": "304000", "fontsize": 12, "halo": 1.8 }, "geometry": { "type": "Point", "coordinates": [ -2.197266, 42.682435 ] } }
{"year": "AD1127",  "type": "Feature", "tippecanoe": { "layer": "7F5D851754001585558602331", "minzoom": 2, "maxzoom": 8 }, "properties": { "title": "阿拉贡王国", "color": "#0056E7", "oid": "103:1535120174795", "tyid": "304000", "fontsize": 12, "halo": 1.8 }, "geometry": { "type": "Point", "coordinates": [ -0.527344, 41.705729 ] } }
{"year": "AD1127",  "type": "Feature", "tippecanoe": { "layer": "7F5D851754001585558602331", "minzoom": 2, "maxzoom": 8 }, "properties": { "title": "穆瓦希德王朝", "color": "#0056E7", "oid": "103:1537436001351", "tyid": "304000", "fontsize": 12, "halo": 1.8 }, "geometry": { "type": "Point", "coordinates": [ -7.822266, 30.751278 ] } }
{"year": "AD1127",  "type": "Feature", "tippecanoe": { "layer": "7F5D851754001585558602331", "minzoom": 2, "maxzoom": 8 }, "properties": { "title": "塔克鲁尔王国", "color": "#0056E7", "oid": "103:1535120174919", "tyid": "304000", "fontsize": 12, "halo": 1.8 }, "geometry": { "type": "Point", "coordinates": [ -13.359375, 16.551962 ] } }
{"year": "AD1127",  "type": "Feature", "tippecanoe": { "layer": "7F5D851754001585558602331", "minzoom": 2, "maxzoom": 8 }, "properties": { "title": "加纳帝国", "color": "#0056E7", "oid": "103:1535120174921", "tyid": "304000", "fontsize": 12, "halo": 1.8 }, "geometry": { "type": "Point", "coordinates": [ -6.855469, 13.923404 ] } }
{"year": "AD1127",  "type": "Feature", "tippecanoe": { "layer": "7F5D851754001585558602331", "minzoom": 2, "maxzoom": 8 }, "properties": { "title": "莫西人诸国", "color": "#0056E7", "oid": "103:1582720889981", "tyid": "304000", "fontsize": 12, "halo": 1.8 }, "geometry": { "type": "Point", "coordinates": [ -2.373047, 13.752725 ] } }
{"year": "AD1127",  "type": "Feature", "tippecanoe": { "layer": "7F5D851754001585558602331", "minzoom": 2, "maxzoom": 8 }, "properties": { "title": "阿坎人", "color": "#0056E7", "oid": "103:1535120175125", "tyid": "304001", "fontsize": 12, "halo": 1.6 }, "geometry": { "type": "Point", "coordinates": [ -2.285156, 6.315299 ] } }
{"year": "AD1127",  "type": "Feature", "tippecanoe": { "layer": "7F5D851754001585558602331", "minzoom": 2, "maxzoom": 8 }, "properties": { "title": "丹麦王国[维京时期]", "color": "#0056E7", "oid": "103:1577244861308", "tyid": "304000", "fontsize": 12, "halo": 1.8 }, "geometry": { "type": "Point", "coordinates": [ 9.140625, 55.973798 ] } }
{"year": "AD1127",  "type": "Feature", "tippecanoe": { "layer": "7F5D851754001585558602331", "minzoom": 2, "maxzoom": 8 }, "properties": { "title": "巴塞罗那伯国", "color": "#0056E7", "oid": "103:1535120175073", "tyid": "304000", "fontsize": 12, "halo": 1.8 }, "geometry": { "type": "Point", "coordinates": [ 2.109375, 42.228517 ] } }
{"year": "AD1127",  "type": "Feature", "tippecanoe": { "layer": "7F5D851754001585558602331", "minzoom": 2, "maxzoom": 8 }, "properties": { "title": "古普鲁士人", "color": "#0056E7", "oid": "103:1535120175082", "tyid": "304002", "fontsize": 12, "halo": 1.6 }, "geometry": { "type": "Point", "coordinates": [ 21.093750, 54.265224 ] } }
{"year": "AD1127",  "type": "Feature", "tippecanoe": { "layer": "7F5D851754001585558602331", "minzoom": 2, "maxzoom": 8 }, "properties": { "title": "塞尔维亚大公国", "color": "#0056E7", "oid": "103:1535120175089", "tyid": "304000", "fontsize": 12, "halo": 1.8 }, "geometry": { "type": "Point", "coordinates": [ 19.423828, 43.516689 ] } }
{"year": "AD1127",  "type": "Feature", "tippecanoe": { "layer": "7F5D851754001585558602331", "minzoom": 2, "maxzoom": 8 }, "properties": { "title": "立陶宛人", "color": "#0056E7", "oid": "103:1537436001519", "tyid": "304000", "fontsize": 12, "halo": 1.8 }, "geometry": { "type": "Point", "coordinates": [ 22.939453, 56.218923 ] } }
{"year": "AD1127",  "type": "Feature", "tippecanoe": { "layer": "7F5D851754001585558602331", "minzoom": 2, "maxzoom": 8 }, "properties": { "title": "古爱沙尼亚人", "color": "#0056E7", "oid": "103:1576922414375", "tyid": "304000", "fontsize": 12, "halo": 1.8 }, "geometry": { "type": "Point", "coordinates": [ 25.400391, 58.309489 ] } }
{"year": "AD1127",  "type": "Feature", "tippecanoe": { "layer": "7F5D851754001585558602331", "minzoom": 2, "maxzoom": 8 }, "properties": { "title": "波洛茨克公国", "color": "#0056E7", "oid": "103:1535120175040", "tyid": "304000", "fontsize": 12, "halo": 1.8 }, "geometry": { "type": "Point", "coordinates": [ 27.333984, 54.775346 ] } }
{"year": "AD1127",  "type": "Feature", "tippecanoe": { "layer": "7F5D851754001585558602331", "minzoom": 2, "maxzoom": 8 }, "properties": { "title": "捷列博夫利亚公国", "color": "#0056E7", "oid": "103:1535120175044", "tyid": "304000", "fontsize": 12, "halo": 1.8 }, "geometry": { "type": "Point", "coordinates": [ 24.785156, 48.980217 ] } }
{"year": "AD1127",  "type": "Feature", "tippecanoe": { "layer": "7F5D851754001585558602331", "minzoom": 2, "maxzoom": 8 }, "properties": { "title": "佩列亚斯拉夫公国", "color": "#0056E7", "oid": "103:1576922414372", "tyid": "304000", "fontsize": 12, "halo": 1.8 }, "geometry": { "type": "Point", "coordinates": [ 32.431641, 50.345460 ] } }
{"year": "AD1127",  "type": "Feature", "tippecanoe": { "layer": "7F5D851754001585558602331", "minzoom": 2, "maxzoom": 8 }, "properties": { "title": "切尔克斯人", "color": "#0056E7", "oid": "103:1535120174854", "tyid": "304001", "fontsize": 12, "halo": 1.6 }, "geometry": { "type": "Point", "coordinates": [ 39.375000, 44.653024 ] } }
{"year": "AD1127",  "type": "Feature", "tippecanoe": { "layer": "7F5D851754001585558602331", "minzoom": 2, "maxzoom": 8 }, "properties": { "title": "柏柏尔人诸部", "color": "#0056E7", "oid": "103:1537436001359", "tyid": "304002", "fontsize": 12, "halo": 1.6 }, "geometry": { "type": "Point", "coordinates": [ 1.494141, 33.211116 ] } }
{"year": "AD1127",  "type": "Feature", "tippecanoe": { "layer": "7F5D851754001585558602331", "minzoom": 2, "maxzoom": 8 }, "properties": { "title": "哈马迪王朝", "color": "#0056E7", "oid": "103:1585278505388", "tyid": "304000", "fontsize": 12, "halo": 1.8 }, "geometry": { "type": "Point", "coordinates": [ 5.097656, 35.889050 ] } }
{"year": "AD1127",  "type": "Feature", "tippecanoe": { "layer": "7F5D851754001585558602331", "minzoom": 2, "maxzoom": 8 }, "properties": { "title": "瓦努希拉尔联盟", "color": "#0056E7", "oid": "103:1537436001344", "tyid": "304001", "fontsize": 12, "halo": 1.6 }, "geometry": { "type": "Point", "coordinates": [ 7.998047, 34.524661 ] } }
{"year": "AD1127",  "type": "Feature", "tippecanoe": { "layer": "7F5D851754001585558602331", "minzoom": 2, "maxzoom": 8 }, "properties": { "title": "瓦努贾米王朝", "color": "#0056E7", "oid": "103:1537436001356", "tyid": "304001", "fontsize": 12, "halo": 1.6 }, "geometry": { "type": "Point", "coordinates": [ 10.107422, 33.211116 ] } }
{"year": "AD1127",  "type": "Feature", "tippecanoe": { "layer": "7F5D851754001585558602331", "minzoom": 2, "maxzoom": 8 }, "properties": { "title": "加奥帝国", "color": "#0056E7", "oid": "103:1535120174931", "tyid": "304000", "fontsize": 12, "halo": 1.8 }, "geometry": { "type": "Point", "coordinates": [ 0.527344, 16.551962 ] } }
{"year": "AD1127",  "type": "Feature", "tippecanoe": { "layer": "7F5D851754001585558602331", "minzoom": 2, "maxzoom": 8 }, "properties": { "title": "伊博人", "color": "#0056E7", "oid": "103:1537436001574", "tyid": "304001", "fontsize": 12, "halo": 1.6 }, "geometry": { "type": "Point", "coordinates": [ 9.140625, 6.140555 ] } }
{"year": "AD1127",  "type": "Feature", "tippecanoe": { "layer": "7F5D851754001585558602331", "minzoom": 2, "maxzoom": 8 }, "properties": { "title": "鲁姆苏丹国", "color": "#0056E7", "oid": "103:1537436001337", "tyid": "304000", "fontsize": 12, "halo": 1.8 }, "geometry": { "type": "Point", "coordinates": [ 31.904297, 38.616870 ] } }
{"year": "AD1127",  "type": "Feature", "tippecanoe": { "layer": "7F5D851754001585558602331", "minzoom": 2, "maxzoom": 8 }, "properties": { "title": "达尼什曼德贝伊国", "color": "#0056E7", "oid": "103:1535120174862", "tyid": "304000", "fontsize": 12, "halo": 1.8 }, "geometry": { "type": "Point", "coordinates": [ 35.332031, 39.707187 ] } }
{"year": "AD1127",  "type": "Feature", "tippecanoe": { "layer": "7F5D851754001585558602331", "minzoom": 2, "maxzoom": 8 }, "properties": { "title": "门居切克贝伊国", "color": "#0056E7", "oid": "103:1535120174871", "tyid": "304000", "fontsize": 12, "halo": 1.8 }, "geometry": { "type": "Point", "coordinates": [ 38.847656, 39.504041 ] } }
{"year": "AD1127",  "type": "Feature", "tippecanoe": { "layer": "7F5D851754001585558602331", "minzoom": 2, "maxzoom": 8 }, "properties": { "title": "埃德萨伯国", "color": "#0056E7", "oid": "103:1535120174875", "tyid": "304000", "fontsize": 12, "halo": 1.8 }, "geometry": { "type": "Point", "coordinates": [ 37.968750, 37.439974 ] } }
{"year": "AD1127",  "type": "Feature", "tippecanoe": { "layer": "7F5D851754001585558602331", "minzoom": 2, "maxzoom": 8 }, "properties": { "title": "萨尔图克贝伊国", "color": "#0056E7", "oid": "103:1535120174857", "tyid": "304000", "fontsize": 12, "halo": 1.8 }, "geometry": { "type": "Point", "coordinates": [ 40.869141, 40.178873 ] } }
{"year": "AD1127",  "type": "Feature", "tippecanoe": { "layer": "7F5D851754001585558602331", "minzoom": 2, "maxzoom": 8 }, "properties": { "title": "赞吉王朝", "color": "#0056E7", "oid": "103:1535120174873", "tyid": "304000", "fontsize": 12, "halo": 1.8 }, "geometry": { "type": "Point", "coordinates": [ 41.484375, 36.738884 ] } }
{"year": "AD1127",  "type": "Feature", "tippecanoe": { "layer": "7F5D851754001585558602331", "minzoom": 2, "maxzoom": 8 }, "properties": { "title": "阿赫拉特贝伊国", "color": "#0056E7", "oid": "103:1537436001299", "tyid": "304000", "fontsize": 12, "halo": 1.8 }, "geometry": { "type": "Point", "coordinates": [ 43.593750, 38.479395 ] } }
{"year": "AD1127",  "type": "Feature", "tippecanoe": { "layer": "7F5D851754001585558602331", "minzoom": 2, "maxzoom": 8 }, "properties": { "title": "耶路撒冷拉丁王国", "color": "#0056E7", "oid": "103:1537436001332", "tyid": "304000", "fontsize": 12, "halo": 1.8 }, "geometry": { "type": "Point", "coordinates": [ 35.244141, 31.503629 ] } }
{"year": "AD1127",  "type": "Feature", "tippecanoe": { "layer": "7F5D851754001585558602331", "minzoom": 2, "maxzoom": 8 }, "properties": { "title": "达优人", "color": "#0056E7", "oid": "103:1535120175137", "tyid": "304001", "fontsize": 12, "halo": 1.6 }, "geometry": { "type": "Point", "coordinates": [ 24.521484, 17.056785 ] } }
{"year": "AD1127",  "type": "Feature", "tippecanoe": { "layer": "7F5D851754001585558602331", "minzoom": 2, "maxzoom": 8 }, "properties": { "title": "贝扎人", "color": "#0056E7", "oid": "103:1535120174940", "tyid": "304001", "fontsize": 12, "halo": 1.6 }, "geometry": { "type": "Point", "coordinates": [ 36.123047, 19.228177 ] } }
{"year": "AD1127",  "type": "Feature", "tippecanoe": { "layer": "7F5D851754001585558602331", "minzoom": 2, "maxzoom": 8 }, "properties": { "title": "扎格维王朝", "color": "#0056E7", "oid": "103:1537436001386", "tyid": "304000", "fontsize": 12, "halo": 1.8 }, "geometry": { "type": "Point", "coordinates": [ 38.583984, 13.068777 ] } }
{"year": "AD1127",  "type": "Feature", "tippecanoe": { "layer": "7F5D851754001585558602331", "minzoom": 2, "maxzoom": 8 }, "properties": { "title": "麦加埃米尔国", "color": "#0056E7", "oid": "103:1576922414367", "tyid": "304000", "fontsize": 12, "halo": 1.8 }, "geometry": { "type": "Point", "coordinates": [ 40.078125, 21.861499 ] } }
{"year": "AD1127",  "type": "Feature", "tippecanoe": { "layer": "7F5D851754001585558602331", "minzoom": 2, "maxzoom": 8 }, "properties": { "title": "苏莱曼尼王朝", "color": "#0056E7", "oid": "103:1535120174970", "tyid": "304000", "fontsize": 12, "halo": 1.8 }, "geometry": { "type": "Point", "coordinates": [ 41.660156, 19.062118 ] } }
{"year": "AD1127",  "type": "Feature", "tippecanoe": { "layer": "7F5D851754001585558602331", "minzoom": 2, "maxzoom": 8 }, "properties": { "title": "萨里哈王朝", "color": "#0056E7", "oid": "103:1537436001397", "tyid": "304000", "fontsize": 12, "halo": 1.8 }, "geometry": { "type": "Point", "coordinates": [ 44.648438, 14.774883 ] } }
{"year": "AD1127",  "type": "Feature", "tippecanoe": { "layer": "7F5D851754001585558602331", "minzoom": 2, "maxzoom": 8 }, "properties": { "title": "锡达马人", "color": "#0056E7", "oid": "103:1537436001395", "tyid": "304001", "fontsize": 12, "halo": 1.6 }, "geometry": { "type": "Point", "coordinates": [ 35.771484, 4.390229 ] } }
{"year": "AD1127",  "type": "Feature", "tippecanoe": { "layer": "7F5D851754001585558602331", "minzoom": 2, "maxzoom": 8 }, "properties": { "title": "谢瓦苏丹国", "color": "#0056E7", "oid": "103:1537436001391", "tyid": "304000", "fontsize": 12, "halo": 1.8 }, "geometry": { "type": "Point", "coordinates": [ 39.990234, 8.146243 ] } }
{"year": "AD1127",  "type": "Feature", "tippecanoe": { "layer": "7F5D851754001585558602331", "minzoom": 2, "maxzoom": 8 }, "properties": { "title": "伏尔加保加利亚汗国", "color": "#0056E7", "oid": "103:1537436001450", "tyid": "304000", "fontsize": 12, "halo": 1.8 }, "geometry": { "type": "Point", "coordinates": [ 47.373047, 55.028022 ] } }
{"year": "AD1127",  "type": "Feature", "tippecanoe": { "layer": "7F5D851754001585558602331", "minzoom": 2, "maxzoom": 8 }, "properties": { "title": "巴什基尔人", "color": "#0056E7", "oid": "103:1535120175141", "tyid": "304000", "fontsize": 12, "halo": 1.8 }, "geometry": { "type": "Point", "coordinates": [ 56.953125, 52.908902 ] } }
{"year": "AD1127",  "type": "Feature", "tippecanoe": { "layer": "7F5D851754001585558602331", "minzoom": 2, "maxzoom": 8 }, "properties": { "title": "阿赫马蒂斯王朝", "color": "#0056E7", "oid": "103:1537436001411", "tyid": "304000", "fontsize": 12, "halo": 1.8 }, "geometry": { "type": "Point", "coordinates": [ 45.966797, 37.857507 ] } }
{"year": "AD1127",  "type": "Feature", "tippecanoe": { "layer": "7F5D851754001585558602331", "minzoom": 2, "maxzoom": 8 }, "properties": { "title": "卡库伊埃米尔国", "color": "#0056E7", "oid": "103:1576922414368", "tyid": "304000", "fontsize": 12, "halo": 1.8 }, "geometry": { "type": "Point", "coordinates": [ 53.789062, 31.653381 ] } }
{"year": "AD1127",  "type": "Feature", "tippecanoe": { "layer": "7F5D851754001585558602331", "minzoom": 2, "maxzoom": 8 }, "properties": { "title": "也门的哈姆达尼王朝", "color": "#0056E7", "oid": "103:1585278505524", "tyid": "304000", "fontsize": 12, "halo": 1.8 }, "geometry": { "type": "Point", "coordinates": [ 46.406250, 16.383391 ] } }
{"year": "AD1127",  "type": "Feature", "tippecanoe": { "layer": "7F5D851754001585558602331", "minzoom": 2, "maxzoom": 8 }, "properties": { "title": "祖拉伊王朝", "color": "#0056E7", "oid": "103:1537436001404", "tyid": "304002", "fontsize": 12, "halo": 1.6 }, "geometry": { "type": "Point", "coordinates": [ 48.076172, 15.029686 ] } }
{"year": "AD1127",  "type": "Feature", "tippecanoe": { "layer": "7F5D851754001585558602331", "minzoom": 2, "maxzoom": 8 }, "properties": { "title": "古尔王朝", "color": "#0056E7", "oid": "103:1535120174985", "tyid": "304000", "fontsize": 12, "halo": 1.8 }, "geometry": { "type": "Point", "coordinates": [ 68.554688, 35.389050 ] } }
{"year": "AD1127",  "type": "Feature", "tippecanoe": { "layer": "7F5D851754001585558602331", "minzoom": 2, "maxzoom": 8 }, "properties": { "title": "苏姆拉王朝", "color": "#0056E7", "oid": "103:1537436001444", "tyid": "304000", "fontsize": 12, "halo": 1.8 }, "geometry": { "type": "Point", "coordinates": [ 68.554688, 26.588527 ] } }
{"year": "AD1127",  "type": "Feature", "tippecanoe": { "layer": "7F5D851754001585558602331", "minzoom": 2, "maxzoom": 8 }, "properties": { "title": "索兰基王朝", "color": "#0056E7", "oid": "103:1576922414350", "tyid": "304000", "fontsize": 12, "halo": 1.8 }, "geometry": { "type": "Point", "coordinates": [ 71.367188, 22.024546 ] } }
{"year": "AD1127",  "type": "Feature", "tippecanoe": { "layer": "7F5D851754001585558602331", "minzoom": 2, "maxzoom": 8 }, "properties": { "title": "萨姆巴尔的乔汉王朝", "color": "#0056E7", "oid": "103:1576922414348", "tyid": "304000", "fontsize": 12, "halo": 1.8 }, "geometry": { "type": "Point", "coordinates": [ 74.443359, 27.215556 ] } }
{"year": "AD1127",  "type": "Feature", "tippecanoe": { "layer": "7F5D851754001585558602331", "minzoom": 2, "maxzoom": 8 }, "properties": { "title": "帕拉玛拉王朝", "color": "#0056E7", "oid": "103:1535120174803", "tyid": "304000", "fontsize": 12, "halo": 1.8 }, "geometry": { "type": "Point", "coordinates": [ 75.673828, 24.527135 ] } }
{"year": "AD1127",  "type": "Feature", "tippecanoe": { "layer": "7F5D851754001585558602331", "minzoom": 2, "maxzoom": 8 }, "properties": { "title": "哥霍多伏罗王朝", "color": "#0056E7", "oid": "103:1576922414347", "tyid": "304000", "fontsize": 12, "halo": 1.8 }, "geometry": { "type": "Point", "coordinates": [ 80.595703, 27.527758 ] } }
{"year": "AD1127",  "type": "Feature", "tippecanoe": { "layer": "7F5D851754001585558602331", "minzoom": 2, "maxzoom": 8 }, "properties": { "title": "昌德拉王朝", "color": "#0056E7", "oid": "103:1535120174805", "tyid": "304000", "fontsize": 12, "halo": 1.8 }, "geometry": { "type": "Point", "coordinates": [ 79.541016, 25.324167 ] } }
{"year": "AD1127",  "type": "Feature", "tippecanoe": { "layer": "7F5D851754001585558602331", "minzoom": 2, "maxzoom": 8 }, "properties": { "title": "曷萨拉帝国", "color": "#0056E7", "oid": "103:1576922414353", "tyid": "304000", "fontsize": 12, "halo": 1.8 }, "geometry": { "type": "Point", "coordinates": [ 74.970703, 15.284185 ] } }
{"year": "AD1127",  "type": "Feature", "tippecanoe": { "layer": "7F5D851754001585558602331", "minzoom": 2, "maxzoom": 8 }, "properties": { "title": "东恒伽王朝", "color": "#0056E7", "oid": "103:1535120174817", "tyid": "304000", "fontsize": 12, "halo": 1.8 }, "geometry": { "type": "Point", "coordinates": [ 84.375000, 19.725342 ] } }
{"year": "AD1127",  "type": "Feature", "tippecanoe": { "layer": "7F5D851754001585558602331", "minzoom": 2, "maxzoom": 8 }, "properties": { "title": "犀那王朝", "color": "#0056E7", "oid": "103:1535120174819", "tyid": "304000", "fontsize": 12, "halo": 1.8 }, "geometry": { "type": "Point", "coordinates": [ 86.484375, 21.943046 ] } }
{"year": "AD1127",  "type": "Feature", "tippecanoe": { "layer": "7F5D851754001585558602331", "minzoom": 2, "maxzoom": 8 }, "properties": { "title": "波隆拉努沃王国", "color": "#0056E7", "oid": "103:1576922414356", "tyid": "304000", "fontsize": 12, "halo": 1.8 }, "geometry": { "type": "Point", "coordinates": [ 80.683594, 7.623887 ] } }
{"year": "AD1127",  "type": "Feature", "tippecanoe": { "layer": "7F5D851754001585558602331", "minzoom": 2, "maxzoom": 8 }, "properties": { "title": "若开诸国", "color": "#0056E7", "oid": "103:1537436001545", "tyid": "304000", "fontsize": 12, "halo": 1.8 }, "geometry": { "type": "Point", "coordinates": [ 93.339844, 20.961440 ] } }
{"year": "AD1127",  "type": "Feature", "tippecanoe": { "layer": "7F5D851754001585558602331", "minzoom": 2, "maxzoom": 8 }, "properties": { "title": "骇黎朋猜国", "color": "#0056E7", "oid": "103:1576922414374", "tyid": "304000", "fontsize": 12, "halo": 1.8 }, "geometry": { "type": "Point", "coordinates": [ 99.492188, 18.312811 ] } }
{"year": "AD1127",  "type": "Feature", "tippecanoe": { "layer": "7F5D851754001585558602331", "minzoom": 2, "maxzoom": 8 }, "properties": { "title": "大越国", "color": "#0056E7", "oid": "103:1537436001477", "tyid": "304000", "fontsize": 12, "halo": 1.8 }, "geometry": { "type": "Point", "coordinates": [ 105.117188, 19.642588 ] } }
{"year": "AD1127",  "type": "Feature", "tippecanoe": { "layer": "7F5D851754001585558602331", "minzoom": 2, "maxzoom": 8 }, "properties": { "title": "占婆国", "color": "#0056E7", "oid": "103:1537436001479", "tyid": "304000", "fontsize": 12, "halo": 1.8 }, "geometry": { "type": "Point", "coordinates": [ 108.808594, 13.410994 ] } }
{"year": "AD1127",  "type": "Feature", "tippecanoe": { "layer": "7F5D851754001585558602331", "minzoom": 2, "maxzoom": 8 }, "properties": { "title": "高丽", "color": "#0056E7", "oid": "103:1535120175015", "tyid": "304000", "fontsize": 12, "halo": 1.8 }, "geometry": { "type": "Point", "coordinates": [ 127.705078, 37.090240 ] } }
{"year": "AD1127",  "type": "Feature", "tippecanoe": { "layer": "7F5D851754001585558602331", "minzoom": 2, "maxzoom": 8 }, "properties": { "title": "虾夷", "color": "#0056E7", "oid": "103:1535120175021", "tyid": "304002", "fontsize": 12, "halo": 1.6 }, "geometry": { "type": "Point", "coordinates": [ 142.558594, 43.389082 ] } }
{"year": "AD1127",  "type": "Feature", "tippecanoe": { "layer": "7F5D851754001585558602331", "minzoom": 2, "maxzoom": 8 }, "properties": { "title": "加鲁王国", "color": "#0056E7", "oid": "103:1535120174824", "tyid": "304000", "fontsize": 12, "halo": 1.8 }, "geometry": { "type": "Point", "coordinates": [ 108.193359, -7.013668 ] } }
{"year": "AD1127",  "type": "Feature", "tippecanoe": { "layer": "7F5D851754001585558602331", "minzoom": 2, "maxzoom": 8 }, "properties": { "title": "谏义里国", "color": "#0056E7", "oid": "103:1535120174826", "tyid": "304000", "fontsize": 12, "halo": 1.8 }, "geometry": { "type": "Point", "coordinates": [ 110.742188, -7.449624 ] } }
{"year": "AD1127",  "type": "Feature", "tippecanoe": { "layer": "7F5D851754001585558602331", "minzoom": 2, "maxzoom": 8 }, "properties": { "title": "戎牙路王国", "color": "#0056E7", "oid": "103:1576922414359", "tyid": "304000", "fontsize": 12, "halo": 1.8 }, "geometry": { "type": "Point", "coordinates": [ 112.939453, -7.972198 ] } }
{"year": "AD1127",  "type": "Feature", "tippecanoe": { "layer": "7F5D85175C501585558602329", "minzoom": 2, "maxzoom": 8 }, "properties": { "title": "奇穆王国", "color": "#202020", "oid": "103:1535120175155", "tyid": "304000", "fontsize": 12, "halo": 0.8 }, "geometry": { "type": "Point", "coordinates": [ -79.189453, -7.188101 ] } }
{"year": "AD1127",  "type": "Feature", "tippecanoe": { "layer": "7F5D85175C501585558602329", "minzoom": 2, "maxzoom": 8 }, "properties": { "title": "威尼斯共和国", "color": "#202020", "oid": "103:1535120175051", "tyid": "304000", "fontsize": 12, "halo": 0.8 }, "geometry": { "type": "Point", "coordinates": [ 13.710938, 45.213004 ] } }
{"year": "AD1127",  "type": "Feature", "tippecanoe": { "layer": "7F5D85175C501585558602329", "minzoom": 2, "maxzoom": 8 }, "properties": { "title": "教皇国", "color": "#202020", "oid": "103:1535120175076", "tyid": "304000", "fontsize": 12, "halo": 0.8 }, "geometry": { "type": "Point", "coordinates": [ 12.568359, 42.098222 ] } }
{"year": "AD1127",  "type": "Feature", "tippecanoe": { "layer": "7F5D85175C501585558602329", "minzoom": 2, "maxzoom": 8 }, "properties": { "title": "阿兰王国", "color": "#202020", "oid": "103:1535120174851", "tyid": "304000", "fontsize": 12, "halo": 0.8 }, "geometry": { "type": "Point", "coordinates": [ 43.769531, 43.197167 ] } }
{"year": "AD1127",  "type": "Feature", "tippecanoe": { "layer": "7F5D85175C501585558602329", "minzoom": 2, "maxzoom": 8 }, "properties": { "title": "兹里王朝", "color": "#202020", "oid": "103:1535120174902", "tyid": "304000", "fontsize": 12, "halo": 0.8 }, "geometry": { "type": "Point", "coordinates": [ 10.458984, 35.245619 ] } }
{"year": "AD1127",  "type": "Feature", "tippecanoe": { "layer": "7F5D85175C501585558602329", "minzoom": 2, "maxzoom": 8 }, "properties": { "title": "鲁贝尼亲王国", "color": "#202020", "oid": "103:1535120174878", "tyid": "304000", "fontsize": 12, "halo": 0.8 }, "geometry": { "type": "Point", "coordinates": [ 36.123047, 37.579413 ] } }
{"year": "AD1127",  "type": "Feature", "tippecanoe": { "layer": "7F5D85175C501585558602329", "minzoom": 2, "maxzoom": 8 }, "properties": { "title": "安条克公国", "color": "#202020", "oid": "103:1537436001324", "tyid": "304000", "fontsize": 12, "halo": 0.8 }, "geometry": { "type": "Point", "coordinates": [ 36.474609, 36.031332 ] } }
{"year": "AD1127",  "type": "Feature", "tippecanoe": { "layer": "7F5D85175C501585558602329", "minzoom": 2, "maxzoom": 8 }, "properties": { "title": "尼扎里伊思马里国[伊朗]", "color": "#262626", "oid": "103:1577244861149", "tyid": "304002", "fontsize": 12, "halo": 0.8 }, "geometry": { "type": "Point", "coordinates": [ 36.474609, 35.173808 ] } }
{"year": "AD1127",  "type": "Feature", "tippecanoe": { "layer": "7F5D85175C501585558602329", "minzoom": 2, "maxzoom": 8 }, "properties": { "title": "的黎波里伯国", "color": "#202020", "oid": "103:1535120174883", "tyid": "304000", "fontsize": 12, "halo": 0.8 }, "geometry": { "type": "Point", "coordinates": [ 35.771484, 34.161818 ] } }
{"year": "AD1127",  "type": "Feature", "tippecanoe": { "layer": "7F5D85175C501585558602329", "minzoom": 2, "maxzoom": 8 }, "properties": { "title": "布里迪王朝", "color": "#202020", "oid": "103:1535120174890", "tyid": "304000", "fontsize": 12, "halo": 0.8 }, "geometry": { "type": "Point", "coordinates": [ 36.210938, 33.578015 ] } }
{"year": "AD1127",  "type": "Feature", "tippecanoe": { "layer": "7F5D85175C501585558602329", "minzoom": 2, "maxzoom": 8 }, "properties": { "title": "伊纳尔贝伊国", "color": "#202020", "oid": "103:1535120174869", "tyid": "304000", "fontsize": 12, "halo": 0.8 }, "geometry": { "type": "Point", "coordinates": [ 39.814453, 37.926868 ] } }
{"year": "AD1127",  "type": "Feature", "tippecanoe": { "layer": "7F5D85175C501585558602329", "minzoom": 2, "maxzoom": 8 }, "properties": { "title": "萨松的马米科尼扬王朝", "color": "#202020", "oid": "103:1537436001307", "tyid": "304000", "fontsize": 12, "halo": 0.8 }, "geometry": { "type": "Point", "coordinates": [ 41.220703, 38.548165 ] } }
{"year": "AD1127",  "type": "Feature", "tippecanoe": { "layer": "7F5D85175C501585558602329", "minzoom": 2, "maxzoom": 8 },