{ "type": "Feature", "tippecanoe": { "layer": "7F5D851A0F281585558577113", "minzoom": 2, "maxzoom": 8 }, "properties": { "opacity": 1, "oid": "103:1582721307215", "tyid": "410000", "width": 3, "centroid": "{\"type\":\"Point\",\"coordinates\":[102.890655519,50.32448578]}", "color": "#A11300" }, "geometry": { "type": "MultiLineString", "coordinates": [ [ [ 108.017578, 21.616579 ], [ 106.611328, 22.024546 ], [ 106.523438, 22.512557 ], [ 106.699219, 22.836946 ], [ 105.820312, 22.998852 ], [ 105.205078, 23.402765 ], [ 103.886719, 22.512557 ], [ 103.535156, 22.836946 ], [ 103.183594, 22.105999 ], [ 102.480469, 22.512557 ], [ 101.777344, 21.861499 ], [ 101.689453, 21.207459 ], [ 101.162109, 21.207459 ], [ 100.986328, 21.779905 ], [ 100.195312, 21.534847 ], [ 99.843750, 22.105999 ], [ 99.140625, 22.187405 ], [ 99.228516, 22.917923 ], [ 98.437500, 23.079732 ], [ 98.701172, 23.402765 ], [ 98.349609, 23.966176 ], [ 98.525391, 24.206890 ], [ 97.294922, 23.805450 ], [ 97.470703, 25.324167 ], [ 98.261719, 26.431228 ], [ 98.701172, 26.667096 ], [ 98.613281, 27.605671 ], [ 98.261719, 27.605671 ], [ 98.085938, 28.226970 ], [ 97.558594, 28.536275 ], [ 97.031250, 27.761330 ], [ 96.240234, 28.304381 ], [ 95.625000, 28.304381 ], [ 94.218750, 27.605671 ], [ 93.691406, 27.059126 ], [ 92.988281, 26.902477 ], [ 92.021484, 26.902477 ], [ 92.109375, 27.371767 ], [ 91.494141, 27.605671 ], [ 91.494141, 27.916767 ], [ 90.791016, 28.071980 ] ], [ [ 130.605469, 42.293564 ], [ 130.166016, 42.940339 ], [ 129.814453, 43.004647 ], [ 129.638672, 42.488302 ], [ 129.287109, 42.423457 ], [ 128.847656, 42.032974 ], [ 127.968750, 42.032974 ], [ 128.232422, 41.574361 ], [ 128.056641, 41.442726 ], [ 127.177734, 41.508577 ], [ 126.826172, 41.836828 ], [ 125.947266, 40.913513 ], [ 124.804688, 40.513799 ], [ 124.277344, 40.044438 ] ], [ [ 135.263672, 54.775346 ], [ 132.978516, 54.162434 ], [ 130.517578, 54.110943 ], [ 131.835938, 54.927142 ], [ 131.044922, 55.677584 ], [ 129.462891, 55.776573 ], [ 128.759766, 55.528631 ], [ 127.705078, 55.727110 ], [ 126.123047, 55.627996 ], [ 125.859375, 55.825973 ], [ 124.804688, 55.924586 ], [ 123.134766, 54.775346 ], [ 121.376953, 54.265224 ], [ 121.025391, 54.521081 ], [ 120.234375, 54.162434 ], [ 119.267578, 54.007769 ], [ 119.003906, 53.383328 ], [ 119.179688, 53.120405 ], [ 120.058594, 53.488046 ], [ 121.201172, 53.540307 ], [ 121.376953, 53.383328 ], [ 120.761719, 53.278353 ], [ 119.970703, 52.802761 ], [ 120.058594, 52.589701 ], [ 120.673828, 52.536273 ], [ 120.673828, 51.998410 ], [ 120.058594, 51.672555 ], [ 119.091797, 50.401515 ], [ 119.355469, 50.401515 ], [ 119.267578, 50.120578 ], [ 118.037109, 49.610710 ], [ 116.191406, 50.064192 ], [ 115.312500, 49.951220 ], [ 114.960938, 50.233152 ], [ 114.257812, 50.289339 ], [ 112.675781, 49.496675 ], [ 110.654297, 49.152970 ], [ 108.457031, 49.382373 ], [ 107.929688, 49.724479 ], [ 107.929688, 49.951220 ], [ 107.050781, 50.064192 ], [ 106.523438, 50.345460 ], [ 105.292969, 50.513427 ], [ 103.974609, 50.176898 ], [ 103.271484, 50.233152 ], [ 102.216797, 50.625073 ], [ 102.041016, 51.399206 ], [ 98.964844, 52.106505 ], [ 98.613281, 52.482780 ], [ 98.876953, 52.908902 ], [ 99.140625, 52.961875 ], [ 98.789062, 53.173119 ], [ 98.173828, 53.120405 ], [ 96.767578, 53.800651 ], [ 96.416016, 53.592505 ], [ 94.658203, 53.435719 ], [ 94.394531, 52.961875 ], [ 94.130859, 52.908902 ], [ 93.515625, 52.214339 ], [ 92.812500, 51.890054 ], [ 91.054688, 51.890054 ], [ 90.175781, 52.696361 ], [ 87.802734, 53.383328 ], [ 86.396484, 53.173119 ], [ 86.132812, 52.908902 ], [ 83.056641, 51.618017 ], [ 82.617188, 51.179343 ], [ 83.056641, 50.958427 ], [ 83.232422, 50.513427 ], [ 82.529297, 49.724479 ], [ 82.529297, 49.325122 ], [ 81.298828, 48.690960 ], [ 81.035156, 48.166085 ], [ 79.628906, 47.694974 ], [ 79.453125, 46.800059 ], [ 78.750000, 46.800059 ], [ 78.750000, 46.619261 ], [ 78.574219, 46.800059 ], [ 78.222656, 46.498392 ], [ 77.783203, 46.679594 ], [ 74.531250, 46.800059 ], [ 73.564453, 46.134170 ], [ 73.388672, 45.706179 ], [ 72.070312, 44.964798 ], [ 70.488281, 44.402392 ], [ 69.521484, 43.452919 ], [ 70.927734, 42.293564 ], [ 73.212891, 42.163403 ], [ 73.916016, 41.836828 ], [ 74.003906, 41.574361 ], [ 73.300781, 41.508577 ], [ 73.828125, 41.046217 ], [ 73.212891, 40.847060 ], [ 72.949219, 40.446947 ], [ 73.125000, 40.044438 ], [ 72.773438, 39.842286 ], [ 72.861328, 39.368279 ], [ 72.421875, 39.436193 ], [ 72.070312, 39.095963 ], [ 72.246094, 38.548165 ], [ 71.894531, 38.272689 ], [ 72.158203, 37.649034 ], [ 71.718750, 36.738884 ], [ 73.476562, 37.509726 ], [ 73.740234, 37.439974 ], [ 73.740234, 37.160317 ], [ 74.531250, 37.090240 ], [ 75.673828, 36.385913 ], [ 75.761719, 36.031332 ], [ 74.882812, 35.817813 ], [ 75.322266, 35.173808 ], [ 75.146484, 34.669359 ], [ 76.113281, 33.578015 ], [ 77.080078, 32.990236 ], [ 77.080078, 32.472695 ], [ 77.871094, 31.802893 ], [ 78.662109, 31.728167 ], [ 79.013672, 31.052934 ], [ 79.892578, 30.826781 ], [ 80.683594, 30.145127 ], [ 82.001953, 30.145127 ], [ 83.583984, 29.228890 ], [ 83.935547, 29.305561 ], [ 84.462891, 28.536275 ], [ 85.605469, 28.226970 ], [ 85.869141, 27.916767 ], [ 87.714844, 27.839076 ], [ 88.681641, 28.071980 ], [ 88.945312, 27.215556 ], [ 89.560547, 28.226970 ], [ 90.791016, 28.071980 ] ] ] } }
{ "type": "Feature", "tippecanoe": { "layer": "7F5D851A0F281585558577113", "minzoom": 2, "maxzoom": 8 }, "properties": { "opacity": 1, "oid": "103:1582721307213", "tyid": "410000", "width": 3, "centroid": "{\"type\":\"Point\",\"coordinates\":[118.9965612163,11.9748626986]}", "color": "#A11300" }, "geometry": { "type": "MultiLineString", "coordinates": [ [ [ 122.695312, 24.447150 ], [ 122.431641, 23.402765 ] ], [ [ 120.849609, 20.550509 ], [ 121.728516, 21.616579 ] ], [ [ 119.355469, 17.727759 ], [ 119.794922, 18.895893 ] ], [ [ 118.916016, 14.689881 ], [ 118.916016, 16.045813 ] ], [ [ 118.476562, 10.833306 ], [ 119.003906, 12.039321 ] ], [ [ 115.312500, 7.013668 ], [ 116.191406, 8.059230 ] ], [ [ 111.708984, 3.425692 ], [ 112.939453, 3.864255 ] ], [ [ 108.281250, 5.965754 ], [ 108.193359, 7.362467 ] ], [ [ 110.039062, 11.264612 ], [ 110.214844, 12.468760 ] ], [ [ 109.775391, 15.029686 ], [ 109.248047, 16.214675 ] ] ] } }
{ "type": "Feature", "tippecanoe": { "layer": "7F5D851A71601585558577125", "minzoom": 2, "maxzoom": 8 }, "properties": { "title": "千里长沙", "color": "#4D4848", "oid": "103:1585278514386", "tyid": "304006", "fontsize": 12, "halo": 0.3 }, "geometry": { "type": "Point", "coordinates": [ 111.972656, 16.383391 ] } }
{ "type": "Feature", "tippecanoe": { "layer": "7F5D851A71601585558577125", "minzoom": 2, "maxzoom": 8 }, "properties": { "title": "澎湖", "color": "#4D4848", "oid": "103:1585278514388", "tyid": "304006", "fontsize": 12, "halo": 0.3 }, "geometry": { "type": "Point", "coordinates": [ 119.531250, 23.644524 ] } }
{ "type": "Feature", "tippecanoe": { "layer": "7F5D851A71601585558577125", "minzoom": 2, "maxzoom": 8 }, "properties": { "title": "红头屿", "color": "#4D4848", "oid": "103:1585278514389", "tyid": "304006", "fontsize": 12, "halo": 0.3 }, "geometry": { "type": "Point", "coordinates": [ 121.464844, 22.105999 ] } }
{ "type": "Feature", "tippecanoe": { "layer": "7F5D851A71601585558577125", "minzoom": 2, "maxzoom": 8 }, "properties": { "title": "万里石塘", "color": "#4D4848", "oid": "103:1585278514384", "tyid": "304006", "fontsize": 12, "halo": 0.3 }, "geometry": { "type": "Point", "coordinates": [ 114.257812, 9.795678 ] } }
{ "type": "Feature", "tippecanoe": { "layer": "7F5D851A95C01585558577151", "minzoom": 2, "maxzoom": 8 }, "properties": { "title": "群岛王国", "color": "#0056E7", "oid": "103:1585278514340", "tyid": "304000", "fontsize": 12, "halo": 1.8 }, "geometry": { "type": "Point", "coordinates": [ -6.591797, 58.263287 ] } }
{ "type": "Feature", "tippecanoe": { "layer": "7F5D851A95C01585558577151", "minzoom": 2, "maxzoom": 8 }, "properties": { "title": "埃里克王国", "color": "#0056E7", "oid": "103:1585278514325", "tyid": "304000", "fontsize": 12, "halo": 1.8 }, "geometry": { "type": "Point", "coordinates": [ -7.470703, 54.775346 ] } }
{ "type": "Feature", "tippecanoe": { "layer": "7F5D851A95C01585558577151", "minzoom": 2, "maxzoom": 8 }, "properties": { "title": "纳瓦拉王国", "color": "#0056E7", "oid": "103:1585278514317", "tyid": "304000", "fontsize": 12, "halo": 1.8 }, "geometry": { "type": "Point", "coordinates": [ -2.109375, 42.940339 ] } }
{ "type": "Feature", "tippecanoe": { "layer": "7F5D851A95C01585558577151", "minzoom": 2, "maxzoom": 8 }, "properties": { "title": "荷兰伯国", "color": "#0056E7", "oid": "103:1585278514338", "tyid": "304000", "fontsize": 12, "halo": 1.8 }, "geometry": { "type": "Point", "coordinates": [ 4.658203, 52.052490 ] } }
{ "type": "Feature", "tippecanoe": { "layer": "7F5D851A95C01585558577151", "minzoom": 2, "maxzoom": 8 }, "properties": { "title": "布拉班特公国", "color": "#0056E7", "oid": "103:1585278514320", "tyid": "304000", "fontsize": 12, "halo": 1.8 }, "geometry": { "type": "Point", "coordinates": [ 4.746094, 51.069017 ] } }
{ "type": "Feature", "tippecanoe": { "layer": "7F5D851A95C01585558577151", "minzoom": 2, "maxzoom": 8 }, "properties": { "title": "普罗旺斯伯国", "color": "#0056E7", "oid": "103:1585278514367", "tyid": "304000", "fontsize": 12, "halo": 1.8 }, "geometry": { "type": "Point", "coordinates": [ 6.064453, 43.516689 ] } }
{ "type": "Feature", "tippecanoe": { "layer": "7F5D851A95C01585558577151", "minzoom": 2, "maxzoom": 8 }, "properties": { "title": "热那亚共和国", "color": "#0056E7", "oid": "103:1585278514366", "tyid": "304000", "fontsize": 12, "halo": 1.8 }, "geometry": { "type": "Point", "coordinates": [ 7.822266, 44.087585 ] } }
{ "type": "Feature", "tippecanoe": { "layer": "7F5D851A95C01585558577151", "minzoom": 2, "maxzoom": 8 }, "properties": { "title": "比萨共和国", "color": "#0056E7", "oid": "103:1585278514334", "tyid": "304000", "fontsize": 12, "halo": 1.8 }, "geometry": { "type": "Point", "coordinates": [ 9.052734, 42.358544 ] } }
{ "type": "Feature", "tippecanoe": { "layer": "7F5D851A95C01585558577151", "minzoom": 2, "maxzoom": 8 }, "properties": { "title": "吕根亲王国", "color": "#0056E7", "oid": "103:1585278514342", "tyid": "304000", "fontsize": 12, "halo": 1.8 }, "geometry": { "type": "Point", "coordinates": [ 12.832031, 54.110943 ] } }
{ "type": "Feature", "tippecanoe": { "layer": "7F5D851A95C01585558577151", "minzoom": 2, "maxzoom": 8 }, "properties": { "title": "克拉科夫公国", "color": "#0056E7", "oid": "103:1585278514303", "tyid": "304000", "fontsize": 12, "halo": 1.8 }, "geometry": { "type": "Point", "coordinates": [ 18.720703, 49.553726 ] } }
{ "type": "Feature", "tippecanoe": { "layer": "7F5D851A95C01585558577151", "minzoom": 2, "maxzoom": 8 }, "properties": { "title": "威尼斯共和国", "color": "#0056E7", "oid": "103:1585278514335", "tyid": "304000", "fontsize": 12, "halo": 1.8 }, "geometry": { "type": "Point", "coordinates": [ 13.798828, 45.089036 ] } }
{ "type": "Feature", "tippecanoe": { "layer": "7F5D851A95C01585558577151", "minzoom": 2, "maxzoom": 8 }, "properties": { "title": "波斯尼亚班内特国", "color": "#0056E7", "oid": "103:1585278514297", "tyid": "304000", "fontsize": 12, "halo": 1.8 }, "geometry": { "type": "Point", "coordinates": [ 17.841797, 44.087585 ] } }
{ "type": "Feature", "tippecanoe": { "layer": "7F5D851A95C01585558577151", "minzoom": 2, "maxzoom": 8 }, "properties": { "title": "克里米亚哥特人", "color": "#0056E7", "oid": "103:1585278514377", "tyid": "304002", "fontsize": 12, "halo": 1.6 }, "geometry": { "type": "Point", "coordinates": [ 33.925781, 45.521744 ] } }
{ "type": "Feature", "tippecanoe": { "layer": "7F5D851A95C01585558577151", "minzoom": 2, "maxzoom": 8 }, "properties": { "title": "阿波利亚王国", "color": "#0056E7", "oid": "103:1585278514227", "tyid": "304000", "fontsize": 12, "halo": 1.8 }, "geometry": { "type": "Point", "coordinates": [ 8.789062, 39.909736 ] } }
{ "type": "Feature", "tippecanoe": { "layer": "7F5D851A95C01585558577151", "minzoom": 2, "maxzoom": 8 }, "properties": { "title": "卡利亚里王国", "color": "#0056E7", "oid": "103:1585278514206", "tyid": "304000", "fontsize": 12, "halo": 1.8 }, "geometry": { "type": "Point", "coordinates": [ 9.052734, 39.436193 ] } }
{ "type": "Feature", "tippecanoe": { "layer": "7F5D851A95C01585558577151", "minzoom": 2, "maxzoom": 8 }, "properties": { "title": "塞浦路斯王国", "color": "#0056E7", "oid": "103:1535120108151", "tyid": "304000", "fontsize": 12, "halo": 1.8 }, "geometry": { "type": "Point", "coordinates": [ 33.134766, 35.101934 ] } }
{ "type": "Feature", "tippecanoe": { "layer": "7F5D851A95C01585558577151", "minzoom": 2, "maxzoom": 8 }, "properties": { "title": "安条克公国", "color": "#0056E7", "oid": "103:1535120108163", "tyid": "304000", "fontsize": 12, "halo": 1.8 }, "geometry": { "type": "Point", "coordinates": [ 36.298828, 36.385913 ] } }
{ "type": "Feature", "tippecanoe": { "layer": "7F5D851A95C01585558577151", "minzoom": 2, "maxzoom": 8 }, "properties": { "title": "的黎波里伯国", "color": "#0056E7", "oid": "103:1585278514266", "tyid": "304000", "fontsize": 12, "halo": 1.8 }, "geometry": { "type": "Point", "coordinates": [ 36.298828, 35.389050 ] } }
{ "type": "Feature", "tippecanoe": { "layer": "7F5D851A95C01585558577151", "minzoom": 2, "maxzoom": 8 }, "properties": { "title": "耶路撒冷拉丁王国", "color": "#0056E7", "oid": "103:1585278514355", "tyid": "304000", "fontsize": 12, "halo": 1.8 }, "geometry": { "type": "Point", "coordinates": [ 35.156250, 33.063924 ] } }
{ "type": "Feature", "tippecanoe": { "layer": "7F5D851A95C01585558577151", "minzoom": 2, "maxzoom": 8 }, "properties": { "title": "果阿的卡丹巴王朝", "color": "#0056E7", "oid": "103:1585278514247", "tyid": "304000", "fontsize": 12, "halo": 1.8 }, "geometry": { "type": "Point", "coordinates": [ 74.179688, 15.368950 ] } }
{ "type": "Feature", "tippecanoe": { "layer": "7F5D851A99401585558577156", "minzoom": 2, "maxzoom": 8 }, "properties": { "title": "英格兰王国", "color": "#0056E7", "oid": "103:1585278514343", "tyid": "304000", "fontsize": 12, "halo": 1.8 }, "geometry": { "type": "Point", "coordinates": [ -1.142578, 52.106505 ] } }
{ "type": "Feature", "tippecanoe": { "layer": "7F5D851A99401585558577156", "minzoom": 2, "maxzoom": 8 }, "properties": { "title": "穆瓦希德哈里发国", "color": "#0056E7", "oid": "103:1585278514313", "tyid": "304000", "fontsize": 12, "halo": 1.8 }, "geometry": { "type": "Point", "coordinates": [ -3.339844, 32.249974 ] } }
{ "type": "Feature", "tippecanoe": { "layer": "7F5D851A99401585558577156", "minzoom": 2, "maxzoom": 8 }, "properties": { "title": "挪威王国[维京时期]", "color": "#0056E7", "oid": "103:1585278514242", "tyid": "304000", "fontsize": 12, "halo": 1.8 }, "geometry": { "type": "Point", "coordinates": [ 11.601562, 62.794935 ] } }
{ "type": "Feature", "tippecanoe": { "layer": "7F5D851A99401585558577156", "minzoom": 2, "maxzoom": 8 }, "properties": { "title": "瑞典王国[维京时期]", "color": "#0056E7", "oid": "103:1585278514344", "tyid": "304000", "fontsize": 12, "halo": 1.8 }, "geometry": { "type": "Point", "coordinates": [ 14.326172, 59.310768 ] } }
{ "type": "Feature", "tippecanoe": { "layer": "7F5D851A99401585558577156", "minzoom": 2, "maxzoom": 8 }, "properties": { "title": "神圣罗马帝国", "color": "#0056E7", "oid": "103:1585278514322", "tyid": "304000", "fontsize": 12, "halo": 1.8 }, "geometry": { "type": "Point", "coordinates": [ 9.843750, 48.458352 ] } }
{ "type": "Feature", "tippecanoe": { "layer": "7F5D851A99401585558577156", "minzoom": 2, "maxzoom": 8 }, "properties": { "title": "匈牙利王国", "color": "#0056E7", "oid": "103:1585278514302", "tyid": "304000", "fontsize": 12, "halo": 1.8 }, "geometry": { "type": "Point", "coordinates": [ 20.302734, 46.558860 ] } }
{ "type": "Feature", "tippecanoe": { "layer": "7F5D851A99401585558577156", "minzoom": 2, "maxzoom": 8 }, "properties": { "title": "诺夫哥罗德共和国", "color": "#0056E7", "oid": "103:1585278514346", "tyid": "304000", "fontsize": 12, "halo": 1.8 }, "geometry": { "type": "Point", "coordinates": [ 37.792969, 62.144976 ] } }
{ "type": "Feature", "tippecanoe": { "layer": "7F5D851A99401585558577156", "minzoom": 2, "maxzoom": 8 }, "properties": { "title": "弗拉基米尔-苏兹达尔大公国", "color": "#0056E7", "oid": "103:1585278514285", "tyid": "304000", "fontsize": 12, "halo": 1.8 }, "geometry": { "type": "Point", "coordinates": [ 41.220703, 57.421294 ] } }
{ "type": "Feature", "tippecanoe": { "layer": "7F5D851A99401585558577156", "minzoom": 2, "maxzoom": 8 }, "properties": { "title": "加利西亚-沃里尼亚王国", "color": "#0056E7", "oid": "103:1535120108172", "tyid": "304000", "fontsize": 12, "halo": 1.8 }, "geometry": { "type": "Point", "coordinates": [ 25.927734, 48.922499 ] } }
{ "type": "Feature", "tippecanoe": { "layer": "7F5D851A99401585558577156", "minzoom": 2, "maxzoom": 8 }, "properties": { "title": "保加利亚第二王国", "color": "#0056E7", "oid": "103:1585278514296", "tyid": "304000", "fontsize": 12, "halo": 1.8 }, "geometry": { "type": "Point", "coordinates": [ 24.609375, 43.644026 ] } }
{ "type": "Feature", "tippecanoe": { "layer": "7F5D851A99401585558577156", "minzoom": 2, "maxzoom": 8 }, "properties": { "title": "格鲁吉亚王国", "color": "#0056E7", "oid": "103:1585278514282", "tyid": "304000", "fontsize": 12, "halo": 1.8 }, "geometry": { "type": "Point", "coordinates": [ 44.560547, 41.112469 ] } }
{ "type": "Feature", "tippecanoe": { "layer": "7F5D851A99401585558577156", "minzoom": 2, "maxzoom": 8 }, "properties": { "title": "拉丁帝国", "color": "#0056E7", "oid": "103:1585278514370", "tyid": "304000", "fontsize": 12, "halo": 1.8 }, "geometry": { "type": "Point", "coordinates": [ 27.773438, 39.232253 ] } }
{ "type": "Feature", "tippecanoe": { "layer": "7F5D851A99401585558577156", "minzoom": 2, "maxzoom": 8 }, "properties": { "title": "阿尤布苏丹国", "color": "#0056E7", "oid": "103:1585278514357", "tyid": "304000", "fontsize": 12, "halo": 1.8 }, "geometry": { "type": "Point", "coordinates": [ 29.267578, 28.690588 ] } }
{ "type": "Feature", "tippecanoe": { "layer": "7F5D851A99401585558577156", "minzoom": 2, "maxzoom": 8 }, "properties": { "title": "鲁姆苏丹国", "color": "#0056E7", "oid": "103:1585278514264", "tyid": "304000", "fontsize": 12, "halo": 1.8 }, "geometry": { "type": "Point", "coordinates": [ 34.453125, 39.164141 ] } }
{ "type": "Feature", "tippecanoe": { "layer": "7F5D851A99401585558577156", "minzoom": 2, "maxzoom": 8 }, "properties": { "title": "马库里亚王国", "color": "#0056E7", "oid": "103:1585278514268", "tyid": "304000", "fontsize": 12, "halo": 1.8 }, "geometry": { "type": "Point", "coordinates": [ 31.816406, 18.646245 ] } }
{ "type": "Feature", "tippecanoe": { "layer": "7F5D851A99401585558577156", "minzoom": 2, "maxzoom": 8 }, "properties": { "title": "阿罗底亚王国", "color": "#0056E7", "oid": "103:1585278514220", "tyid": "304000", "fontsize": 12, "halo": 1.8 }, "geometry": { "type": "Point", "coordinates": [ 33.046875, 13.581921 ] } }
{ "type": "Feature", "tippecanoe": { "layer": "7F5D851A99401585558577156", "minzoom": 2, "maxzoom": 8 }, "properties": { "title": "扎格维王朝", "color": "#0056E7", "oid": "103:1585278514269", "tyid": "304000", "fontsize": 12, "halo": 1.8 }, "geometry": { "type": "Point", "coordinates": [ 38.232422, 13.752725 ] } }
{ "type": "Feature", "tippecanoe": { "layer": "7F5D851A99401585558577156", "minzoom": 2, "maxzoom": 8 }, "properties": { "title": "伏尔加保加利亚汗国", "color": "#0056E7", "oid": "103:1585278514255", "tyid": "304000", "fontsize": 12, "halo": 1.8 }, "geometry": { "type": "Point", "coordinates": [ 53.349609, 58.493694 ] } }
{ "type": "Feature", "tippecanoe": { "layer": "7F5D851A99401585558577156", "minzoom": 2, "maxzoom": 8 }, "properties": { "title": "库曼-钦察联盟", "color": "#0056E7", "oid": "103:1585278514283", "tyid": "304000", "fontsize": 12, "halo": 1.8 }, "geometry": { "type": "Point", "coordinates": [ 49.570312, 49.095452 ] } }
{ "type": "Feature", "tippecanoe": { "layer": "7F5D851A99401585558577156", "minzoom": 2, "maxzoom": 8 }, "properties": { "title": "巴什基尔人", "color": "#0056E7", "oid": "103:1585278514376", "tyid": "304002", "fontsize": 12, "halo": 1.6 }, "geometry": { "type": "Point", "coordinates": [ 65.654297, 54.977614 ] } }
{ "type": "Feature", "tippecanoe": { "layer": "7F5D851A99401585558577156", "minzoom": 2, "maxzoom": 8 }, "properties": { "title": "阿拔斯哈里发国", "color": "#0056E7", "oid": "103:1585278514261", "tyid": "304000", "fontsize": 12, "halo": 1.8 }, "geometry": { "type": "Point", "coordinates": [ 45.527344, 32.175612 ] } }
{ "type": "Feature", "tippecanoe": { "layer": "7F5D851A99401585558577156", "minzoom": 2, "maxzoom": 8 }, "properties": { "title": "贝都因人", "color": "#0056E7", "oid": "103:1585278514259", "tyid": "304000", "fontsize": 12, "halo": 1.8 }, "geometry": { "type": "Point", "coordinates": [ 47.548828, 23.966176 ] } }
{ "type": "Feature", "tippecanoe": { "layer": "7F5D851A99401585558577156", "minzoom": 2, "maxzoom": 8 }, "properties": { "title": "花剌子模王朝", "color": "#0056E7", "oid": "103:1585278514257", "tyid": "304000", "fontsize": 12, "halo": 1.8 }, "geometry": { "type": "Point", "coordinates": [ 57.128906, 34.597042 ] } }
{ "type": "Feature", "tippecanoe": { "layer": "7F5D851A99401585558577156", "minzoom": 2, "maxzoom": 8 }, "properties": { "title": "耶达婆王朝", "color": "#0056E7", "oid": "103:1585278514217", "tyid": "304000", "fontsize": 12, "halo": 1.8 }, "geometry": { "type": "Point", "coordinates": [ 75.937500, 19.890723 ] } }
{ "type": "Feature", "tippecanoe": { "layer": "7F5D851A99401585558577156", "minzoom": 2, "maxzoom": 8 }, "properties": { "title": "卡卡提亚王朝", "color": "#0056E7", "oid": "103:1585278514249", "tyid": "304000", "fontsize": 12, "halo": 1.8 }, "geometry": { "type": "Point", "coordinates": [ 80.332031, 17.811456 ] } }
{ "type": "Feature", "tippecanoe": { "layer": "7F5D851A99401585558577156", "minzoom": 2, "maxzoom": 8 }, "properties": { "title": "蒙古帝国", "color": "#0056E7", "oid": "103:1585278514331", "tyid": "304001", "fontsize": 12, "halo": 1.6 }, "geometry": { "type": "Point", "coordinates": [ 97.822266, 48.632909 ] } }
{ "type": "Feature", "tippecanoe": { "layer": "7F5D851A99401585558577156", "minzoom": 2, "maxzoom": 8 }, "properties": { "title": "金", "color": "#0056E7", "oid": "103:1585278514234", "tyid": "304000", "fontsize": 12, "halo": 1.8 }, "geometry": { "type": "Point", "coordinates": [ 124.804688, 45.151053 ] } }
{ "type": "Feature", "tippecanoe": { "layer": "7F5D851A99401585558577156", "minzoom": 2, "maxzoom": 8 }, "properties": { "title": "吐蕃诸部", "color": "#0056E7", "oid": "103:1585278514330", "tyid": "304001", "fontsize": 12, "halo": 1.6 }, "geometry": { "type": "Point", "coordinates": [ 91.142578, 32.990236 ] } }
{ "type": "Feature", "tippecanoe": { "layer": "7F5D851A99401585558577156", "minzoom": 2, "maxzoom": 8 }, "properties": { "title": "后理国", "color": "#0056E7", "oid": "103:1585278514202", "tyid": "304000", "fontsize": 12, "halo": 1.8 }, "geometry": { "type": "Point", "coordinates": [ 100.546875, 24.287027 ] } }
{ "type": "Feature", "tippecanoe": { "layer": "7F5D851A99401585558577156", "minzoom": 2, "maxzoom": 8 }, "properties": { "title": "西夏", "color": "#0056E7", "oid": "103:1585278514236", "tyid": "304000", "fontsize": 12, "halo": 1.8 }, "geometry": { "type": "Point", "coordinates": [ 102.832031, 39.909736 ] } }
{ "type": "Feature", "tippecanoe": { "layer": "7F5D851A99401585558577156", "minzoom": 2, "maxzoom": 8 }, "properties": { "title": "南宋", "color": "#0056E7", "oid": "103:1585278514237", "tyid": "304000", "fontsize": 12, "halo": 1.8 }, "geometry": { "type": "Point", "coordinates": [ 111.621094, 27.994401 ] } }
{ "type": "Feature", "tippecanoe": { "layer": "7F5D851A99401585558577156", "minzoom": 2, "maxzoom": 8 }, "properties": { "title": "蒲甘王国", "color": "#0056E7", "oid": "103:1585278514246", "tyid": "304000", "fontsize": 12, "halo": 1.8 }, "geometry": { "type": "Point", "coordinates": [ 96.064453, 20.632784 ] } }
{ "type": "Feature", "tippecanoe": { "layer": "7F5D851A99401585558577156", "minzoom": 2, "maxzoom": 8 }, "properties": { "title": "三佛齐王国", "color": "#0056E7", "oid": "103:1585278514228", "tyid": "304000", "fontsize": 12, "halo": 1.8 }, "geometry": { "type": "Point", "coordinates": [ 100.986328, 1.142502 ] } }
{ "type": "Feature", "tippecanoe": { "layer": "7F5D851A99401585558577156", "minzoom": 2, "maxzoom": 8 }, "properties": { "title": "高棉帝国", "color": "#0056E7", "oid": "103:1585278514240", "tyid": "304000", "fontsize": 12, "halo": 1.8 }, "geometry": { "type": "Point", "coordinates": [ 103.183594, 14.349548 ] } }
{ "type": "Feature", "tippecanoe": { "layer": "7F5D851A99401585558577156", "minzoom": 2, "maxzoom": 8 }, "properties": { "title": "镰仓幕府", "color": "#0056E7", "oid": "103:1585278514231", "tyid": "304000", "fontsize": 12, "halo": 1.8 }, "geometry": { "type": "Point", "coordinates": [ 138.955078, 36.315125 ] } }
{ "type": "Feature", "tippecanoe": { "layer": "7F5D851A99401585558577156", "minzoom": 2, "maxzoom": 8 }, "properties": { "title": "基卢瓦苏丹国", "color": "#0056E7", "oid": "103:1585278514356", "tyid": "304000", "fontsize": 12, "halo": 1.8 }, "geometry": { "type": "Point", "coordinates": [ 38.671875, -15.029686 ] } }
{ "type": "Feature", "tippecanoe": { "layer": "7F5D851A9A201585558577157", "minzoom": 2, "maxzoom": 8 }, "properties": { "title": "冰岛自由邦", "color": "#202020", "oid": "103:1585278514243", "tyid": "304000", "fontsize": 12, "halo": 0.8 }, "geometry": { "type": "Point", "coordinates": [ -18.632812, 64.997939 ] } }
{ "type": "Feature", "tippecanoe": { "layer": "7F5D851A9A201585558577157", "minzoom": 2, "maxzoom": 8 }, "properties": { "title": "苏格兰王国", "color": "#202020", "oid": "103:1585278514324", "tyid": "304000", "fontsize": 12, "halo": 0.8 }, "geometry": { "type": "Point", "coordinates": [ -4.042969, 56.704506 ] } }
{ "type": "Feature", "tippecanoe": { "layer": "7F5D851A9A201585558577157", "minzoom": 2, "maxzoom": 8 }, "properties": { "title": "康诺特诸王国", "color": "#202020", "oid": "103:1585278514327", "tyid": "304000", "fontsize": 12, "halo": 0.8 }, "geometry": { "type": "Point", "coordinates": [ -8.701172, 53.696706 ] } }
{ "type": "Feature", "tippecanoe": { "layer": "7F5D851A9A201585558577157", "minzoom": 2, "maxzoom": 8 }, "properties": { "title": "莱昂王国", "color": "#202020", "oid": "103:1585278514364", "tyid": "304000", "fontsize": 12, "halo": 0.8 }, "geometry": { "type": "Point", "coordinates": [ -7.119141, 42.747012 ] } }
{ "type": "Feature", "tippecanoe": { "layer": "7F5D851A9A201585558577157", "minzoom": 2, "maxzoom": 8 }, "properties": { "title": "卡斯蒂利亚王国", "color": "#202020", "oid": "103:1535120108181", "tyid": "304000", "fontsize": 12, "halo": 0.8 }, "geometry": { "type": "Point", "coordinates": [ -3.779297, 41.574361 ] } }
{ "type": "Feature", "tippecanoe": { "layer": "7F5D851A9A201585558577157", "minzoom": 2, "maxzoom": 8 }, "properties": { "title": "葡萄牙王国", "color": "#202020", "oid": "103:1585278514314", "tyid": "304000", "fontsize": 12, "halo": 0.8 }, "geometry": { "type": "Point", "coordinates": [ -7.998047, 40.178873 ] } }
{ "type": "Feature", "tippecanoe": { "layer": "7F5D851A9A201585558577157", "minzoom": 2, "maxzoom": 8 }, "properties": { "title": "塔克鲁尔王国", "color": "#202020", "oid": "103:1585278514275", "tyid": "304000", "fontsize": 12, "halo": 0.8 }, "geometry": { "type": "Point", "coordinates": [ -13.974609, 17.140790 ] } }
{ "type": "Feature", "tippecanoe": { "layer": "7F5D851A9A201585558577157", "minzoom": 2, "maxzoom": 8 }, "properties": { "title": "曼德人", "color": "#202020", "oid": "103:1585278514279", "tyid": "304000", "fontsize": 12, "halo": 0.8 }, "geometry": { "type": "Point", "coordinates": [ -9.052734, 11.609193 ] } }
{ "type": "Feature", "tippecanoe": { "layer": "7F5D851A9A201585558577157", "minzoom": 2, "maxzoom": 8 }, "properties": { "title": "加纳帝国", "color": "#202020", "oid": "103:1585278514277", "tyid": "304000", "fontsize": 12, "halo": 0.8 }, "geometry": { "type": "Point", "coordinates": [ -5.800781, 16.383391 ] } }
{ "type": "Feature", "tippecanoe": { "layer": "7F5D851A9A201585558577157", "minzoom": 2, "maxzoom": 8 }, "properties": { "title": "莫西人诸国", "color": "#262626", "oid": "103:1585278514382", "tyid": "304002", "fontsize": 12, "halo": 0.8 }, "geometry": { "type": "Point", "coordinates": [ -2.812500, 14.093957 ] } }
{ "type": "Feature", "tippecanoe": { "layer": "7F5D851A9A201585558577157", "minzoom": 2, "maxzoom": 8 }, "properties": { "title": "加奥帝国", "color": "#202020", "oid": "103:1585278514278", "tyid": "304000", "fontsize": 12, "halo": 0.8 }, "geometry": { "type": "Point", "coordinates": [ -0.615234, 16.299051 ] } }
{ "type": "Feature", "tippecanoe": { "layer": "7F5D851A9A201585558577157", "minzoom": 2, "maxzoom": 8 }, "properties": { "title": "丹麦王国[维京时期]", "color": "#202020", "oid": "103:1585278514341", "tyid": "304000", "fontsize": 12, "halo": 0.8 }, "geometry": { "type": "Point", "coordinates": [ 9.228516, 56.022948 ] } }
{ "type": "Feature", "tippecanoe": { "layer": "7F5D851A9A201585558577157", "minzoom": 2, "maxzoom": 8 }, "properties": { "title": "佛兰德斯伯国", "color": "#202020", "oid": "103:1585278514319", "tyid": "304000", "fontsize": 12, "halo": 0.8 }, "geometry": { "type": "Point", "coordinates": [ 3.076172, 50.625073 ] } }
{ "type": "Feature", "tippecanoe": { "layer": "7F5D851A9A201585558577157", "minzoom": 2, "maxzoom": 8 }, "properties": { "title": "弗里斯兰伯国", "color": "#262626", "oid": "103:1585278514372", "tyid": "304002", "fontsize": 12, "halo": 0.8 }, "geometry": { "type": "Point", "coordinates": [ 6.767578, 53.120405 ] } }
{ "type": "Feature", "tippecanoe": { "layer": "7F5D851A9A201585558577157", "minzoom": 2, "maxzoom": 8 }, "properties": { "title": "布卢瓦伯国", "color": "#202020", "oid": "103:1585278514368", "tyid": "304000", "fontsize": 12, "halo": 0.8 }, "geometry": { "type": "Point", "coordinates": [ 4.130859, 48.690960 ] } }
{ "type": "Feature", "tippecanoe": { "layer": "7F5D851A9A201585558577157", "minzoom": 2, "maxzoom": 8 }, "properties": { "title": "法兰西王国", "color": "#202020", "oid": "103:1585278514321", "tyid": "304000", "fontsize": 12, "halo": 0.8 }, "geometry": { "type": "Point", "coordinates": [ 3.164062, 47.279229 ] } }
{ "type": "Feature", "tippecanoe": { "layer": "7F5D851A9A201585558577157", "minzoom": 2, "maxzoom": 8 }, "properties": { "title": "图卢兹伯国", "color": "#202020", "oid": "103:1535120108179", "tyid": "304000", "fontsize": 12, "halo": 0.8 }, "geometry": { "type": "Point", "coordinates": [ 2.021484, 43.707594 ] } }
{ "type": "Feature", "tippecanoe": { "layer": "7F5D851A9A201585558577157", "minzoom": 2, "maxzoom": 8 }, "properties": { "title": "阿拉贡联合王国", "color": "#202020", "oid": "103:1585278514318", "tyid": "304000", "fontsize": 12, "halo": 0.8 }, "geometry": { "type": "Point", "coordinates": [ 0.263672, 41.771312 ] } }
{ "type": "Feature", "tippecanoe": { "layer": "7F5D851A9A201585558577157", "minzoom": 2, "maxzoom": 8 }, "properties": { "title": "大波兰公国", "color": "#202020", "oid": "103:1585278514311", "tyid": "304000", "fontsize": 12, "halo": 0.8 }, "geometry": { "type": "Point", "coordinates": [ 16.787109, 52.160455 ] } }
{ "type": "Feature", "tippecanoe": { "layer": "7F5D851A9A201585558577157", "minzoom": 2, "maxzoom": 8 }, "properties": { "title": "西里西亚公国", "color": "#202020", "oid": "103:1585278514308", "tyid": "304000", "fontsize": 12, "halo": 0.8 }, "geometry": { "type": "Point", "coordinates": [ 16.435547, 50.903033 ] } }
{ "type": "Feature", "tippecanoe": { "layer": "7F5D851A9A201585558577157", "minzoom": 2, "maxzoom": 8 }, "properties": { "title": "波西米亚王国", "color": "#202020", "oid": "103:1535120108174", "tyid": "304000", "fontsize": 12, "halo": 0.8 }, "geometry": { "type": "Point", "coordinates": [ 14.326172, 49.837982 ] } }
{ "type": "Feature", "tippecanoe": { "layer": "7F5D851A9A201585558577157", "minzoom": 2, "maxzoom": 8 }, "properties": { "title": "摩拉维亚侯国", "color": "#202020", "oid": "103:1585278514304", "tyid": "304000", "fontsize": 12, "halo": 0.8 }, "geometry": { "type": "Point", "coordinates": [ 16.699219, 49.325122 ] } }
{ "type": "Feature", "tippecanoe": { "layer": "7F5D851A9A201585558577157", "minzoom": 2, "maxzoom": 8 }, "properties": { "title": "波美拉尼亚公国", "color": "#202020", "oid": "103:1585278514225", "tyid": "304000", "fontsize": 12, "halo": 0.8 }, "geometry": { "type": "Point", "coordinates": [ 18.281250, 54.059388 ] } }
{ "type": "Feature", "tippecanoe": { "layer": "7F5D851A9A201585558577157", "minzoom": 2, "maxzoom": 8 }, "properties": { "title": "马佐维亚公国", "color": "#202020", "oid": "103:1585278514310", "tyid": "304000", "fontsize": 12, "halo": 0.8 }, "geometry": { "type": "Point", "coordinates": [ 20.478516, 52.696361 ] } }
{ "type": "Feature", "tippecanoe": { "layer": "7F5D851A9A201585558577157", "minzoom": 2, "maxzoom": 8 }, "properties": { "title": "桑多梅日公国", "color": "#202020", "oid": "103:1585278514309", "tyid": "304000", "fontsize": 12, "halo": 0.8 }, "geometry": { "type": "Point", "coordinates": [ 20.742188, 50.847573 ] } }
{ "type": "Feature", "tippecanoe": { "layer": "7F5D851A9A201585558577157", "minzoom": 2, "maxzoom": 8 }, "properties": { "title": "教皇国", "color": "#202020", "oid": "103:1535120108159", "tyid": "304000", "fontsize": 12, "halo": 0.8 }, "geometry": { "type": "Point", "coordinates": [ 12.304688, 42.553080 ] } }
{ "type": "Feature", "tippecanoe": { "layer": "7F5D851A9A201585558577157", "minzoom": 2, "maxzoom": 8 }, "properties": { "title": "塞尔维亚大公国", "color": "#262626", "oid": "103:1535120108157", "tyid": "304002", "fontsize": 12, "halo": 0.8 }, "geometry": { "type": "Point", "coordinates": [ 19.335938, 43.197167 ] } }
{ "type": "Feature", "tippecanoe": { "layer": "7F5D851A9A201585558577157", "minzoom": 2, "maxzoom": 8 }, "properties": { "title": "利沃尼亚人", "color": "#262626", "oid": "103:1585278514379", "tyid": "304002", "fontsize": 12, "halo": 0.8 }, "geometry": { "type": "Point", "coordinates": [ 23.203125, 56.897004 ] } }
{ "type": "Feature", "tippecanoe": { "layer": "7F5D851A9A201585558577157", "minzoom": 2, "maxzoom": 8 }, "properties": { "title": "古爱沙尼亚人", "color": "#202020", "oid": "103:1585278514208", "tyid": "304000", "fontsize": 12, "halo": 0.8 }, "geometry": { "type": "Point", "coordinates": [ 25.488281, 58.539595 ] } }
{ "type": "Feature", "tippecanoe": { "layer": "7F5D851A9A201585558577157", "minzoom": 2, "maxzoom": 8 }, "properties": { "title": "叶尔西卡公国", "color": "#202020", "oid": "103:1585278514299", "tyid": "304000", "fontsize": 12, "halo": 0.8 }, "geometry": { "type": "Point", "coordinates": [ 26.806641, 56.511018 ] } }
{ "type": "Feature", "tippecanoe": { "layer": "7F5D851A9A201585558577157", "minzoom": 2, "maxzoom": 8 }, "properties": { "title": "立陶宛人", "color": "#202020", "oid": "103:1585278514300", "tyid": "304000", "fontsize": 12, "halo": 0.8 }, "geometry": { "type": "Point", "coordinates": [ 25.048828, 54.724620 ] } }
{ "type": "Feature", "tippecanoe": { "layer": "7F5D851A9A201585558577157", "minzoom": 2, "maxzoom": 8 }, "properties": { "title": "图罗夫公国", "color": "#202020", "oid": "103:1585278514292", "tyid": "304000", "fontsize": 12, "halo": 0.8 }, "geometry": { "type": "Point", "coordinates": [ 27.509766, 52.214339 ] } }
{ "type": "Feature", "tippecanoe": { "layer": "7F5D851A9A201585558577157", "minzoom": 2, "maxzoom": 8 }, "properties": { "title": "波洛茨克公国", "color": "#202020", "oid": "103:1585278514291", "tyid": "304000", "fontsize": 12, "halo": 0.8 }, "geometry": { "type": "Point", "coordinates": [ 28.125000, 54.265224 ] } }
{ "type": "Feature", "tippecanoe": { "layer": "7F5D851A9A201585558577157", "minzoom": 2, "maxzoom": 8 }, "properties": { "title": "斯摩棱斯克大公国", "color": "#202020", "oid": "103:1585278514290", "tyid": "304000", "fontsize": 12, "halo": 0.8 }, "geometry": { "type": "Point", "coordinates": [ 32.607422, 54.826008 ] } }
{ "type": "Feature", "tippecanoe": { "layer": "7F5D851A9A201585558577157", "minzoom": 2, "maxzoom": 8 }, "properties": { "title": "基辅罗斯", "color": "#202020", "oid": "103:1535120108169", "tyid": "304000", "fontsize": 12, "halo": 0.8 }, "geometry": { "type": "Point", "coordinates": [ 29.882812, 49.210420 ] } }
{ "type": "Feature", "tippecanoe": { "layer": "7F5D851A9A201585558577157", "minzoom": 2, "maxzoom": 8 }, "properties": { "title": "切尔尼戈夫公国", "color": "#202020", "oid": "103:1585278514359", "tyid": "304000", "fontsize": 12, "halo": 0.8 }, "geometry": { "type": "Point", "coordinates": [ 35.507812, 53.330873 ] } }
{ "type": "Feature", "tippecanoe": { "layer": "7F5D851A9A201585558577157", "minzoom": 2, "maxzoom": 8 }, "properties": { "title": "诺夫哥罗德-谢韦尔斯克公国", "color": "#202020", "oid": "103:1585278514287", "tyid": "304000", "fontsize": 12, "halo": 0.8 }, "geometry": { "type": "Point", "coordinates": [ 36.386719, 51.781436 ] } }
{ "type": "Feature", "tippecanoe": { "layer": "7F5D851A9A201585558577157", "minzoom": 2, "maxzoom": 8 }, "properties": { "title": "佩列亚斯拉夫公国", "color": "#202020", "oid": "103:1585278514223", "tyid": "304000", "fontsize": 12, "halo": 0.8 }, "geometry": { "type": "Point", "coordinates": [ 34.980469, 49.894634 ] } }
{ "type": "Feature", "tippecanoe": { "layer": "7F5D851A9A201585558577157", "minzoom": 2, "maxzoom": 8 }, "properties": { "title": "梁赞大公国", "color": "#202020", "oid": "103:1585278514286", "tyid": "304000", "fontsize": 12, "halo": 0.8 }, "geometry": { "type": "Point", "coordinates": [ 40.605469, 54.316523 ] } }
{ "type": "Feature", "tippecanoe": { "layer": "7F5D851A9A201585558577157", "minzoom": 2, "maxzoom": 8 }, "properties": { "title": "西西里王国", "color": "#202020", "oid": "103:1535120108153", "tyid": "304000", "fontsize": 12, "halo": 0.8 }, "geometry": { "type": "Point", "coordinates": [ 15.732422, 40.913513 ] } }
{ "type": "Feature", "tippecanoe": { "layer": "7F5D851A9A201585558577157", "minzoom": 2, "maxzoom": 8 }, "properties": { "title": "贝宁王国", "color": "#202020", "oid": "103:1585278514328", "tyid": "304000", "fontsize": 12, "halo": 0.8 }, "geometry": { "type": "Point", "coordinates": [ 4.658203, 7.275292 ] } }
{ "type": "Feature", "tippecanoe": { "layer": "7F5D851A9A201585558577157", "minzoom": 2, "maxzoom": 8 }, "properties": { "title": "奇里乞亚亚美尼亚王国", "color": "#202020", "oid": "103:1535120108161", "tyid": "304000", "fontsize": 12, "halo": 0.8 }, "geometry": { "type": "Point", "coordinates": [ 34.365234, 37.300275 ] } }
{ "type": "Feature", "tippecanoe": { "layer": "7F5D851A9A201585558577157", "minzoom": 2, "maxzoom": 8 }, "properties": { "title": "贝扎人", "color": "#262626", "oid": "103:1585278514378", "tyid": "304001", "fontsize": 12, "halo": 0.8 }, "geometry": { "type": "Point", "coordinates": [ 36.123047, 18.812718 ] } }
{ "type": "Feature", "tippecanoe": { "layer": "7F5D851A9A201585558577157", "minzoom": 2, "maxzoom": 8 }, "properties": { "title": "谢瓦苏丹国", "color": "#202020", "oid": "103:1585278514271", "tyid": "304000", "fontsize": 12, "halo": 0.8 }, "geometry": { "type": "Point", "coordinates": [ 37.617188, 8.841651 ] } }
{ "type": "Feature", "tippecanoe": { "layer": "7F5D851A9A201585558577157", "minzoom": 2, "maxzoom": 8 }, "properties": { "title": "阿拉巴尼苏丹国", "color": "#202020", "oid": "103:1585278514274", "tyid": "304000", "fontsize": 12, "halo": 0.8 }, "geometry": { "type": "Point", "coordinates": [ 38.408203, 7.798079 ] } }
{ "type": "Feature", "tippecanoe": { "layer": "7F5D851A9A201585558577157", "minzoom": 2, "maxzoom": 8 }, "properties": { "title": "摩加迪沙苏丹国", "color": "#202020", "oid": "103:1585278514270", "tyid": "304000", "fontsize": 12, "halo": 0.8 }, "geometry": { "type": "Point", "coordinates": [ 41.572266, 8.667918 ] } }
{ "type": "Feature", "tippecanoe": { "layer": "7F5D851A9A201585558577157", "minzoom": 2, "maxzoom": 8 }, "properties": { "title": "达瓦洛苏丹国", "color": "#202020", "oid": "103:1585278514273", "tyid": "304000", "fontsize": 12, "halo": 0.8 }, "geometry": { "type": "Point", "coordinates": [ 39.726562, 7.188101 ] } }
{ "type": "Feature", "tippecanoe": { "layer": "7F5D851A9A201585558577157", "minzoom": 2, "maxzoom": 8 }, "properties": { "title": "阿兰王国", "color": "#202020", "oid": "103:1585278514258", "tyid": "304000", "fontsize": 12, "halo": 0.8 }, "geometry": { "type": "Point", "coordinates": [ 45.615234, 42.875964 ] } }
{ "type": "Feature", "tippecanoe": { "layer": "7F5D851A9A201585558577157", "minzoom": 2, "maxzoom": 8 }, "properties": { "title": "埃迪古奇兹王朝", "color": "#202020", "oid": "103:1585278514263", "tyid": "304000", "fontsize": 12, "halo": 0.8 }, "geometry": { "type": "Point", "coordinates": [ 46.318359, 37.649034 ] } }
{ "type": "Feature", "tippecanoe": { "layer": "7F5D851A9A201585558577157", "minzoom": 2, "maxzoom": 8 }, "properties": { "title": "希尔凡沙阿王朝", "color": "#202020", "oid": "103:1585278514353", "tyid": "304000", "fontsize": 12, "halo": 0.8 }, "geometry": { "type": "Point", "coordinates": [ 48.691406, 40.111689 ] } }
{ "type": "Feature", "tippecanoe": { "layer": "7F5D851A9A201585558577157", "minzoom": 2, "maxzoom": 8 }, "properties": { "title": "内卜汗王朝", "color": "#262626", "oid": "103:1585278514371", "tyid": "304002", "fontsize": 12, "halo": 0.8 }, "geometry": { "type": "Point", "coordinates": [ 57.216797, 23.402765 ] } }
{ "type": "Feature", "tippecanoe": { "layer": "7F5D851A9A201585558577157", "minzoom": 2, "maxzoom": 8 }, "properties": { "title": "拉达克王系", "color": "#202020", "oid": "103:1585278514351", "tyid": "304000", "fontsize": 12, "halo": 0.8 }, "geometry": { "type": "Point", "coordinates": [ 72.509766, 36.102376 ] } }
{ "type": "Feature", "tippecanoe": { "layer": "7F5D851A9A201585558577157", "minzoom": 2, "maxzoom": 8 }, "properties": { "title": "索兰基王朝", "color": "#202020", "oid": "103:1585278514219", "tyid": "304000", "fontsize": 12, "halo": 0.8 }, "geometry": { "type": "Point", "coordinates": [ 71.279297, 23.725012 ] } }
{ "type": "Feature", "tippecanoe": { "layer": "7F5D851A9A201585558577157", "minzoom": 2, "maxzoom": 8 }, "properties": { "title": "帕拉玛拉王朝", "color": "#202020", "oid": "103:1585278514253", "tyid": "304000", "fontsize": 12, "halo": 0.8 }, "geometry": { "type": "Point", "coordinates": [ 76.201172, 24.926295 ] } }
{ "type": "Feature", "tippecanoe": { "layer": "7F5D851A9A201585558577157", "minzoom": 2, "maxzoom": 8 }, "properties": { "title": "马拉王朝[尼泊尔]", "color": "#202020", "oid": "103:1585278514211", "tyid": "304000", "fontsize": 12, "halo": 0.8 }, "geometry": { "type": "Point", "coordinates": [ 83.408203, 28.381735 ] } }
{ "type": "Feature", "tippecanoe": { "layer": "7F5D851A9A201585558577157", "minzoom": 2, "maxzoom": 8 }, "properties": { "title": "昌德拉王朝", "color": "#202020", "oid": "103:1585278514252", "tyid": "304000", "fontsize": 12, "halo": 0.8 }, "geometry": { "type": "Point", "coordinates": [ 82.001953, 23.483401 ] } }
{ "type": "Feature", "tippecanoe": { "layer": "7F5D851A9A201585558577157", "minzoom": 2, "maxzoom": 8 }, "properties": { "title": "曷萨拉帝国", "color": "#202020", "oid": "103:1585278514215", "tyid": "304000", "fontsize": 12, "halo": 0.8 }, "geometry": { "type": "Point", "coordinates": [ 76.552734, 14.264383 ] } }
{ "type": "Feature", "tippecanoe": { "layer": "7F5D851A9A201585558577157", "minzoom": 2, "maxzoom": 8 }, "properties": { "title": "科泽科德王国", "color": "#202020", "oid": "103:1585278514212", "tyid": "304000", "fontsize": 12, "halo": 0.8 }, "geometry": { "type": "Point", "coordinates": [ 76.289062, 10.487812 ] } }
{ "type": "Feature", "tippecanoe": { "layer": "7F5D851A9A201585558577157", "minzoom": 2, "maxzoom": 8 }, "properties": { "title": "朱罗-遮娄其王国", "color": "#202020", "oid": "103:1585278514214", "tyid": "304000", "fontsize": 12, "halo": 0.8 }, "geometry": { "type": "Point", "coordinates": [ 77.695312, 10.833306 ] } }
{ "type": "Feature", "tippecanoe": { "layer": "7F5D851A9A201585558577157", "minzoom": 2, "maxzoom": 8 }, "properties": { "title": "东恒伽王朝", "color": "#202020", "oid": "103:1585278514250", "tyid": "304000", "fontsize": 12, "halo": 0.8 }, "geometry": { "type": "Point", "coordinates": [ 84.550781, 20.632784 ] } }
{ "type": "Feature", "tippecanoe": { "layer": "7F5D851A9A201585558577157", "minzoom": 2, "maxzoom": 8 }, "properties": { "title": "波隆拉努沃王国", "color": "#202020", "oid": "103:1585278514204", "tyid": "304000", "fontsize": 12, "halo": 0.8 }, "geometry": { "type": "Point", "coordinates": [ 80.683594, 7.623887 ] } }
{ "type": "Feature", "tippecanoe": { "layer": "7F5D851A9A201585558577157", "minzoom": 2, "maxzoom": 8 }, "properties": { "title": "迦摩缕波王国", "color": "#202020", "oid": "103:1585278514348", "tyid": "304000", "fontsize": 12, "halo": 0.8 }, "geometry": { "type": "Point", "coordinates": [ 91.933594, 26.194877 ] } }
{ "type": "Feature", "tippecanoe": { "layer": "7F5D851A9A201585558577157", "minzoom": 2, "maxzoom": 8 }, "properties": { "title": "犀那王朝", "color": "#202020", "oid": "103:1585278514350", "tyid": "304000", "fontsize": 12, "halo": 0.8 }, "geometry": { "type": "Point", "coordinates": [ 90.351562, 24.287027 ] } }
{ "type": "Feature", "tippecanoe": { "layer": "7F5D851A9A201585558577157", "minzoom": 2, "maxzoom": 8 }, "properties": { "title": "若开诸国", "color": "#262626", "oid": "103:1585278514375", "tyid": "304002", "fontsize": 12, "halo": 0.8 }, "geometry": { "type": "Point", "coordinates": [ 92.900391, 21.453069 ] } }
{ "type": "Feature", "tippecanoe": { "layer": "7F5D851A9A201585558577157", "minzoom": 2, "maxzoom": 8 }, "properties": { "title": "骇黎朋猜国", "color": "#202020", "oid": "103:1585278514209", "tyid": "304000", "fontsize": 12, "halo": 0.8 }, "geometry": { "type": "Point", "coordinates": [ 99.140625, 18.562947 ] } }
{ "type": "Feature", "tippecanoe": { "layer": "7F5D851A9A201585558577157", "minzoom": 2, "maxzoom": 8 }, "properties": { "title": "大越国", "color": "#202020", "oid": "103:1585278514245", "tyid": "304000", "fontsize": 12, "halo": 0.8 }, "geometry": { "type": "Point", "coordinates": [ 105.380859, 21.125498 ] } }
{ "type": "Feature", "tippecanoe": { "layer": "7F5D851A9A201585558577157", "minzoom": 2, "maxzoom": 8 }, "properties": { "title": "占婆国", "color": "#202020", "oid": "103:1585278514347", "tyid": "304000", "fontsize": 12, "halo": 0.8 }, "geometry": { "type": "Point", "coordinates": [ 108.369141, 14.604847 ] } }
{ "type": "Feature", "tippecanoe": { "layer": "7F5D851A9A201585558577157", "minzoom": 2, "maxzoom": 8 }, "properties": { "title": "高丽", "color": "#202020", "oid": "103:1585278514230", "tyid": "304000", "fontsize": 12, "halo": 0.8 }, "geometry": { "type": "Point", "coordinates": [ 127.705078, 37.090240 ] } }
{ "type": "Feature", "tippecanoe": { "layer": "7F5D851A9A201585558577157", "minzoom": 2, "maxzoom": 8 }, "properties": { "title": "渤泥国", "color": "#202020", "oid": "103:1585278514232", "tyid": "304000", "fontsize": 12, "halo": 0.8 }, "geometry": { "type": "Point", "coordinates": [ 114.960938, 4.477856 ] } }
{ "type": "Feature", "tippecanoe": { "layer": "7F5D851A9A201585558577157", "minzoom": 2, "maxzoom": 8 }, "properties": { "title": "虾夷", "color": "#262626", "oid": "103:1585278514380", "tyid": "304002", "fontsize": 12, "halo": 0.8 }, "geometry": { "type": "Point", "coordinates": [ 142.558594, 43.389082 ] } }
{ "type": "Feature", "tippecanoe": { "layer": "7F5D851A9A201585558577157", "minzoom": 2, "maxzoom": 8 }, "properties": { "title": "末罗瑜王国", "color": "#202020", "oid": "103:1585278514239", "tyid": "304000", "fontsize": 12, "halo": 0.8 }, "geometry": { "type": "Point", "coordinates": [ 103.095703, -1.054628 ] } }
{ "type": "Feature", "tippecanoe": { "layer": "7F5D851A9A201585558577157", "minzoom": 2, "maxzoom": 8 }, "properties": { "title": "谏义里国", "color": "#202020", "oid": "103:1585278514333", "tyid": "304000", "fontsize": 12, "halo": 0.8 }, "geometry": { "type": "Point", "coordinates": [ 111.708984, -7.623887 ] } }
{ "type": "Feature", "tippecanoe": { "layer": "7F5D851A9F601585558577165", "minzoom": 2, "maxzoom": 8 }, "properties": { "title": "英格兰王国", "color": "#202020", "oid": "103:1585278514343", "tyid": "304000", "fontsize": 12, "halo": 0.8 }, "geometry": { "type": "Point", "coordinates": [ -1.142578, 52.106505 ] } }
{ "type": "Feature", "tippecanoe": { "layer": "7F5D851A9F601585558577165", "minzoom": 2, "maxzoom": 8 }, "properties": { "title": "穆瓦希德哈里发国", "color": "#202020", "oid": "103:1585278514313", "tyid": "304000", "fontsize": 12, "halo": 0.8 }, "geometry": { "type": "Point", "coordinates": [ -3.339844, 32.249974 ] } }
{ "type": "Feature", "tippecanoe": { "layer": "7F5D851A9F601585558577165", "minzoom": 2, "maxzoom": 8 }, "properties": { "title": "挪威王国[维京时期]", "color": "#202020", "oid": "103:1585278514242", "tyid": "304000", "fontsize": 12, "halo": 0.8 }, "geometry": { "type": "Point", "coordinates": [ 11.601562, 62.794935 ] } }
{ "type": "Feature", "tippecanoe": { "layer": "7F5D851A9F601585558577165", "minzoom": 2, "maxzoom": 8 }, "properties": { "title": "瑞典王国[维京时期]", "color": "#202020", "oid": "103:1585278514344", "tyid": "304000", "fontsize": 12, "halo": 0.8 }, "geometry": { "type": "Point", "coordinates": [ 14.326172, 59.310768 ] } }
{ "type": "Feature", "tippecanoe": { "layer": "7F5D851A9F601585558577165", "minzoom": 2, "maxzoom": 8 }, "properties": { "title": "神圣罗马帝国", "color": "#202020", "oid": "103:1585278514322", "tyid": "304000", "fontsize": 12, "halo": 0.8 }, "geometry": { "type": "Point", "coordinates": [ 9.843750, 48.458352 ] } }
{ "type": "Feature", "tippecanoe": { "layer": "7F5D851A9F601585558577165", "minzoom": 2, "maxzoom": 8 }, "properties": { "title": "匈牙利王国", "color": "#202020", "oid": "103:1585278514302", "tyid": "304000", "fontsize": 12, "halo": 0.8 }, "geometry": { "type": "Point", "coordinates": [ 20.302734, 46.558860 ] } }
{ "type": "Feature", "tippecanoe": { "layer": "7F5D851A9F601585558577165", "minzoom": 2, "maxzoom": 8 }, "properties": { "title": "诺夫哥罗德共和国", "color": "#202020", "oid": "103:1585278514346", "tyid": "304000", "fontsize": 12, "halo": 0.8 }, "geometry": { "type": "Point", "coordinates": [ 37.792969, 62.144976 ] } }
{ "type": "Feature", "tippecanoe": { "layer": "7F5D851A9F601585558577165", "minzoom": 2, "maxzoom": 8 }, "properties": { "title": "弗拉基米尔-苏兹达尔大公国", "color": "#202020", "oid": "103:1585278514285", "tyid": "304000", "fontsize": 12, "halo": 0.8 }, "geometry": { "type": "Point", "coordinates": [ 41.220703, 57.421294 ] } }
{ "type": "Feature", "tippecanoe": { "layer": "7F5D851A9F601585558577165", "minzoom": 2, "maxzoom": 8 }, "properties": { "title": "加利西亚-沃里尼亚王国", "color": "#202020", "oid": "103:1535120108172", "tyid": "304000", "fontsize": 12, "halo": 0.8 }, "geometry": { "type": "Point", "coordinates": [ 25.927734, 48.922499 ] } }
{ "type": "Feature", "tippecanoe": { "layer": "7F5D851A9F601585558577165", "minzoom": 2, "maxzoom": 8 }, "properties": { "title": "保加利亚第二王国", "color": "#202020", "oid": "103:1585278514296", "tyid": "304000", "fontsize": 12, "halo": 0.8 }, "geometry": { "type": "Point", "coordinates": [ 24.609375, 43.644026 ] } }
{ "type": "Feature", "tippecanoe": { "layer": "7F5D851A9F601585558577165", "minzoom": 2, "maxzoom": 8 }, "properties": { "title": "格鲁吉亚王国", "color": "#202020", "oid": "103:1585278514282", "tyid": "304000", "fontsize": 12, "halo": 0.8 }, "geometry": { "type": "Point", "coordinates": [ 44.560547, 41.112469 ] } }
{ "type": "Feature", "tippecanoe": { "layer": "7F5D851A9F601585558577165", "minzoom": 2, "maxzoom": 8 }, "properties": { "title": "拉丁帝国", "color": "#202020", "oid": "103:1585278514370", "tyid": "304000", "fontsize": 12, "halo": 0.8 }, "geometry": { "type": "Point", "coordinates": [ 27.773438, 39.232253 ] } }
{ "type": "Feature", "tippecanoe": { "layer": "7F5D851A9F601585558577165", "minzoom": 2, "maxzoom": 8 }, "properties": { "title": "阿尤布苏丹国", "color": "#202020", "oid": "103:1585278514357", "tyid": "304000", "fontsize": 12, "halo": 0.8 }, "geometry": { "type": "Point", "coordinates": [ 29.267578, 28.690588 ] } }
{ "type": "Feature", "tippecanoe": { "layer": "7F5D851A9F601585558577165", "minzoom": 2, "maxzoom": 8 }, "properties": { "title": "鲁姆苏丹国", "color": "#202020", "oid": "103:1585278514264", "tyid": "304000", "fontsize": 12, "halo": 0.8 }, "geometry": { "type": "Point", "coordinates": [ 34.453125, 39.164141 ] } }
{ "type": "Feature", "tippecanoe": { "layer": "7F5D851A9F601585558577165", "minzoom": 2, "maxzoom": 8 }, "properties": { "title": "马库里亚王国", "color": "#202020", "oid": "103:1585278514268", "tyid": "304000", "fontsize": 12, "halo": 0.8 }, "geometry": { "type": "Point", "coordinates": [ 31.816406, 18.646245 ] } }
{ "type": "Feature", "tippecanoe": { "layer": "7F5D851A9F601585558577165", "minzoom": 2, "maxzoom": 8 }, "properties": { "title": "阿罗底亚王国", "color": "#202020", "oid": "103:1585278514220", "tyid": "304000", "fontsize": 12, "halo": 0.8 }, "geometry": { "type": "Point", "coordinates": [ 33.046875, 13.581921 ] } }
{ "type": "Feature", "tippecanoe": { "layer": "7F5D851A9F601585558577165", "minzoom": 2, "maxzoom": 8 }, "properties": { "title": "扎格维王朝", "color": "#202020", "oid": "103:1585278514269", "tyid": "304000", "fontsize": 12, "halo": 0.8 }, "geometry": { "type": "Point", "coordinates": [ 38.232422, 13.752725 ] } }
{ "type": "Feature", "tippecanoe": { "layer": "7F5D851A9F601585558577165", "minzoom": 2, "maxzoom": 8 }, "properties": { "title": "伏尔加保加利亚汗国", "color": "#202020", "oid": "103:1585278514255", "tyid": "304000", "fontsize": 12, "halo": 0.8 }, "geometry": { "type": "Point", "coordinates": [ 53.349609, 58.493694 ] } }
{ "type": "Feature", "tippecanoe": { "layer": "7F5D851A9F601585558577165", "minzoom": 2, "maxzoom": 8 }, "properties": { "title": "库曼-钦察联盟", "color": "#202020", "oid": "103:1585278514283", "tyid": "304000", "fontsize": 12, "halo": 0.8 }, "geometry": { "type": "Point", "coordinates": [ 49.570312, 49.095452 ] } }
{ "type": "Feature", "tippecanoe": { "layer": "7F5D851A9F601585558577165", "minzoom": 2, "maxzoom": 8 }, "properties": { "title": "巴什基尔人", "color": "#262626", "oid": "103:1585278514376", "tyid": "304002", "fontsize": 12, "halo": 0.8 }, "geometry": { "type": "Point", "coordinates": [ 65.654297, 54.977614 ] } }
{ "type": "Feature", "tippecanoe": { "layer": "7F5D851A9F601585558577165", "minzoom": 2, "maxzoom": 8 }, "properties": { "title": "阿拔斯哈里发国", "color": "#202020", "oid": "103:1585278514261", "tyid": "304000", "fontsize": 12, "halo": 0.8 }, "geometry": { "type": "Point", "coordinates": [ 45.527344, 32.175612 ] } }
{ "type": "Feature", "tippecanoe": { "layer": "7F5D851A9F601585558577165", "minzoom": 2, "maxzoom": 8 }, "properties": { "title": "贝都因人", "color": "#202020", "oid": "103:1585278514259", "tyid": "304000", "fontsize": 12, "halo": 0.8 }, "geometry": { "type": "Point", "coordinates": [ 47.548828, 23.966176 ] } }
{ "type": "Feature", "tippecanoe": { "layer": "7F5D851A9F601585558577165", "minzoom": 2, "maxzoom": 8 }, "properties": { "title": "花剌子模王朝", "color": "#202020", "oid": "103:1585278514257", "tyid": "304000", "fontsize": 12, "halo": 0.8 }, "geometry": { "type": "Point", "coordinates": [ 57.128906, 34.597042 ] } }
{ "type": "Feature", "tippecanoe": { "layer": "7F5D851A9F601585558577165", "minzoom": 2, "maxzoom": 8 }, "properties": { "title": "耶达婆王朝", "color": "#202020", "oid": "103:1585278514217", "tyid": "304000", "fontsize": 12, "halo": 0.8 }, "geometry": { "type": "Point", "coordinates": [ 75.937500, 19.890723 ] } }
{ "type": "Feature", "tippecanoe": { "layer": "7F5D851A9F601585558577165", "minzoom": 2, "maxzoom": 8 }, "properties": { "title": "卡卡提亚王朝", "color": "#202020", "oid": "103:1585278514249", "tyid": "304000", "fontsize": 12, "halo": 0.8 }, "geometry": { "type": "Point", "coordinates": [ 80.332031, 17.811456 ] } }
{ "type": "Feature", "tippecanoe": { "layer": "7F5D851A9F601585558577165", "minzoom": 2, "maxzoom": 8 }, "properties": { "title": "蒙古帝国", "color": "#262626", "oid": "103:1585278514331", "tyid": "304001", "fontsize": 12, "halo": 0.8 }, "geometry": { "type": "Point", "coordinates": [ 97.822266, 48.632909 ] } }
{ "type": "Feature", "tippecanoe": { "layer": "7F5D851A9F601585558577165", "minzoom": 2, "maxzoom": 8 }, "properties": { "title": "金", "color": "#202020", "oid": "103:1585278514234", "tyid": "304000", "fontsize": 12, "halo": 0.8 }, "geometry": { "type": "Point", "coordinates": [ 124.804688, 45.151053 ] } }
{ "type": "Feature", "tippecanoe": { "layer": "7F5D851A9F601585558577165", "minzoom": 2, "maxzoom": 8 }, "properties": { "title": "吐蕃诸部", "color": "#262626", "oid": "103:1585278514330", "tyid": "304001", "fontsize": 12, "halo": 0.8 }, "geometry": { "type": "Point", "coordinates": [ 91.142578, 32.990236 ] } }
{ "type": "Feature", "tippecanoe": { "layer": "7F5D851A9F601585558577165", "minzoom": 2, "maxzoom": 8 }, "properties": { "title": "后理国", "color": "#202020", "oid": "103:1585278514202", "tyid": "304000", "fontsize": 12, "halo": 0.8 }, "geometry": { "type": "Point", "coordinates": [ 100.546875, 24.287027 ] } }
{ "type": "Feature", "tippecanoe": { "layer": "7F5D851A9F601585558577165", "minzoom": 2, "maxzoom": 8 }, "properties": { "title": "西夏", "color": "#202020", "oid": "103:1585278514236", "tyid": "304000", "fontsize": 12, "halo": 0.8 }, "geometry": { "type": "Point", "coordinates": [ 102.832031, 39.909736 ] } }
{ "type": "Feature", "tippecanoe": { "layer": "7F5D851A9F601585558577165", "minzoom": 2, "maxzoom": 8 }, "properties": { "title": "南宋", "color": "#202020", "oid": "103:1585278514237", "tyid": "304000", "fontsize": 12, "halo": 0.8 }, "geometry": { "type": "Point", "coordinates": [ 111.621094, 27.994401 ] } }
{ "type": "Feature", "tippecanoe": { "layer": "7F5D851A9F601585558577165", "minzoom": 2, "maxzoom": 8 }, "properties": { "title": "蒲甘王国", "color": "#202020", "oid": "103:1585278514246", "tyid": "304000", "fontsize": 12, "halo": 0.8 }, "geometry": { "type": "Point", "coordinates": [ 96.064453, 20.632784 ] } }
{ "type": "Feature", "tippecanoe": { "layer": "7F5D851A9F601585558577165", "minzoom": 2, "maxzoom": 8 }, "properties": { "title": "三佛齐王国", "color": "#202020", "oid": "103:1585278514228", "tyid": "304000", "fontsize": 12, "halo": 0.8 }, "geometry": { "type": "Point", "coordinates": [ 100.986328, 1.142502 ] } }
{ "type": "Feature", "tippecanoe": { "layer": "7F5D851A9F601585558577165", "minzoom": 2, "maxzoom": 8 }, "properties": { "title": "高棉帝国", "color": "#202020", "oid": "103:1585278514240", "tyid": "304000", "fontsize": 12, "halo": 0.8 }, "geometry": { "type": "Point", "coordinates": [ 103.183594, 14.349548 ] } }
{ "type": "Feature", "tippecanoe": { "layer": "7F5D851A9F601585558577165", "minzoom": 2, "maxzoom": 8 }, "properties": { "title": "镰仓幕府", "color": "#202020", "oid": "103:1585278514231", "tyid": "304000", "fontsize": 12, "halo": 0.8 }, "geometry": { "type": "Point", "coordinates": [ 138.955078, 36.315125 ] } }
{ "type": "Feature", "tippecanoe": { "layer": "7F5D851A9F601585558577165", "minzoom": 2, "maxzoom": 8 }, "properties": { "title": "基卢瓦苏丹国", "color": "#202020", "oid": "103:1585278514356", "tyid": "304000", "fontsize": 12, "halo": 0.8 }, "geometry": { "type": "Point", "coordinates": [ 38.671875, -15.029686 ] } }
{ "type": "Feature", "tippecanoe": { "layer": "7F5D851E5F601585558577145", "minzoom": 2, "maxzoom": 8 }, "properties": { "title": "冰岛自由邦", "color": "#0056E7", "oid": "103:1585278514243", "tyid": "304000", "fontsize": 12, "halo": 1.8 }, "geometry": { "type": "Point", "coordinates": [ -18.632812, 64.997939 ] } }
{ "type": "Feature", "tippecanoe": { "layer": "7F5D851E5F601585558577145", "minzoom": 2, "maxzoom": 8 }, "properties": { "title": "苏格兰王国", "color": "#0056E7", "oid": "103:1585278514324", "tyid": "304000", "fontsize": 12, "halo": 1.8 }, "geometry": { "type": "Point", "coordinates": [ -4.042969, 56.704506 ] } }
{ "type": "Feature", "tippecanoe": { "layer": "7F5D851E5F601585558577145", "minzoom": 2, "maxzoom": 8 }, "properties": { "title": "康诺特诸王国", "color": "#0056E7", "oid": "103:1585278514327", "tyid": "304000", "fontsize": 12, "halo": 1.8 }, "geometry": { "type": "Point", "coordinates": [ -8.701172, 53.696706 ] } }
{ "type": "Feature", "tippecanoe": { "layer": "7F5D851E5F601585558577145", "minzoom": 2, "maxzoom": 8 }, "properties": { "title": "莱昂王国", "color": "#0056E7", "oid": "103:1585278514364", "tyid": "304000", "fontsize": 12, "halo": 1.8 }, "geometry": { "type": "Point", "coordinates": [ -7.119141, 42.747012 ] } }
{ "type": "Feature", "tippecanoe": { "layer": "7F5D851E5F601585558577145", "minzoom": 2, "maxzoom": 8 }, "properties": { "title": "卡斯蒂利亚王国", "color": "#0056E7", "oid": "103:1535120108181", "tyid": "304000", "fontsize": 12, "halo": 1.8 }, "geometry": { "type": "Point", "coordinates": [ -3.779297, 41.574361 ] } }
{ "type": "Feature", "tippecanoe": { "layer": "7F5D851E5F601585558577145", "minzoom": 2, "maxzoom": 8 }, "properties": { "title": "葡萄牙王国", "color": "#0056E7", "oid": "103:1585278514314", "tyid": "304000", "fontsize": 12, "halo": 1.8 }, "geometry": { "type": "Point", "coordinates": [ -7.998047, 40.178873 ] } }
{ "type": "Feature", "tippecanoe": { "layer": "7F5D851E5F601585558577145", "minzoom": 2, "maxzoom": 8 }, "properties": { "title": "塔克鲁尔王国", "color": "#0056E7", "oid": "103:1585278514275", "tyid": "304000", "fontsize": 12, "halo": 1.8 }, "geometry": { "type": "Point", "coordinates": [ -13.974609, 17.140790 ] } }
{ "type": "Feature", "tippecanoe": { "layer": "7F5D851E5F601585558577145", "minzoom": 2, "maxzoom": 8 }, "properties": { "title": "曼德人", "color": "#0056E7", "oid": "103:1585278514279", "tyid": "304000", "fontsize": 12, "halo": 1.8 }, "geometry": { "type": "Point", "coordinates": [ -9.052734, 11.609193 ] } }
{ "type": "Feature", "tippecanoe": { "layer": "7F5D851E5F601585558577145", "minzoom": 2, "maxzoom": 8 }, "properties": { "title": "加纳帝国", "color": "#0056E7", "oid": "103:1585278514277", "tyid": "304000", "fontsize": 12, "halo": 1.8 }, "geometry": { "type": "Point", "coordinates": [ -5.800781, 16.383391 ] } }
{ "type": "Feature", "tippecanoe": { "layer": "7F5D851E5F601585558577145", "minzoom": 2, "maxzoom": 8 }, "properties": { "title": "莫西人诸国", "color": "#0056E7", "oid": "103:1585278514382", "tyid": "304002", "fontsize": 12, "halo": 1.6 }, "geometry": { "type": "Point", "coordinates": [ -2.812500, 14.093957 ] } }
{ "type": "Feature", "tippecanoe": { "layer": "7F5D851E5F601585558577145", "minzoom": 2, "maxzoom": 8 }, "properties": { "title": "加奥帝国", "color": "#0056E7", "oid": "103:1585278514278", "tyid": "304000", "fontsize": 12, "halo": 1.8 }, "geometry": { "type": "Point", "coordinates": [ -0.615234, 16.299051 ] } }
{ "type": "Feature", "tippecanoe": { "layer": "7F5D851E5F601585558577145", "minzoom": 2, "maxzoom": 8 }, "properties": { "title": "丹麦王国[维京时期]", "color": "#0056E7", "oid": "103:1585278514341", "tyid": "304000", "fontsize": 12, "halo": 1.8 }, "geometry": { "type": "Point", "coordinates": [ 9.228516, 56.022948 ] } }
{ "type": "Feature", "tippecanoe": { "layer": "7F5D851E5F601585558577145", "minzoom": 2, "maxzoom": 8 }, "properties": { "title": "佛兰德斯伯国", "color": "#0056E7", "oid": "103:1585278514319", "tyid": "304000", "fontsize": 12, "halo": 1.8 }, "geometry": { "type": "Point", "coordinates": [ 3.076172, 50.625073 ] } }
{ "type": "Feature", "tippecanoe": { "layer": "7F5D851E5F601585558577145", "minzoom": 2, "maxzoom": 8 }, "properties": { "title": "弗里斯兰伯国", "color": "#0056E7", "oid": "103:1585278514372", "tyid": "304002", "fontsize": 12, "halo": 1.6 }, "geometry": { "type": "Point", "coordinates": [ 6.767578, 53.120405 ] } }
{ "type": "Feature", "tippecanoe": { "layer": "7F5D851E5F601585558577145", "minzoom": 2, "maxzoom": 8 }, "properties": { "title": "布卢瓦伯国", "color": "#0056E7", "oid": "103:1585278514368", "tyid": "304000", "fontsize": 12, "halo": 1.8 }, "geometry": { "type": "Point", "coordinates": [ 4.130859, 48.690960 ] } }
{ "type": "Feature", "tippecanoe": { "layer": "7F5D851E5F601585558577145", "minzoom": 2, "maxzoom": 8 }, "properties": { "title": "法兰西王国", "color": "#0056E7", "oid": "103:1585278514321", "tyid": "304000", "fontsize": 12, "halo": 1.8 }, "geometry": { "type": "Point", "coordinates": [ 3.164062, 47.279229 ] } }
{ "type": "Feature", "tippecanoe": { "layer": "7F5D851E5F601585558577145", "minzoom": 2, "maxzoom": 8 }, "properties": { "title": "图卢兹伯国", "color": "#0056E7", "oid": "103:1535120108179", "tyid": "304000", "fontsize": 12, "halo": 1.8 }, "geometry": { "type": "Point", "coordinates": [ 2.021484, 43.707594 ] } }
{ "type": "Feature", "tippecanoe": { "layer": "7F5D851E5F601585558577145", "minzoom": 2, "maxzoom": 8 }, "properties": { "title": "阿拉贡联合王国", "color": "#0056E7", "oid": "103:1585278514318", "tyid": "304000", "fontsize": 12, "halo": 1.8 }, "geometry": { "type": "Point", "coordinates": [ 0.263672, 41.771312 ] } }
{ "type": "Feature", "tippecanoe": { "layer": "7F5D851E5F601585558577145", "minzoom": 2, "maxzoom": 8 }, "properties": { "title": "大波兰公国", "color": "#0056E7", "oid": "103:1585278514311", "tyid": "304000", "fontsize": 12, "halo": 1.8 }, "geometry": { "type": "Point", "coordinates": [ 16.787109, 52.160455 ] } }
{ "type": "Feature", "tippecanoe": { "layer": "7F5D851E5F601585558577145", "minzoom": 2, "maxzoom": 8 }, "properties": { "title": "西里西亚公国", "color": "#0056E7", "oid": "103:1585278514308", "tyid": "304000", "fontsize": 12, "halo": 1.8 }, "geometry": { "type": "Point", "coordinates": [ 16.435547, 50.903033 ] } }
{ "type": "Feature", "tippecanoe": { "layer": "7F5D851E5F601585558577145", "minzoom": 2, "maxzoom": 8 }, "properties": { "title": "波西米亚王国", "color": "#0056E7", "oid": "103:1535120108174", "tyid": "304000", "fontsize": 12, "halo": 1.8 }, "geometry": { "type": "Point", "coordinates": [ 14.326172, 49.837982 ] } }
{ "type": "Feature", "tippecanoe": { "layer": "7F5D851E5F601585558577145", "minzoom": 2, "maxzoom": 8 }, "properties": { "title": "摩拉维亚侯国", "color": "#0056E7", "oid": "103:1585278514304", "tyid": "304000", "fontsize": 12, "halo": 1.8 }, "geometry": { "type": "Point", "coordinates": [ 16.699219, 49.325122 ] } }
{ "type": "Feature", "tippecanoe": { "layer": "7F5D851E5F601585558577145", "minzoom": 2, "maxzoom": 8 }, "properties": { "title": "波美拉尼亚公国", "color": "#0056E7", "oid": "103:1585278514225", "tyid": "304000", "fontsize": 12, "halo": 1.8 }, "geometry": { "type": "Point", "coordinates": [ 18.281250, 54.059388 ] } }
{ "type": "Feature", "tippecanoe": { "layer": "7F5D851E5F601585558577145", "minzoom": 2, "maxzoom": 8 }, "properties": { "title": "马佐维亚公国", "color": "#0056E7", "oid": "103:1585278514310", "tyid": "304000", "fontsize": 12, "halo": 1.8 }, "geometry": { "type": "Point", "coordinates": [ 20.478516, 52.696361 ] } }
{ "type": "Feature", "tippecanoe": { "layer": "7F5D851E5F601585558577145", "minzoom": 2, "maxzoom": 8 }, "properties": { "title": "桑多梅日公国", "color": "#0056E7", "oid": "103:1585278514309", "tyid": "304000", "fontsize": 12, "halo": 1.8 }, "geometry": { "type": "Point", "coordinates": [ 20.742188, 50.847573 ] } }
{ "type": "Feature", "tippecanoe": { "layer": "7F5D851E5F601585558577145", "minzoom": 2, "maxzoom": 8 }, "properties": { "title": "教皇国", "color": "#0056E7", "oid": "103:1535120108159", "tyid": "304000", "fontsize": 12, "halo": 1.8 }, "geometry": { "type": "Point", "coordinates": [ 12.304688, 42.553080 ] } }
{ "type": "Feature", "tippecanoe": { "layer": "7F5D851E5F601585558577145", "minzoom": 2, "maxzoom": 8 }, "properties": { "title": "塞尔维亚大公国", "color": "#0056E7", "oid": "103:1535120108157", "tyid": "304002", "fontsize": 12, "halo": 1.6 }, "geometry": { "type": "Point", "coordinates": [ 19.335938, 43.197167 ] } }
{ "type": "Feature", "tippecanoe": { "layer": "7F5D851E5F601585558577145", "minzoom": 2, "maxzoom": 8 }, "properties": { "title": "利沃尼亚人", "color": "#0056E7", "oid": "103:1585278514379", "tyid": "304002", "fontsize": 12, "halo": 1.6 }, "geometry": { "type": "Point", "coordinates": [ 23.203125, 56.897004 ] } }
{ "type": "Feature", "tippecanoe": { "layer": "7F5D851E5F601585558577145", "minzoom": 2, "maxzoom": 8 }, "properties": { "title": "古爱沙尼亚人", "color": "#0056E7", "oid": "103:1585278514208", "tyid": "304000", "fontsize": 12, "halo": 1.8 }, "geometry": { "type": "Point", "coordinates": [ 25.488281, 58.539595 ] } }
{ "type": "Feature", "tippecanoe": { "layer": "7F5D851E5F601585558577145", "minzoom": 2, "maxzoom": 8 }, "properties": { "title": "叶尔西卡公国", "color": "#0056E7", "oid": "103:1585278514299", "tyid": "304000", "fontsize": 12, "halo": 1.8 }, "geometry": { "type": "Point", "coordinates": [ 26.806641, 56.511018 ] } }
{ "type": "Feature", "tippecanoe": { "layer": "7F5D851E5F601585558577145", "minzoom": 2, "maxzoom": 8 }, "properties": { "title": "立陶宛人", "color": "#0056E7", "oid": "103:1585278514300", "tyid": "304000", "fontsize": 12, "halo": 1.8 }, "geometry": { "type": "Point", "coordinates": [ 25.048828, 54.724620 ] } }
{ "type": "Feature", "tippecanoe": { "layer": "7F5D851E5F601585558577145", "minzoom": 2, "maxzoom": 8 }, "properties": { "title": "图罗夫公国", "color": "#0056E7", "oid": "103:1585278514292", "tyid": "304000", "fontsize": 12, "halo": 1.8 }, "geometry": { "type": "Point", "coordinates": [ 27.509766, 52.214339 ] } }
{ "type": "Feature", "tippecanoe": { "layer": "7F5D851E5F601585558577145", "minzoom": 2, "maxzoom": 8 }, "properties": { "title": "波洛茨克公国", "color": "#0056E7", "oid": "103:1585278514291", "tyid": "304000", "fontsize": 12, "halo": 1.8 }, "geometry": { "type": "Point", "coordinates": [ 28.125000, 54.265224 ] } }
{ "type": "Feature", "tippecanoe": { "layer": "7F5D851E5F601585558577145", "minzoom": 2, "maxzoom": 8 }, "properties": { "title": "斯摩棱斯克大公国", "color": "#0056E7", "oid": "103:1585278514290", "tyid": "304000", "fontsize": 12, "halo": 1.8 }, "geometry": { "type": "Point", "coordinates": [ 32.607422, 54.826008 ] } }
{ "type": "Feature", "tippecanoe": { "layer": "7F5D851E5F601585558577145", "minzoom": 2, "maxzoom": 8 }, "properties": { "title": "基辅罗斯", "color": "#0056E7", "oid": "103:1535120108169", "tyid": "304000", "fontsize": 12, "halo": 1.8 }, "geometry": { "type": "Point", "coordinates": [ 29.882812, 49.210420 ] } }
{ "type": "Feature", "tippecanoe": { "layer": "7F5D851E5F601585558577145", "minzoom": 2, "maxzoom": 8 }, "properties": { "title": "切尔尼戈夫公国", "color": "#0056E7", "oid": "103:1585278514359", "tyid": "304000", "fontsize": 12, "halo": 1.8 }, "geometry": { "type": "Point", "coordinates": [ 35.507812, 53.330873 ] } }
{ "type": "Feature", "tippecanoe": { "layer": "7F5D851E5F601585558577145", "minzoom": 2, "maxzoom": 8 }, "properties": { "title": "诺夫哥罗德-谢韦尔斯克公国", "color": "#0056E7", "oid": "103:1585278514287", "tyid": "304000", "fontsize": 12, "halo": 1.8 }, "geometry": { "type": "Point", "coordinates": [ 36.386719, 51.781436 ] } }
{ "type": "Feature", "tippecanoe": { "layer": "7F5D851E5F601585558577145", "minzoom": 2, "maxzoom": 8 }, "properties": { "title": "佩列亚斯拉夫公国", "color": "#0056E7", "oid": "103:1585278514223", "tyid": "304000", "fontsize": 12, "halo": 1.8 }, "geometry": { "type": "Point", "coordinates": [ 34.980469, 49.894634 ] } }
{ "type": "Feature", "tippecanoe": { "layer": "7F5D851E5F601585558577145", "minzoom": 2, "maxzoom": 8 }, "properties": { "title": "梁赞大公国", "color": "#0056E7", "oid": "103:1585278514286", "tyid": "304000", "fontsize": 12, "halo": 1.8 }, "geometry": { "type": "Point", "coordinates": [ 40.605469, 54.316523 ] } }
{ "type": "Feature", "tippecanoe": { "layer": "7F5D851E5F601585558577145", "minzoom": 2, "maxzoom": 8 }, "properties": { "title": "西西里王国", "color": "#0056E7", "oid": "103:1535120108153", "tyid": "304000", "fontsize": 12, "halo": 1.8 }, "geometry": { "type": "Point", "coordinates": [ 15.732422, 40.913513 ] } }
{ "type": "Feature", "tippecanoe": { "layer": "7F5D851E5F601585558577145", "minzoom": 2, "maxzoom": 8 }, "properties": { "title": "贝宁王国", "color": "#0056E7", "oid": "103:1585278514328", "tyid": "304000", "fontsize": 12, "halo": 1.8 }, "geometry": { "type": "Point", "coordinates": [ 4.658203, 7.275292 ] } }
{ "type": "Feature", "tippecanoe": { "layer": "7F5D851E5F601585558577145", "minzoom": 2, "maxzoom": 8 }, "properties": { "title": "奇里乞亚亚美尼亚王国", "color": "#0056E7", "oid": "103:1535120108161", "tyid": "304000", "fontsize": 12, "halo": 1.8 }, "geometry": { "type": "Point", "coordinates": [ 34.365234, 37.300275 ] } }
{ "type": "Feature", "tippecanoe": { "layer": "7F5D851E5F601585558577145", "minzoom": 2, "maxzoom": 8 }, "properties": { "title": "贝扎人", "color": "#0056E7", "oid": "103:1585278514378", "tyid": "304001", "fontsize": 12, "halo": 1.6 }, "geometry": { "type": "Point", "coordinates": [ 36.123047, 18.812718 ] } }
{ "type": "Feature", "tippecanoe": { "layer": "7F5D851E5F601585558577145", "minzoom": 2, "maxzoom": 8 }, "properties": { "title": "谢瓦苏丹国", "color": "#0056E7", "oid": "103:1585278514271", "tyid": "304000", "fontsize": 12, "halo": 1.8 }, "geometry": { "type": "Point", "coordinates": [ 37.617188, 8.841651 ] } }
{ "type": "Feature", "tippecanoe": { "layer": "7F5D851E5F601585558577145", "minzoom": 2, "maxzoom": 8 }, "properties": { "title": "阿拉巴尼苏丹国", "color": "#0056E7", "oid": "103:1585278514274", "tyid": "304000", "fontsize": 12, "halo": 1.8 }, "geometry": { "type": "Point", "coordinates": [ 38.408203, 7.798079 ] } }
{ "type": "Feature", "tippecanoe": { "layer": "7F5D851E5F601585558577145", "minzoom": 2, "maxzoom": 8 }, "properties": { "title": "摩加迪沙苏丹国", "color": "#0056E7", "oid": "103:1585278514270", "tyid": "304000", "fontsize": 12, "halo": 1.8 }, "geometry": { "type": "Point", "coordinates": [ 41.572266, 8.667918 ] } }
{ "type": "Feature", "tippecanoe": { "layer": "7F5D851E5F601585558577145", "minzoom": 2, "maxzoom": 8 }, "properties": { "title": "达瓦洛苏丹国", "color": "#0056E7", "oid": "103:1585278514273", "tyid": "304000", "fontsize": 12, "halo": 1.8 }, "geometry": { "type": "Point", "coordinates": [ 39.726562, 7.188101 ] } }
{ "type": "Feature", "tippecanoe": { "layer": "7F5D851E5F601585558577145", "minzoom": 2, "maxzoom": 8 }, "properties": { "title": "阿兰王国", "color": "#0056E7", "oid": "103:1585278514258", "tyid": "304000", "fontsize": 12, "halo": 1.8 }, "geometry": { "type": "Point", "coordinates": [ 45.615234, 42.875964 ] } }
{ "type": "Feature", "tippecanoe": { "layer": "7F5D851E5F601585558577145", "minzoom": 2, "maxzoom": 8 }, "properties": { "title": "埃迪古奇兹王朝", "color": "#0056E7", "oid": "103:1585278514263", "tyid": "304000", "fontsize": 12, "halo": 1.8 }, "geometry": { "type": "Point", "coordinates": [ 46.318359, 37.649034 ] } }
{ "type": "Feature", "tippecanoe": { "layer": "7F5D851E5F601585558577145", "minzoom": 2, "maxzoom": 8 }, "properties": { "title": "希尔凡沙阿王朝", "color": "#0056E7", "oid": "103:1585278514353", "tyid": "304000", "fontsize": 12, "halo": 1.8 }, "geometry": { "type": "Point", "coordinates": [ 48.691406, 40.111689 ] } }
{ "type": "Feature", "tippecanoe": { "layer": "7F5D851E5F601585558577145", "minzoom": 2, "maxzoom": 8 }, "properties": { "title": "内卜汗王朝", "color": "#0056E7", "oid": "103:1585278514371", "tyid": "304002", "fontsize": 12, "halo": 1.6 }, "geometry": { "type": "Point", "coordinates": [ 57.216797, 23.402765 ] } }
{ "type": "Feature", "tippecanoe": { "layer": "7F5D851E5F601585558577145", "minzoom": 2, "maxzoom": 8 }, "properties": { "title": "拉达克王系", "color": "#0056E7", "oid": "103:1585278514351", "tyid": "304000", "fontsize": 12, "halo": 1.8 }, "geometry": { "type": "Point", "coordinates": [ 72.509766, 36.102376 ] } }
{ "type": "Feature", "tippecanoe": { "layer": "7F5D851E5F601585558577145", "minzoom": 2, "maxzoom": 8 }, "properties": { "title": "索兰基王朝", "color": "#0056E7", "oid": "103:1585278514219", "tyid": "304000", "fontsize": 12, "halo": 1.8 }, "geometry": { "type": "Point", "coordinates": [ 71.279297, 23.725012 ] } }
{ "type": "Feature", "tippecanoe": { "layer": "7F5D851E5F601585558577145", "minzoom": 2, "maxzoom": 8 }, "properties": { "title": "帕拉玛拉王朝", "color": "#0056E7", "oid": "103:1585278514253", "tyid": "304000", "fontsize": 12, "halo": 1.8 }, "geometry": { "type": "Point", "coordinates": [ 76.201172, 24.926295 ] } }
{ "type": "Feature", "tippecanoe": { "layer": "7F5D851E5F601585558577145", "minzoom": 2, "maxzoom": 8 }, "properties": { "title": "马拉王朝[尼泊尔]", "color": "#0056E7", "oid": "103:1585278514211", "tyid": "304000", "fontsize": 12, "halo": 1.8 }, "geometry": { "type": "Point", "coordinates": [ 83.408203, 28.381735 ] } }
{ "type": "Feature", "tippecanoe": { "layer": "7F5D851E5F601585558577145", "minzoom": 2, "maxzoom": 8 }, "properties": { "title": "昌德拉王朝", "color": "#0056E7", "oid": "103:1585278514252", "tyid": "304000", "fontsize": 12, "halo": 1.8 }, "geometry": { "type": "Point", "coordinates": [ 82.001953, 23.483401 ] } }
{ "type": "Feature", "tippecanoe": { "layer": "7F5D851E5F601585558577145", "minzoom": 2, "maxzoom": 8 }, "properties": { "title": "曷萨拉帝国", "color": "#0056E7", "oid": "103:1585278514215", "tyid": "304000", "fontsize": 12, "halo": 1.8 }, "geometry": { "type": "Point", "coordinates": [ 76.552734, 14.264383 ] } }
{ "type": "Feature", "tippecanoe": { "layer": "7F5D851E5F601585558577145", "minzoom": 2, "maxzoom": 8 }, "properties": { "title": "科泽科德王国", "color": "#0056E7", "oid": "103:1585278514212", "tyid": "304000", "fontsize": 12, "halo": 1.8 }, "geometry": { "type": "Point", "coordinates": [ 76.289062, 10.487812 ] } }
{ "type": "Feature", "tippecanoe": { "layer": "7F5D851E5F601585558577145", "minzoom": 2, "maxzoom": 8 }, "properties": { "title": "朱罗-遮娄其王国", "color": "#0056E7", "oid": "103:1585278514214", "tyid": "304000", "fontsize": 12, "halo": 1.8 }, "geometry": { "type": "Point", "coordinates": [ 77.695312, 10.833306 ] } }
{ "type": "Feature", "tippecanoe": { "layer": "7F5D851E5F601585558577145", "minzoom": 2, "maxzoom": 8 }, "properties": { "title": "东恒伽王朝", "color": "#0056E7", "oid": "103:1585278514250", "tyid": "304000", "fontsize": 12, "halo": 1.8 }, "geometry": { "type": "Point", "coordinates": [ 84.550781, 20.632784 ] } }
{ "type": "Feature", "tippecanoe": { "layer": "7F5D851E5F601585558577145", "minzoom": 2, "maxzoom": 8 }, "properties": { "title": "波隆拉努沃王国", "color": "#0056E7", "oid": "103:1585278514204", "tyid": "304000", "fontsize": 12, "halo": 1.8 }, "geometry": { "type": "Point", "coordinates": [ 80.683594, 7.623887 ] } }
{ "type": "Feature", "tippecanoe": { "layer": "7F5D851E5F601585558577145", "minzoom": 2, "maxzoom": 8 }, "properties": { "title": "迦摩缕波王国", "color": "#0056E7", "oid": "103:1585278514348", "tyid": "304000", "fontsize": 12, "halo": 1.8 }, "geometry": { "type": "Point", "coordinates": [ 91.933594, 26.194877 ] } }
{ "type": "Feature", "tippecanoe": { "layer": "7F5D851E5F601585558577145", "minzoom": 2, "maxzoom": 8 }, "properties": { "title": "犀那王朝", "color": "#0056E7", "oid": "103:1585278514350", "tyid": "304000", "fontsize": 12, "halo": 1.8 }, "geometry": { "type": "Point", "coordinates": [ 90.351562, 24.287027 ] } }
{ "type": "Feature", "tippecanoe": { "layer": "7F5D851E5F601585558577145", "minzoom": 2, "maxzoom": 8 }, "properties": { "title": "若开诸国", "color": "#0056E7", "oid": "103:1585278514375", "tyid": "304002", "fontsize": 12, "halo": 1.6 }, "geometry": { "type": "Point", "coordinates": [ 92.900391, 21.453069 ] } }
{ "type": "Feature", "tippecanoe": { "layer": "7F5D851E5F601585558577145", "minzoom": 2, "maxzoom": 8 }, "properties": { "title": "骇黎朋猜国", "color": "#0056E7", "oid": "103:1585278514209", "tyid": "304000", "fontsize": 12, "halo": 1.8 }, "geometry": { "type": "Point", "coordinates": [ 99.140625, 18.562947 ] } }
{ "type": "Feature", "tippecanoe": { "layer": "7F5D851E5F601585558577145", "minzoom": 2, "maxzoom": 8 }, "properties": { "title": "大越国", "color": "#0056E7", "oid": "103:1585278514245", "tyid": "304000", "fontsize": 12, "halo": 1.8 }, "geometry": { "type": "Point", "coordinates": [ 105.380859, 21.125498 ] } }
{ "type": "Feature", "tippecanoe": { "layer": "7F5D851E5F601585558577145", "minzoom": 2, "maxzoom": 8 }, "properties": { "title": "占婆国", "color": "#0056E7", "oid": "103:1585278514347", "tyid": "304000", "fontsize": 12, "halo": 1.8 }, "geometry": { "type": "Point", "coordinates": [ 108.369141, 14.604847 ] } }
{ "type": "Feature", "tippecanoe": { "layer": "7F5D851E5F601585558577145", "minzoom": 2, "maxzoom": 8 }, "properties": { "title": "高丽", "color": "#0056E7", "oid": "103:1585278514230", "tyid": "304000", "fontsize": 12, "halo": 1.8 }, "geometry": { "type": "Point", "coordinates": [ 127.705078, 37.090240 ] } }
{ "type": "Feature", "tippecanoe": { "layer": "7F5D851E5F601585558577145", "minzoom": 2, "maxzoom": 8 }, "properties": { "title": "渤泥国", "color": "#0056E7", "oid": "103:1585278514232", "tyid": "304000", "fontsize": 12, "halo": 1.8 }, "geometry": { "type": "Point", "coordinates": [ 114.960938, 4.477856 ] } }
{ "type": "Feature", "tippecanoe": { "layer": "7F5D851E5F601585558577145", "minzoom": 2, "maxzoom": 8 }, "properties": { "title": "虾夷", "color": "#0056E7", "oid": "103:1585278514380", "tyid": "304002", "fontsize": 12, "halo": 1.6 }, "geometry": { "type": "Point", "coordinates": [ 142.558594, 43.389082 ] } }
{ "type": "Feature", "tippecanoe": { "layer": "7F5D851E5F601585558577145", "minzoom": 2, "maxzoom": 8 }, "properties": { "title": "末罗瑜王国", "color": "#0056E7", "oid": "103:1585278514239", "tyid": "304000", "fontsize": 12, "halo": 1.8 }, "geometry": { "type": "Point", "coordinates": [ 103.095703, -1.054628 ] } }
{ "type": "Feature", "tippecanoe": { "layer": "7F5D851E5F601585558577145", "minzoom": 2, "maxzoom": 8 }, "properties": { "title": "谏义里国", "color": "#0056E7", "oid": "103:1585278514333", "tyid": "304000", "fontsize": 12, "halo": 1.8 }, "geometry": { "type": "Point", "coordinates": [ 111.708984, -7.623887 ] } }
{ "type": "Feature", "tippecanoe": { "layer": "7F5D851E80B81585558577143", "minzoom": 2, "maxzoom": 8 }, "properties": { "title": "群岛王国", "color": "#202020", "oid": "103:1585278514340", "tyid": "304000", "fontsize": 12, "halo": 0.8 }, "geometry": { "type": "Point", "coordinates": [ -6.591797, 58.263287 ] } }
{ "type": "Feature", "tippecanoe": { "layer": "7F5D851E80B81585558577143", "minzoom": 2, "maxzoom": 8 }, "properties": { "title": "埃里克王国", "color": "#202020", "oid": "103:1585278514325", "tyid": "304000", "fontsize": 12, "halo": 0.8 }, "geometry": { "type": "Point", "coordinates": [ -7.470703, 54.775346 ] } }
{ "type": "Feature", "tippecanoe": { "layer": "7F5D851E80B81585558577143", "minzoom": 2, "maxzoom": 8 }, "properties": { "title": "纳瓦拉王国", "color": "#202020", "oid": "103:1585278514317", "tyid": "304000", "fontsize": 12, "halo": 0.8 }, "geometry": { "type": "Point", "coordinates": [ -2.109375, 42.940339 ] } }
{ "type": "Feature", "tippecanoe": { "layer": "7F5D851E80B81585558577143", "minzoom": 2, "maxzoom": 8 }, "properties": { "title": "荷兰伯国", "color": "#202020", "oid": "103:1585278514338", "tyid": "304000", "fontsize": 12, "halo": 0.8 }, "geometry": { "type": "Point", "coordinates": [ 4.658203, 52.052490 ] } }
{ "type": "Feature", "tippecanoe": { "layer": "7F5D851E80B81585558577143", "minzoom": 2, "maxzoom": 8 }, "properties": { "title": "布拉班特公国", "color": "#202020", "oid": "103:1585278514320", "tyid": "304000", "fontsize": 12, "halo": 0.8 }, "geometry": { "type": "Point", "coordinates": [ 4.746094, 51.069017 ] } }
{ "type": "Feature", "tippecanoe": { "layer": "7F5D851E80B81585558577143", "minzoom": 2, "maxzoom": 8 }, "properties": { "title": "普罗旺斯伯国", "color": "#202020", "oid": "103:1585278514367", "tyid": "304000", "fontsize": 12, "halo": 0.8 }, "geometry": { "type": "Point", "coordinates": [ 6.064453, 43.516689 ] } }
{ "type": "Feature", "tippecanoe": { "layer": "7F5D851E80B81585558577143", "minzoom": 2, "maxzoom": 8 }, "properties": { "title": "热那亚共和国", "color": "#202020", "oid": "103:1585278514366", "tyid": "304000", "fontsize": 12, "halo": 0.8 }, "geometry": { "type": "Point", "coordinates": [ 7.822266, 44.087585 ] } }
{ "type": "Feature", "tippecanoe": { "layer": "7F5D851E80B81585558577143", "minzoom": 2, "maxzoom": 8 }, "properties": { "title": "比萨共和国", "color": "#202020", "oid": "103:1585278514334", "tyid": "304000", "fontsize": 12, "halo": 0.8 }, "geometry": { "type": "Point", "coordinates": [ 9.052734, 42.358544 ] } }
{ "type": "Feature", "tippecanoe": { "layer": "7F5D851E80B81585558577143", "minzoom": 2, "maxzoom": 8 }, "properties": { "title": "吕根亲王国", "color": "#202020", "oid": "103:1585278514342", "tyid": "304000", "fontsize": 12, "halo": 0.8 }, "geometry": { "type": "Point", "coordinates": [ 12.832031, 54.110943 ] } }
{ "type": "Feature", "tippecanoe": { "layer": "7F5D851E80B81585558577143", "minzoom": 2, "maxzoom": 8 }, "properties": { "title": "克拉科夫公国", "color": "#202020", "oid": "103:1585278514303", "tyid": "304000", "fontsize": 12, "halo": 0.8 }, "geometry": { "type": "Point", "coordinates": [ 18.720703, 49.553726 ] } }
{ "type": "Feature", "tippecanoe": { "layer": "7F5D851E80B81585558577143", "minzoom": 2, "maxzoom": 8 }, "properties": { "title": "威尼斯共和国", "color": "#202020", "oid": "103:1585278514335", "tyid": "304000", "fontsize": 12, "halo": 0.8 }, "geometry": { "type": "Point", "coordinates": [ 13.798828, 45.089036 ] } }
{ "type": "Feature", "tippecanoe": { "layer": "7F5D851E80B81585558577143", "minzoom": 2, "maxzoom": 8 }, "properties": { "title": "波斯尼亚班内特国", "color": "#202020", "oid": "103:1585278514297", "tyid": "304000", "fontsize": 12, "halo": 0.8 }, "geometry": { "type": "Point", "coordinates": [ 17.841797, 44.087585 ] } }
{ "type": "Feature", "tippecanoe": { "layer": "7F5D851E80B81585558577143", "minzoom": 2, "maxzoom": 8 }, "properties": { "title": "克里米亚哥特人", "color": "#262626", "oid": "103:1585278514377", "tyid": "304002", "fontsize": 12, "halo": 0.8 }, "geometry": { "type": "Point", "coordinates": [ 33.925781, 45.521744 ] } }
{ "type": "Feature", "tippecanoe": { "layer": "7F5D851E80B81585558577143", "minzoom": 2, "maxzoom": 8 }, "properties": { "title": "阿波利亚王国", "color": "#202020", "oid": "103:1585278514227", "tyid": "304000", "fontsize": 12, "halo": 0.8 }, "geometry": { "type": "Point", "coordinates": [ 8.789062, 39.909736 ] } }
{ "type": "Feature", "tippecanoe": { "layer": "7F5D851E80B81585558577143", "minzoom": 2, "maxzoom": 8 }, "properties": { "title": "卡利亚里王国", "color": "#202020", "oid": "103:1585278514206", "tyid": "304000", "fontsize": 12, "halo": 0.8 }, "geometry": { "type": "Point", "coordinates": [ 9.052734, 39.436193 ] } }
{ "type": "Feature", "tippecanoe": { "layer": "7F5D851E80B81585558577143", "minzoom": 2, "maxzoom": 8 }, "properties": { "title": "塞浦路斯王国", "color": "#202020", "oid": "103:1535120108151", "tyid": "304000", "fontsize": 12, "halo": 0.8 }, "geometry": { "type": "Point", "coordinates": [ 33.134766, 35.101934 ] } }
{ "type": "Feature", "tippecanoe": { "layer": "7F5D851E80B81585558577143", "minzoom": 2, "maxzoom": 8 }, "properties": { "title": "安条克公国", "color": "#202020", "oid": "103:1535120108163", "tyid": "304000", "fontsize": 12, "halo": 0.8 }, "geometry": { "type": "Point", "coordinates": [ 36.298828, 36.385913 ] } }
{ "type": "Feature", "tippecanoe": { "layer": "7F5D851E80B81585558577143", "minzoom": 2, "maxzoom": 8 }, "properties": { "title": "的黎波里伯国", "color": "#202020", "oid": "103:1585278514266", "tyid": "304000", "fontsize": 12, "halo": 0.8 }, "geometry": { "type": "Point", "coordinates": [ 36.298828, 35.389050 ] } }
{ "type": "Feature", "tippecanoe": { "layer": "7F5D851E80B81585558577143", "minzoom": 2, "maxzoom": 8 }, "properties": { "title": "耶路撒冷拉丁王国", "color": "#202020", "oid": "103:1585278514355", "tyid": "304000", "fontsize": 12, "halo": 0.8 }, "geometry": { "type": "Point", "coordinates": [ 35.156250, 33.063924 ] } }
{ "type": "Feature", "tippecanoe": { "layer": "7F5D851E80B81585558577143", "minzoom": 2, "maxzoom": 8 }, "properties": { "title": "果阿的卡丹巴王朝", "color": "#202020", "oid": "103:1585278514247", "tyid": "304000", "fontsize": 12, "halo": 0.8 }, "geometry": { "type": "Point", "coordinates": [ 74.179688, 15.368950 ] } }
{ "type": "Feature", "tippecanoe": { "layer": "7F5D851E8B701585558577129", "minzoom": 2, "maxzoom": 8 }, "properties": { "tyid": "306000", "offset": "[0,2]", "color": "#A44900", "oid": "103:1537436004360", "icon": "door", "fontsize": 12, "title": "彰义门", "halo": 0.2 }, "geometry": { "type": "Point", "coordinates": [ 116.279297, 39.909736 ] } }
{ "type": "Feature", "tippecanoe": { "layer": "7F5D851E8B701585558577129", "minzoom": 2, "maxzoom": 8 }, "properties": { "tyid": "306000", "offset": "[0,2]", "color": "#A44900", "oid": "103:1537436004362", "icon": "door", "fontsize": 12, "title": "颢华门", "halo": 0.2 }, "geometry": { "type": "Point", "coordinates": [ 116.279297, 39.909736 ] } }
{ "type": "Feature", "tippecanoe": { "layer": "7F5D851E8B701585558577129", "minzoom": 2, "maxzoom": 8 }, "properties": { "tyid": "306000", "offset": "[0,2]", "color": "#A44900", "oid": "103:1537436004364", "icon": "door", "fontsize": 12, "title": "丽泽门", "halo": 0.2 }, "geometry": { "type": "Point", "coordinates": [ 116.279297, 39.909736 ] } }
{ "type": "Feature", "tippecanoe": { "layer": "7F5D851E8B701585558577129", "minzoom": 2, "maxzoom": 8 }, "properties": { "tyid": "306000", "offset": "[0,2]", "color": "#A44900", "oid": "103:1537436004359", "icon": "door", "fontsize": 12, "title": "会城门", "halo": 0.2 }, "geometry": { "type": "Point", "coordinates": [ 116.279297, 39.909736 ] } }
{ "type": "Feature", "tippecanoe": { "layer": "7F5D851E8B701585558577129", "minzoom": 2, "maxzoom": 8 }, "properties": { "tyid": "306000", "offset": "[0,2]", "color": "#A44900", "oid": "103:1537436004357", "icon": "door", "fontsize": 12, "title": "通玄门", "halo": 0.2 }, "geometry": { "type": "Point", "coordinates": [ 116.279297, 39.909736 ] } }
{ "type": "Feature", "tippecanoe": { "layer": "7F5D851E8B701585558577129", "minzoom": 2, "maxzoom": 8 }, "properties": { "tyid": "306000", "offset": "[0,2]", "color": "#A44900", "oid": "103:1537436004389", "icon": "door", "fontsize": 12, "title": "玉华门（显西门）", "halo": 0.2 }, "geometry": { "type": "Point", "coordinates": [ 116.279297, 39.909736 ] } }
{ "type": "Feature", "tippecanoe": { "layer": "7F5D851E8B701585558577129", "minzoom": 2, "maxzoom": 8 }, "properties": { "tyid": "306001", "offset": "[0,2]", "color": "#A44900", "oid": "103:1537436004384", "icon": "door", "fontsize": 12, "title": "拱辰门", "halo": 0.2 }, "geometry": { "type": "Point", "coordinates": [ 116.279297, 39.909736 ] } }
{ "type": "Feature", "tippecanoe": { "layer": "7F5D851E8B701585558577129", "minzoom": 2, "maxzoom": 8 }, "properties": { "tyid": "306001", "offset": "[0,2]", "color": "#A44900", "oid": "103:1537436004382", "icon": "door", "fontsize": 12, "title": "昭明门", "halo": 0.2 }, "geometry": { "type": "Point", "coordinates": [ 116.279297, 39.909736 ] } }
{ "type": "Feature", "tippecanoe": { "layer": "7F5D851E8B701585558577129", "minzoom": 2, "maxzoom": 8 }, "properties": { "tyid": "306001", "offset": "[0,2]", "color": "#A44900", "oid": "103:1537436004386", "icon": "door", "fontsize": 12, "title": "玉华门", "halo": 0.2 }, "geometry": { "type": "Point", "coordinates": [ 116.279297, 39.909736 ] } }
{ "type": "Feature", "tippecanoe": { "layer": "7F5D851E8B701585558577129", "minzoom": 2, "maxzoom": 8 }, "properties": { "tyid": "306001", "offset": "[0,2]", "color": "#A44900", "oid": "103:1537436004381", "icon": "door", "fontsize": 12, "title": "仁政门", "halo": 0.2 }, "geometry": { "type": "Point", "coordinates": [ 116.279297, 39.909736 ] } }
{ "type": "Feature", "tippecanoe": { "layer": "7F5D851E8B701585558577129", "minzoom": 2, "maxzoom": 8 }, "properties": { "tyid": "306001", "offset": "[0,2]", "color": "#A44900", "oid": "103:1537436004379", "icon": "door", "fontsize": 12, "title": "宣明门", "halo": 0.2 }, "geometry": { "type": "Point", "coordinates": [ 116.279297, 39.909736 ] } }
{ "type": "Feature", "tippecanoe": { "layer": "7F5D851E8B701585558577129", "minzoom": 2, "maxzoom": 8 }, "properties": { "tyid": "306001", "offset": "[0,2]", "color": "#A44900", "oid": "103:1537436004377", "icon": "door", "fontsize": 12, "title": "大安门", "halo": 0.2 }, "geometry": { "type": "Point", "coordinates": [ 116.279297, 39.909736 ] } }
{ "type": "Feature", "tippecanoe": { "layer": "7F5D851E8B701585558577129", "minzoom": 2, "maxzoom": 8 }, "properties": { "tyid": "306001", "offset": "[0,2]", "color": "#A44900", "oid": "103:1537436004376", "icon": "door", "fontsize": 12, "title": "应天门", "halo": 0.2 }, "geometry": { "type": "Point", "coordinates": [ 116.279297, 39.909736 ] } }
{ "type": "Feature", "tippecanoe": { "layer": "7F5D851E8B701585558577129", "minzoom": 2, "maxzoom": 8 }, "properties": { "tyid": "306000", "offset": "[0,2]", "color": "#A44900", "oid": "103:1537436004355", "icon": "door", "fontsize": 12, "title": "崇智门", "halo": 0.2 }, "geometry": { "type": "Point", "coordinates": [ 116.279297, 39.909736 ] } }
{ "type": "Feature", "tippecanoe": { "layer": "7F5D851E8B701585558577129", "minzoom": 2, "maxzoom": 8 }, "properties": { "tyid": "306001", "offset": "[0,2]", "color": "#A44900", "oid": "103:1537436004388", "icon": "door", "fontsize": 12, "title": "宣华门", "halo": 0.2 }, "geometry": { "type": "Point", "coordinates": [ 116.279297, 39.909736 ] } }
{ "type": "Feature", "tippecanoe": { "layer": "7F5D851E8B701585558577129", "minzoom": 2, "maxzoom": 8 }, "properties": { "tyid": "306000", "offset": "[0,2]", "color": "#A44900", "oid": "103:1537436004365", "icon": "door", "fontsize": 12, "title": "端礼门", "halo": 0.2 }, "geometry": { "type": "Point", "coordinates": [ 116.279297, 39.909736 ] } }
{ "type": "Feature", "tippecanoe": { "layer": "7F5D851E8B701585558577129", "minzoom": 2, "maxzoom": 8 }, "properties": { "tyid": "306000", "offset": "[0,2]", "color": "#A44900", "oid": "103:1537436004374", "icon": "door", "fontsize": 12, "title": "宣阳门", "halo": 0.2 }, "geometry": { "type": "Point", "coordinates": [ 116.279297, 39.909736 ] } }
{ "type": "Feature", "tippecanoe": { "layer": "7F5D851E8B701585558577129", "minzoom": 2, "maxzoom": 8 }, "properties": { "tyid": "306000", "offset": "[0,2]", "color": "#A44900", "oid": "103:1537436004367", "icon": "door", "fontsize": 12, "title": "丰宜门", "halo": 0.2 }, "geometry": { "type": "Point", "coordinates": [ 116.279297, 39.909736 ] } }
{ "type": "Feature", "tippecanoe": { "layer": "7F5D851E8B701585558577129", "minzoom": 2, "maxzoom": 8 }, "properties": { "tyid": "306000", "offset": "[0,2]", "color": "#A44900", "oid": "103:1537436004369", "icon": "door", "fontsize": 12, "title": "水门", "halo": 0.2 }, "geometry": { "type": "Point", "coordinates": [ 116.279297, 39.909736 ] } }
{ "type": "Feature", "tippecanoe": { "layer": "7F5D851E8B701585558577129", "minzoom": 2, "maxzoom": 8 }, "properties": { "tyid": "306000", "offset": "[0,2]", "color": "#A44900", "oid": "103:1537436004371", "icon": "door", "fontsize": 12, "title": "景风门", "halo": 0.2 }, "geometry": { "type": "Point", "coordinates": [ 116.279297, 39.909736 ] } }
{ "type": "Feature", "tippecanoe": { "layer": "7F5D851E8B701585558577129", "minzoom": 2, "maxzoom": 8 }, "properties": { "tyid": "306000", "offset": "[0,2]", "color": "#A44900", "oid": "103:1537436004354", "icon": "door", "fontsize": 12, "title": "光泰门", "halo": 0.2 }, "geometry": { "type": "Point", "coordinates": [ 116.367188, 39.909736 ] } }
{ "type": "Feature", "tippecanoe": { "layer": "7F5D851E8B701585558577129", "minzoom": 2, "maxzoom": 8 }, "properties": { "tyid": "306000", "offset": "[0,2]", "color": "#A44900", "oid": "103:1537436004352", "icon": "door", "fontsize": 12, "title": "施仁门", "halo": 0.2 }, "geometry": { "type": "Point", "coordinates": [ 116.367188, 39.909736 ] } }
{ "type": "Feature", "tippecanoe": { "layer": "7F5D851E8B701585558577129", "minzoom": 2, "maxzoom": 8 }, "properties": { "tyid": "306000", "offset": "[0,2]", "color": "#A44900", "oid": "103:1537436004350", "icon": "door", "fontsize": 12, "title": "宣曜门", "halo": 0.2 }, "geometry": { "type": "Point", "coordinates": [ 116.367188, 39.909736 ] } }
{ "type": "Feature", "tippecanoe": { "layer": "7F5D851E8B701585558577129", "minzoom": 2, "maxzoom": 8 }, "properties": { "tyid": "306000", "offset": "[0,2]", "color": "#A44900", "oid": "103:1537436004372", "icon": "door", "fontsize": 12, "title": "阳春门", "halo": 0.2 }, "geometry": { "type": "Point", "coordinates": [ 116.367188, 39.909736 ] } }
{ "type": "Feature", "tippecanoe": { "layer": "7F5D868597B81585558577112", "minzoom": 2, "maxzoom": 8 }, "properties": { "tyid": "701000", "title": "长春宫", "color": "#4B4040", "oid": "103:1537436833983", "icon": "", "fontsize": 12, "halo": 0.2, "centroid": "{\"type\":\"Point\",\"coordinates\":[116.335411176576,39.89909032965]}" }, "geometry": { "type": "Point", "coordinates": [ 116.279297, 39.909736 ] } }
{ "type": "Feature", "tippecanoe": { "layer": "7F5D868597B81585558577112", "minzoom": 2, "maxzoom": 8 }, "properties": { "tyid": "701000", "title": "白云观", "color": "#4B4040", "oid": "103:1537436833985", "icon": "", "fontsize": 12, "halo": 0.2, "centroid": "{\"type\":\"Point\",\"coordinates\":[116.337803416177,39.8994722332]}" }, "geometry": { "type": "Point", "coordinates": [ 116.279297, 39.909736 ] } }
{ "type": "Feature", "tippecanoe": { "layer": "7F5D868597B81585558577112", "minzoom": 2, "maxzoom": 8 }, "properties": { "tyid": "701000", "title": "天王寺", "color": "#4B4040", "oid": "103:1537436833986", "icon": "", "fontsize": 12, "halo": 0.2, "centroid": "{\"type\":\"Point\",\"coordinates\":[116.339759248275,39.8936948027]}" }, "geometry": { "type": "Point", "coordinates": [ 116.279297, 39.909736 ] } }
{ "type": "Feature", "tippecanoe": { "layer": "7F5D868597B81585558577112", "minzoom": 2, "maxzoom": 8 }, "properties": { "tyid": "701000", "title": "洪法寺", "color": "#4B4040", "oid": "103:1537436833988", "icon": "", "fontsize": 12, "halo": 0.2, "centroid": "{\"type\":\"Point\",\"coordinates\":[116.342701293538,39.8924050555]}" }, "geometry": { "type": "Point", "coordinates": [ 116.279297, 39.909736 ] } }
{ "type": "Feature", "tippecanoe": { "layer": "7F5D868597B81585558577112", "minzoom": 2, "maxzoom": 8 }, "properties": { "tyid": "701000", "title": "昊天寺", "color": "#4B4040", "oid": "103:1537436833990", "icon": "", "fontsize": 12, "halo": 0.2, "centroid": "{\"type\":\"Point\",\"coordinates\":[116.344103810314,39.8919491508]}" }, "geometry": { "type": "Point", "coordinates": [ 116.279297, 39.909736 ] } }
{ "type": "Feature", "tippecanoe": { "layer": "7F5D868597B81585558577112", "minzoom": 2, "maxzoom": 8 }, "properties": { "tyid": "700000", "title": "昭明宫", "color": "#4B4040", "oid": "103:1537436858864", "icon": "", "fontsize": 12, "halo": 0.2, "centroid": "{\"type\":\"Point\",\"coordinates\":[116.3422194847,39.8851674882]}" }, "geometry": { "type": "Point", "coordinates": [ 116.279297, 39.909736 ] } }
{ "type": "Feature", "tippecanoe": { "layer": "7F5D868597B81585558577112", "minzoom": 2, "maxzoom": 8 }, "properties": { "tyid": "700000", "title": "仁政殿", "color": "#4B4040", "oid": "103:1537436858862", "icon": "", "fontsize": 12, "halo": 0.2, "centroid": "{\"type\":\"Point\",\"coordinates\":[116.342260482217,39.8840995286]}" }, "geometry": { "type": "Point", "coordinates": [ 116.279297, 39.909736 ] } }
{ "type": "Feature", "tippecanoe": { "layer": "7F5D868597B81585558577112", "minzoom": 2, "maxzoom": 8 }, "properties": { "tyid": "700000", "title": "大安殿", "color": "#4B4040", "oid": "103:1537436858860", "icon": "", "fontsize": 12, "halo": 0.2, "centroid": "{\"type\":\"Point\",\"coordinates\":[116.342524173576,39.8792957339]}" }, "geometry": { "type": "Point", "coordinates": [ 116.279297, 39.909736 ] } }
{ "type": "Feature", "tippecanoe": { "layer": "7F5D868597B81585558577112", "minzoom": 2, "maxzoom": 8 }, "properties": { "tyid": "701000", "title": "紫金寺", "color": "#4B4040", "oid": "103:1537436833993", "icon": "", "fontsize": 12, "halo": 0.2, "centroid": "{\"type\":\"Point\",\"coordinates\":[116.354174460123,39.8955068812]}" }, "geometry": { "type": "Point", "coordinates": [ 116.279297, 39.909736 ] } }
{ "type": "Feature", "tippecanoe": { "layer": "7F5D868597B81585558577112", "minzoom": 2, "maxzoom": 8 }, "properties": { "tyid": "701000", "title": "海云寺", "color": "#4B4040", "oid": "103:1537436833997", "icon": "", "fontsize": 12, "halo": 0.2, "centroid": "{\"type\":\"Point\",\"coordinates\":[116.356029597081,39.89692845055]}" }, "geometry": { "type": "Point", "coordinates": [ 116.279297, 39.909736 ] } }
{ "type": "Feature", "tippecanoe": { "layer": "7F5D868597B81585558577112", "minzoom": 2, "maxzoom": 8 }, "properties": { "tyid": "701000", "title": "圆洪寺", "color": "#4B4040", "oid": "103:1537436833998", "icon": "", "fontsize": 12, "halo": 0.2, "centroid": "{\"type\":\"Point\",\"coordinates\":[116.357801751692,39.89969660845]}" },