{"year": "AD1206",  "type": "Feature", "tippecanoe": { "layer": "2AFCA0E875501583915512282", "minzoom": 2, "maxzoom": 8 }, "properties": { "halo": 1.8, "title": "群岛王国", "fontsize": 12, "tyid": "304000", "oid": "103:1576575138027", "color": "#0056E7" }, "geometry": { "type": "Point", "coordinates": [ -6.591797, 58.263287 ] } }
{"year": "AD1206",  "type": "Feature", "tippecanoe": { "layer": "2AFCA0E875501583915512282", "minzoom": 2, "maxzoom": 8 }, "properties": { "halo": 1.8, "title": "埃里克王国", "fontsize": 12, "tyid": "304000", "oid": "103:1576575138010", "color": "#0056E7" }, "geometry": { "type": "Point", "coordinates": [ -7.470703, 54.775346 ] } }
{"year": "AD1206",  "type": "Feature", "tippecanoe": { "layer": "2AFCA0E875501583915512282", "minzoom": 2, "maxzoom": 8 }, "properties": { "halo": 1.8, "title": "纳瓦拉王国", "fontsize": 12, "tyid": "304000", "oid": "103:1535120137597", "color": "#0056E7" }, "geometry": { "type": "Point", "coordinates": [ -2.109375, 42.940339 ] } }
{"year": "AD1206",  "type": "Feature", "tippecanoe": { "layer": "2AFCA0E875501583915512282", "minzoom": 2, "maxzoom": 8 }, "properties": { "halo": 1.8, "title": "荷兰伯国", "fontsize": 12, "tyid": "304000", "oid": "103:1576575138026", "color": "#0056E7" }, "geometry": { "type": "Point", "coordinates": [ 4.658203, 52.052490 ] } }
{"year": "AD1206",  "type": "Feature", "tippecanoe": { "layer": "2AFCA0E875501583915512282", "minzoom": 2, "maxzoom": 8 }, "properties": { "halo": 1.8, "title": "布拉班特公国", "fontsize": 12, "tyid": "304000", "oid": "103:1576575138004", "color": "#0056E7" }, "geometry": { "type": "Point", "coordinates": [ 4.746094, 51.069017 ] } }
{"year": "AD1206",  "type": "Feature", "tippecanoe": { "layer": "2AFCA0E875501583915512282", "minzoom": 2, "maxzoom": 8 }, "properties": { "halo": 1.8, "title": "普罗旺斯伯国", "fontsize": 12, "tyid": "304000", "oid": "103:1576575138065", "color": "#0056E7" }, "geometry": { "type": "Point", "coordinates": [ 6.064453, 43.516689 ] } }
{"year": "AD1206",  "type": "Feature", "tippecanoe": { "layer": "2AFCA0E875501583915512282", "minzoom": 2, "maxzoom": 8 }, "properties": { "halo": 1.8, "title": "热那亚共和国", "fontsize": 12, "tyid": "304000", "oid": "103:1576575138064", "color": "#0056E7" }, "geometry": { "type": "Point", "coordinates": [ 7.822266, 44.087585 ] } }
{"year": "AD1206",  "type": "Feature", "tippecanoe": { "layer": "2AFCA0E875501583915512282", "minzoom": 2, "maxzoom": 8 }, "properties": { "halo": 1.8, "title": "比萨共和国", "fontsize": 12, "tyid": "304000", "oid": "103:1576575138021", "color": "#0056E7" }, "geometry": { "type": "Point", "coordinates": [ 9.052734, 42.358544 ] } }
{"year": "AD1206",  "type": "Feature", "tippecanoe": { "layer": "2AFCA0E875501583915512282", "minzoom": 2, "maxzoom": 8 }, "properties": { "halo": 1.8, "title": "吕根亲王国", "fontsize": 12, "tyid": "304000", "oid": "103:1576575138030", "color": "#0056E7" }, "geometry": { "type": "Point", "coordinates": [ 12.832031, 54.110943 ] } }
{"year": "AD1206",  "type": "Feature", "tippecanoe": { "layer": "2AFCA0E875501583915512282", "minzoom": 2, "maxzoom": 8 }, "properties": { "halo": 1.8, "title": "克拉科夫公国", "fontsize": 12, "tyid": "304000", "oid": "103:1576575137984", "color": "#0056E7" }, "geometry": { "type": "Point", "coordinates": [ 18.720703, 49.553726 ] } }
{"year": "AD1206",  "type": "Feature", "tippecanoe": { "layer": "2AFCA0E875501583915512282", "minzoom": 2, "maxzoom": 8 }, "properties": { "halo": 1.8, "title": "威尼斯共和国", "fontsize": 12, "tyid": "304000", "oid": "103:1576575138022", "color": "#0056E7" }, "geometry": { "type": "Point", "coordinates": [ 13.798828, 45.089036 ] } }
{"year": "AD1206",  "type": "Feature", "tippecanoe": { "layer": "2AFCA0E875501583915512282", "minzoom": 2, "maxzoom": 8 }, "properties": { "halo": 1.8, "title": "波斯尼亚班内特国", "fontsize": 12, "tyid": "304000", "oid": "103:1576575137977", "color": "#0056E7" }, "geometry": { "type": "Point", "coordinates": [ 17.841797, 44.087585 ] } }
{"year": "AD1206",  "type": "Feature", "tippecanoe": { "layer": "2AFCA0E875501583915512282", "minzoom": 2, "maxzoom": 8 }, "properties": { "halo": 1.6, "title": "克里米亚哥特人", "fontsize": 12, "tyid": "304002", "oid": "103:1576575138080", "color": "#0056E7" }, "geometry": { "type": "Point", "coordinates": [ 33.925781, 45.521744 ] } }
{"year": "AD1206",  "type": "Feature", "tippecanoe": { "layer": "2AFCA0E875501583915512282", "minzoom": 2, "maxzoom": 8 }, "properties": { "halo": 1.8, "title": "阿波利亚王国", "fontsize": 12, "tyid": "304000", "oid": "103:1576575137884", "color": "#0056E7" }, "geometry": { "type": "Point", "coordinates": [ 8.789062, 39.909736 ] } }
{"year": "AD1206",  "type": "Feature", "tippecanoe": { "layer": "2AFCA0E875501583915512282", "minzoom": 2, "maxzoom": 8 }, "properties": { "halo": 1.8, "title": "卡利亚里王国", "fontsize": 12, "tyid": "304000", "oid": "103:1576575137862", "color": "#0056E7" }, "geometry": { "type": "Point", "coordinates": [ 9.052734, 39.436193 ] } }
{"year": "AD1206",  "type": "Feature", "tippecanoe": { "layer": "2AFCA0E875501583915512282", "minzoom": 2, "maxzoom": 8 }, "properties": { "halo": 1.8, "title": "塞浦路斯王国", "fontsize": 12, "tyid": "304000", "oid": "103:1535120137547", "color": "#0056E7" }, "geometry": { "type": "Point", "coordinates": [ 33.134766, 35.101934 ] } }
{"year": "AD1206",  "type": "Feature", "tippecanoe": { "layer": "2AFCA0E875501583915512282", "minzoom": 2, "maxzoom": 8 }, "properties": { "halo": 1.8, "title": "安条克公国", "fontsize": 12, "tyid": "304000", "oid": "103:1535120137572", "color": "#0056E7" }, "geometry": { "type": "Point", "coordinates": [ 36.298828, 36.385913 ] } }
{"year": "AD1206",  "type": "Feature", "tippecanoe": { "layer": "2AFCA0E875501583915512282", "minzoom": 2, "maxzoom": 8 }, "properties": { "halo": 1.8, "title": "的黎波里伯国", "fontsize": 12, "tyid": "304000", "oid": "103:1535120137573", "color": "#0056E7" }, "geometry": { "type": "Point", "coordinates": [ 36.298828, 35.389050 ] } }
{"year": "AD1206",  "type": "Feature", "tippecanoe": { "layer": "2AFCA0E875501583915512282", "minzoom": 2, "maxzoom": 8 }, "properties": { "halo": 1.8, "title": "耶路撒冷拉丁王国", "fontsize": 12, "tyid": "304000", "oid": "103:1576575138049", "color": "#0056E7" }, "geometry": { "type": "Point", "coordinates": [ 35.156250, 33.063924 ] } }
{"year": "AD1206",  "type": "Feature", "tippecanoe": { "layer": "2AFCA0E875501583915512282", "minzoom": 2, "maxzoom": 8 }, "properties": { "halo": 1.8, "title": "果阿的卡丹巴王朝", "fontsize": 12, "tyid": "304000", "oid": "103:1576575137909", "color": "#0056E7" }, "geometry": { "type": "Point", "coordinates": [ 74.179688, 15.368950 ] } }
{"year": "AD1206",  "type": "Feature", "tippecanoe": { "layer": "2AFCA0E886681583915512267", "minzoom": 2, "maxzoom": 8 }, "properties": { "halo": 0.8, "title": "群岛王国", "fontsize": 12, "tyid": "304000", "oid": "103:1576575138027", "color": "#202020" }, "geometry": { "type": "Point", "coordinates": [ -6.591797, 58.263287 ] } }
{"year": "AD1206",  "type": "Feature", "tippecanoe": { "layer": "2AFCA0E886681583915512267", "minzoom": 2, "maxzoom": 8 }, "properties": { "halo": 0.8, "title": "埃里克王国", "fontsize": 12, "tyid": "304000", "oid": "103:1576575138010", "color": "#202020" }, "geometry": { "type": "Point", "coordinates": [ -7.470703, 54.775346 ] } }
{"year": "AD1206",  "type": "Feature", "tippecanoe": { "layer": "2AFCA0E886681583915512267", "minzoom": 2, "maxzoom": 8 }, "properties": { "halo": 0.8, "title": "纳瓦拉王国", "fontsize": 12, "tyid": "304000", "oid": "103:1535120137597", "color": "#202020" }, "geometry": { "type": "Point", "coordinates": [ -2.109375, 42.940339 ] } }
{"year": "AD1206",  "type": "Feature", "tippecanoe": { "layer": "2AFCA0E886681583915512267", "minzoom": 2, "maxzoom": 8 }, "properties": { "halo": 0.8, "title": "荷兰伯国", "fontsize": 12, "tyid": "304000", "oid": "103:1576575138026", "color": "#202020" }, "geometry": { "type": "Point", "coordinates": [ 4.658203, 52.052490 ] } }
{"year": "AD1206",  "type": "Feature", "tippecanoe": { "layer": "2AFCA0E886681583915512267", "minzoom": 2, "maxzoom": 8 }, "properties": { "halo": 0.8, "title": "布拉班特公国", "fontsize": 12, "tyid": "304000", "oid": "103:1576575138004", "color": "#202020" }, "geometry": { "type": "Point", "coordinates": [ 4.746094, 51.069017 ] } }
{"year": "AD1206",  "type": "Feature", "tippecanoe": { "layer": "2AFCA0E886681583915512267", "minzoom": 2, "maxzoom": 8 }, "properties": { "halo": 0.8, "title": "普罗旺斯伯国", "fontsize": 12, "tyid": "304000", "oid": "103:1576575138065", "color": "#202020" }, "geometry": { "type": "Point", "coordinates": [ 6.064453, 43.516689 ] } }
{"year": "AD1206",  "type": "Feature", "tippecanoe": { "layer": "2AFCA0E886681583915512267", "minzoom": 2, "maxzoom": 8 }, "properties": { "halo": 0.8, "title": "热那亚共和国", "fontsize": 12, "tyid": "304000", "oid": "103:1576575138064", "color": "#202020" }, "geometry": { "type": "Point", "coordinates": [ 7.822266, 44.087585 ] } }
{"year": "AD1206",  "type": "Feature", "tippecanoe": { "layer": "2AFCA0E886681583915512267", "minzoom": 2, "maxzoom": 8 }, "properties": { "halo": 0.8, "title": "比萨共和国", "fontsize": 12, "tyid": "304000", "oid": "103:1576575138021", "color": "#202020" }, "geometry": { "type": "Point", "coordinates": [ 9.052734, 42.358544 ] } }
{"year": "AD1206",  "type": "Feature", "tippecanoe": { "layer": "2AFCA0E886681583915512267", "minzoom": 2, "maxzoom": 8 }, "properties": { "halo": 0.8, "title": "吕根亲王国", "fontsize": 12, "tyid": "304000", "oid": "103:1576575138030", "color": "#202020" }, "geometry": { "type": "Point", "coordinates": [ 12.832031, 54.110943 ] } }
{"year": "AD1206",  "type": "Feature", "tippecanoe": { "layer": "2AFCA0E886681583915512267", "minzoom": 2, "maxzoom": 8 }, "properties": { "halo": 0.8, "title": "克拉科夫公国", "fontsize": 12, "tyid": "304000", "oid": "103:1576575137984", "color": "#202020" }, "geometry": { "type": "Point", "coordinates": [ 18.720703, 49.553726 ] } }
{"year": "AD1206",  "type": "Feature", "tippecanoe": { "layer": "2AFCA0E886681583915512267", "minzoom": 2, "maxzoom": 8 }, "properties": { "halo": 0.8, "title": "威尼斯共和国", "fontsize": 12, "tyid": "304000", "oid": "103:1576575138022", "color": "#202020" }, "geometry": { "type": "Point", "coordinates": [ 13.798828, 45.089036 ] } }
{"year": "AD1206",  "type": "Feature", "tippecanoe": { "layer": "2AFCA0E886681583915512267", "minzoom": 2, "maxzoom": 8 }, "properties": { "halo": 0.8, "title": "波斯尼亚班内特国", "fontsize": 12, "tyid": "304000", "oid": "103:1576575137977", "color": "#202020" }, "geometry": { "type": "Point", "coordinates": [ 17.841797, 44.087585 ] } }
{"year": "AD1206",  "type": "Feature", "tippecanoe": { "layer": "2AFCA0E886681583915512267", "minzoom": 2, "maxzoom": 8 }, "properties": { "halo": 0.8, "title": "克里米亚哥特人", "fontsize": 12, "tyid": "304002", "oid": "103:1576575138080", "color": "#262626" }, "geometry": { "type": "Point", "coordinates": [ 33.925781, 45.521744 ] } }
{"year": "AD1206",  "type": "Feature", "tippecanoe": { "layer": "2AFCA0E886681583915512267", "minzoom": 2, "maxzoom": 8 }, "properties": { "halo": 0.8, "title": "阿波利亚王国", "fontsize": 12, "tyid": "304000", "oid": "103:1576575137884", "color": "#202020" }, "geometry": { "type": "Point", "coordinates": [ 8.789062, 39.909736 ] } }
{"year": "AD1206",  "type": "Feature", "tippecanoe": { "layer": "2AFCA0E886681583915512267", "minzoom": 2, "maxzoom": 8 }, "properties": { "halo": 0.8, "title": "卡利亚里王国", "fontsize": 12, "tyid": "304000", "oid": "103:1576575137862", "color": "#202020" }, "geometry": { "type": "Point", "coordinates": [ 9.052734, 39.436193 ] } }
{"year": "AD1206",  "type": "Feature", "tippecanoe": { "layer": "2AFCA0E886681583915512267", "minzoom": 2, "maxzoom": 8 }, "properties": { "halo": 0.8, "title": "塞浦路斯王国", "fontsize": 12, "tyid": "304000", "oid": "103:1535120137547", "color": "#202020" }, "geometry": { "type": "Point", "coordinates": [ 33.134766, 35.101934 ] } }
{"year": "AD1206",  "type": "Feature", "tippecanoe": { "layer": "2AFCA0E886681583915512267", "minzoom": 2, "maxzoom": 8 }, "properties": { "halo": 0.8, "title": "安条克公国", "fontsize": 12, "tyid": "304000", "oid": "103:1535120137572", "color": "#202020" }, "geometry": { "type": "Point", "coordinates": [ 36.298828, 36.385913 ] } }
{"year": "AD1206",  "type": "Feature", "tippecanoe": { "layer": "2AFCA0E886681583915512267", "minzoom": 2, "maxzoom": 8 }, "properties": { "halo": 0.8, "title": "的黎波里伯国", "fontsize": 12, "tyid": "304000", "oid": "103:1535120137573", "color": "#202020" }, "geometry": { "type": "Point", "coordinates": [ 36.298828, 35.389050 ] } }
{"year": "AD1206",  "type": "Feature", "tippecanoe": { "layer": "2AFCA0E886681583915512267", "minzoom": 2, "maxzoom": 8 }, "properties": { "halo": 0.8, "title": "耶路撒冷拉丁王国", "fontsize": 12, "tyid": "304000", "oid": "103:1576575138049", "color": "#202020" }, "geometry": { "type": "Point", "coordinates": [ 35.156250, 33.063924 ] } }
{"year": "AD1206",  "type": "Feature", "tippecanoe": { "layer": "2AFCA0E886681583915512267", "minzoom": 2, "maxzoom": 8 }, "properties": { "halo": 0.8, "title": "果阿的卡丹巴王朝", "fontsize": 12, "tyid": "304000", "oid": "103:1576575137909", "color": "#202020" }, "geometry": { "type": "Point", "coordinates": [ 74.179688, 15.368950 ] } }
{"year": "AD1206",  "type": "Feature", "tippecanoe": { "layer": "2AFCA0E889401583915512265", "minzoom": 2, "maxzoom": 8 }, "properties": { "halo": 0.8, "title": "冰岛自由邦", "fontsize": 12, "tyid": "304000", "oid": "103:1576575137904", "color": "#202020" }, "geometry": { "type": "Point", "coordinates": [ -18.632812, 64.997939 ] } }
{"year": "AD1206",  "type": "Feature", "tippecanoe": { "layer": "2AFCA0E889401583915512265", "minzoom": 2, "maxzoom": 8 }, "properties": { "halo": 0.8, "title": "苏格兰王国", "fontsize": 12, "tyid": "304000", "oid": "103:1576575138009", "color": "#202020" }, "geometry": { "type": "Point", "coordinates": [ -4.042969, 56.704506 ] } }
{"year": "AD1206",  "type": "Feature", "tippecanoe": { "layer": "2AFCA0E889401583915512265", "minzoom": 2, "maxzoom": 8 }, "properties": { "halo": 0.8, "title": "康诺特诸王国", "fontsize": 12, "tyid": "304000", "oid": "103:1576575138012", "color": "#202020" }, "geometry": { "type": "Point", "coordinates": [ -8.701172, 53.696706 ] } }
{"year": "AD1206",  "type": "Feature", "tippecanoe": { "layer": "2AFCA0E889401583915512265", "minzoom": 2, "maxzoom": 8 }, "properties": { "halo": 0.8, "title": "莱昂王国", "fontsize": 12, "tyid": "304000", "oid": "103:1535120137604", "color": "#202020" }, "geometry": { "type": "Point", "coordinates": [ -7.119141, 42.747012 ] } }
{"year": "AD1206",  "type": "Feature", "tippecanoe": { "layer": "2AFCA0E889401583915512265", "minzoom": 2, "maxzoom": 8 }, "properties": { "halo": 0.8, "title": "卡斯蒂利亚王国", "fontsize": 12, "tyid": "304000", "oid": "103:1535120137599", "color": "#202020" }, "geometry": { "type": "Point", "coordinates": [ -3.779297, 41.574361 ] } }
{"year": "AD1206",  "type": "Feature", "tippecanoe": { "layer": "2AFCA0E889401583915512265", "minzoom": 2, "maxzoom": 8 }, "properties": { "halo": 0.8, "title": "葡萄牙王国", "fontsize": 12, "tyid": "304000", "oid": "103:1535120137602", "color": "#202020" }, "geometry": { "type": "Point", "coordinates": [ -7.998047, 40.178873 ] } }
{"year": "AD1206",  "type": "Feature", "tippecanoe": { "layer": "2AFCA0E889401583915512265", "minzoom": 2, "maxzoom": 8 }, "properties": { "halo": 0.8, "title": "塔克鲁尔王国", "fontsize": 12, "tyid": "304000", "oid": "103:1576575137951", "color": "#202020" }, "geometry": { "type": "Point", "coordinates": [ -13.974609, 17.140790 ] } }
{"year": "AD1206",  "type": "Feature", "tippecanoe": { "layer": "2AFCA0E889401583915512265", "minzoom": 2, "maxzoom": 8 }, "properties": { "halo": 0.8, "title": "曼德人", "fontsize": 12, "tyid": "304000", "oid": "103:1576575137956", "color": "#202020" }, "geometry": { "type": "Point", "coordinates": [ -9.052734, 11.609193 ] } }
{"year": "AD1206",  "type": "Feature", "tippecanoe": { "layer": "2AFCA0E889401583915512265", "minzoom": 2, "maxzoom": 8 }, "properties": { "halo": 0.8, "title": "加纳帝国", "fontsize": 12, "tyid": "304000", "oid": "103:1576575137953", "color": "#202020" }, "geometry": { "type": "Point", "coordinates": [ -5.800781, 16.383391 ] } }
{"year": "AD1206",  "type": "Feature", "tippecanoe": { "layer": "2AFCA0E889401583915512265", "minzoom": 2, "maxzoom": 8 }, "properties": { "halo": 0.8, "title": "莫西人诸国", "fontsize": 12, "tyid": "304002", "oid": "103:1582720894989", "color": "#262626" }, "geometry": { "type": "Point", "coordinates": [ -2.812500, 14.093957 ] } }
{"year": "AD1206",  "type": "Feature", "tippecanoe": { "layer": "2AFCA0E889401583915512265", "minzoom": 2, "maxzoom": 8 }, "properties": { "halo": 0.8, "title": "加奥帝国", "fontsize": 12, "tyid": "304000", "oid": "103:1576575137955", "color": "#202020" }, "geometry": { "type": "Point", "coordinates": [ -0.615234, 16.299051 ] } }
{"year": "AD1206",  "type": "Feature", "tippecanoe": { "layer": "2AFCA0E889401583915512265", "minzoom": 2, "maxzoom": 8 }, "properties": { "halo": 0.8, "title": "丹麦王国[维京时期]", "fontsize": 12, "tyid": "304000", "oid": "103:1576575138028", "color": "#202020" }, "geometry": { "type": "Point", "coordinates": [ 9.228516, 56.022948 ] } }
{"year": "AD1206",  "type": "Feature", "tippecanoe": { "layer": "2AFCA0E889401583915512265", "minzoom": 2, "maxzoom": 8 }, "properties": { "halo": 0.8, "title": "佛兰德斯伯国", "fontsize": 12, "tyid": "304000", "oid": "103:1576575138003", "color": "#202020" }, "geometry": { "type": "Point", "coordinates": [ 3.076172, 50.625073 ] } }
{"year": "AD1206",  "type": "Feature", "tippecanoe": { "layer": "2AFCA0E889401583915512265", "minzoom": 2, "maxzoom": 8 }, "properties": { "halo": 0.8, "title": "弗里斯兰伯国", "fontsize": 12, "tyid": "304002", "oid": "103:1576575138073", "color": "#262626" }, "geometry": { "type": "Point", "coordinates": [ 6.767578, 53.120405 ] } }
{"year": "AD1206",  "type": "Feature", "tippecanoe": { "layer": "2AFCA0E889401583915512265", "minzoom": 2, "maxzoom": 8 }, "properties": { "halo": 0.8, "title": "布卢瓦伯国", "fontsize": 12, "tyid": "304000", "oid": "103:1576575138066", "color": "#202020" }, "geometry": { "type": "Point", "coordinates": [ 4.130859, 48.690960 ] } }
{"year": "AD1206",  "type": "Feature", "tippecanoe": { "layer": "2AFCA0E889401583915512265", "minzoom": 2, "maxzoom": 8 }, "properties": { "halo": 0.8, "title": "法兰西王国", "fontsize": 12, "tyid": "304000", "oid": "103:1576575138006", "color": "#202020" }, "geometry": { "type": "Point", "coordinates": [ 3.164062, 47.279229 ] } }
{"year": "AD1206",  "type": "Feature", "tippecanoe": { "layer": "2AFCA0E889401583915512265", "minzoom": 2, "maxzoom": 8 }, "properties": { "halo": 0.8, "title": "图卢兹伯国", "fontsize": 12, "tyid": "304000", "oid": "103:1535120137592", "color": "#202020" }, "geometry": { "type": "Point", "coordinates": [ 2.021484, 43.707594 ] } }
{"year": "AD1206",  "type": "Feature", "tippecanoe": { "layer": "2AFCA0E889401583915512265", "minzoom": 2, "maxzoom": 8 }, "properties": { "halo": 0.8, "title": "阿拉贡联合王国", "fontsize": 12, "tyid": "304000", "oid": "103:1535120137594", "color": "#202020" }, "geometry": { "type": "Point", "coordinates": [ 0.263672, 41.771312 ] } }
{"year": "AD1206",  "type": "Feature", "tippecanoe": { "layer": "2AFCA0E889401583915512265", "minzoom": 2, "maxzoom": 8 }, "properties": { "halo": 0.8, "title": "波美拉尼亚公国", "fontsize": 12, "tyid": "304000", "oid": "103:1576575138069", "color": "#202020" }, "geometry": { "type": "Point", "coordinates": [ 14.765625, 53.383328 ] } }
{"year": "AD1206",  "type": "Feature", "tippecanoe": { "layer": "2AFCA0E889401583915512265", "minzoom": 2, "maxzoom": 8 }, "properties": { "halo": 0.8, "title": "大波兰公国", "fontsize": 12, "tyid": "304000", "oid": "103:1576575137994", "color": "#202020" }, "geometry": { "type": "Point", "coordinates": [ 16.787109, 52.160455 ] } }
{"year": "AD1206",  "type": "Feature", "tippecanoe": { "layer": "2AFCA0E889401583915512265", "minzoom": 2, "maxzoom": 8 }, "properties": { "halo": 0.8, "title": "西里西亚公国", "fontsize": 12, "tyid": "304000", "oid": "103:1576575137989", "color": "#202020" }, "geometry": { "type": "Point", "coordinates": [ 16.435547, 50.903033 ] } }
{"year": "AD1206",  "type": "Feature", "tippecanoe": { "layer": "2AFCA0E889401583915512265", "minzoom": 2, "maxzoom": 8 }, "properties": { "halo": 0.8, "title": "波西米亚王国", "fontsize": 12, "tyid": "304000", "oid": "103:1576575137988", "color": "#202020" }, "geometry": { "type": "Point", "coordinates": [ 14.326172, 49.837982 ] } }
{"year": "AD1206",  "type": "Feature", "tippecanoe": { "layer": "2AFCA0E889401583915512265", "minzoom": 2, "maxzoom": 8 }, "properties": { "halo": 0.8, "title": "摩拉维亚侯国", "fontsize": 12, "tyid": "304000", "oid": "103:1576575137986", "color": "#202020" }, "geometry": { "type": "Point", "coordinates": [ 16.699219, 49.325122 ] } }
{"year": "AD1206",  "type": "Feature", "tippecanoe": { "layer": "2AFCA0E889401583915512265", "minzoom": 2, "maxzoom": 8 }, "properties": { "halo": 0.8, "title": "马佐维亚公国", "fontsize": 12, "tyid": "304000", "oid": "103:1576575137992", "color": "#202020" }, "geometry": { "type": "Point", "coordinates": [ 20.478516, 52.696361 ] } }
{"year": "AD1206",  "type": "Feature", "tippecanoe": { "layer": "2AFCA0E889401583915512265", "minzoom": 2, "maxzoom": 8 }, "properties": { "halo": 0.8, "title": "桑多梅日公国", "fontsize": 12, "tyid": "304000", "oid": "103:1576575137991", "color": "#202020" }, "geometry": { "type": "Point", "coordinates": [ 20.742188, 50.847573 ] } }
{"year": "AD1206",  "type": "Feature", "tippecanoe": { "layer": "2AFCA0E889401583915512265", "minzoom": 2, "maxzoom": 8 }, "properties": { "halo": 0.8, "title": "教皇国", "fontsize": 12, "tyid": "304000", "oid": "103:1535120137560", "color": "#202020" }, "geometry": { "type": "Point", "coordinates": [ 12.304688, 42.553080 ] } }
{"year": "AD1206",  "type": "Feature", "tippecanoe": { "layer": "2AFCA0E889401583915512265", "minzoom": 2, "maxzoom": 8 }, "properties": { "halo": 0.8, "title": "塞尔维亚大公国", "fontsize": 12, "tyid": "304002", "oid": "103:1535120137558", "color": "#262626" }, "geometry": { "type": "Point", "coordinates": [ 19.335938, 43.197167 ] } }
{"year": "AD1206",  "type": "Feature", "tippecanoe": { "layer": "2AFCA0E889401583915512265", "minzoom": 2, "maxzoom": 8 }, "properties": { "halo": 0.8, "title": "利沃尼亚人", "fontsize": 12, "tyid": "304002", "oid": "103:1576575138083", "color": "#262626" }, "geometry": { "type": "Point", "coordinates": [ 23.203125, 56.897004 ] } }
{"year": "AD1206",  "type": "Feature", "tippecanoe": { "layer": "2AFCA0E889401583915512265", "minzoom": 2, "maxzoom": 8 }, "properties": { "halo": 0.8, "title": "古爱沙尼亚人", "fontsize": 12, "tyid": "304000", "oid": "103:1576575137864", "color": "#202020" }, "geometry": { "type": "Point", "coordinates": [ 25.488281, 58.539595 ] } }
{"year": "AD1206",  "type": "Feature", "tippecanoe": { "layer": "2AFCA0E889401583915512265", "minzoom": 2, "maxzoom": 8 }, "properties": { "halo": 0.8, "title": "叶尔西卡公国", "fontsize": 12, "tyid": "304000", "oid": "103:1576575137979", "color": "#202020" }, "geometry": { "type": "Point", "coordinates": [ 26.806641, 56.511018 ] } }
{"year": "AD1206",  "type": "Feature", "tippecanoe": { "layer": "2AFCA0E889401583915512265", "minzoom": 2, "maxzoom": 8 }, "properties": { "halo": 0.8, "title": "立陶宛人", "fontsize": 12, "tyid": "304000", "oid": "103:1576575137980", "color": "#202020" }, "geometry": { "type": "Point", "coordinates": [ 25.048828, 54.724620 ] } }
{"year": "AD1206",  "type": "Feature", "tippecanoe": { "layer": "2AFCA0E889401583915512265", "minzoom": 2, "maxzoom": 8 }, "properties": { "halo": 0.8, "title": "图罗夫公国", "fontsize": 12, "tyid": "304000", "oid": "103:1576575137971", "color": "#202020" }, "geometry": { "type": "Point", "coordinates": [ 27.509766, 52.214339 ] } }
{"year": "AD1206",  "type": "Feature", "tippecanoe": { "layer": "2AFCA0E889401583915512265", "minzoom": 2, "maxzoom": 8 }, "properties": { "halo": 0.8, "title": "波洛茨克公国", "fontsize": 12, "tyid": "304000", "oid": "103:1576575137970", "color": "#202020" }, "geometry": { "type": "Point", "coordinates": [ 28.125000, 54.265224 ] } }
{"year": "AD1206",  "type": "Feature", "tippecanoe": { "layer": "2AFCA0E889401583915512265", "minzoom": 2, "maxzoom": 8 }, "properties": { "halo": 0.8, "title": "斯摩棱斯克大公国", "fontsize": 12, "tyid": "304000", "oid": "103:1576575137968", "color": "#202020" }, "geometry": { "type": "Point", "coordinates": [ 32.607422, 54.826008 ] } }
{"year": "AD1206",  "type": "Feature", "tippecanoe": { "layer": "2AFCA0E889401583915512265", "minzoom": 2, "maxzoom": 8 }, "properties": { "halo": 0.8, "title": "基辅罗斯", "fontsize": 12, "tyid": "304000", "oid": "103:1535120137585", "color": "#202020" }, "geometry": { "type": "Point", "coordinates": [ 29.882812, 49.210420 ] } }
{"year": "AD1206",  "type": "Feature", "tippecanoe": { "layer": "2AFCA0E889401583915512265", "minzoom": 2, "maxzoom": 8 }, "properties": { "halo": 0.8, "title": "切尔尼戈夫公国", "fontsize": 12, "tyid": "304000", "oid": "103:1576575138056", "color": "#202020" }, "geometry": { "type": "Point", "coordinates": [ 35.507812, 53.330873 ] } }
{"year": "AD1206",  "type": "Feature", "tippecanoe": { "layer": "2AFCA0E889401583915512265", "minzoom": 2, "maxzoom": 8 }, "properties": { "halo": 0.8, "title": "诺夫哥罗德-谢韦尔斯克公国", "fontsize": 12, "tyid": "304000", "oid": "103:1576575137965", "color": "#202020" }, "geometry": { "type": "Point", "coordinates": [ 36.386719, 51.781436 ] } }
{"year": "AD1206",  "type": "Feature", "tippecanoe": { "layer": "2AFCA0E889401583915512265", "minzoom": 2, "maxzoom": 8 }, "properties": { "halo": 0.8, "title": "佩列亚斯拉夫公国", "fontsize": 12, "tyid": "304000", "oid": "103:1576575137882", "color": "#202020" }, "geometry": { "type": "Point", "coordinates": [ 34.980469, 49.894634 ] } }
{"year": "AD1206",  "type": "Feature", "tippecanoe": { "layer": "2AFCA0E889401583915512265", "minzoom": 2, "maxzoom": 8 }, "properties": { "halo": 0.8, "title": "梁赞大公国", "fontsize": 12, "tyid": "304000", "oid": "103:1576575137964", "color": "#202020" }, "geometry": { "type": "Point", "coordinates": [ 40.605469, 54.316523 ] } }
{"year": "AD1206",  "type": "Feature", "tippecanoe": { "layer": "2AFCA0E889401583915512265", "minzoom": 2, "maxzoom": 8 }, "properties": { "halo": 0.8, "title": "西西里王国", "fontsize": 12, "tyid": "304000", "oid": "103:1535120137550", "color": "#202020" }, "geometry": { "type": "Point", "coordinates": [ 15.732422, 40.913513 ] } }
{"year": "AD1206",  "type": "Feature", "tippecanoe": { "layer": "2AFCA0E889401583915512265", "minzoom": 2, "maxzoom": 8 }, "properties": { "halo": 0.8, "title": "贝宁王国", "fontsize": 12, "tyid": "304000", "oid": "103:1576575138014", "color": "#202020" }, "geometry": { "type": "Point", "coordinates": [ 4.658203, 7.275292 ] } }
{"year": "AD1206",  "type": "Feature", "tippecanoe": { "layer": "2AFCA0E889401583915512265", "minzoom": 2, "maxzoom": 8 }, "properties": { "halo": 0.8, "title": "奇里乞亚亚美尼亚王国", "fontsize": 12, "tyid": "304000", "oid": "103:1535120137570", "color": "#202020" }, "geometry": { "type": "Point", "coordinates": [ 34.365234, 37.300275 ] } }
{"year": "AD1206",  "type": "Feature", "tippecanoe": { "layer": "2AFCA0E889401583915512265", "minzoom": 2, "maxzoom": 8 }, "properties": { "halo": 0.8, "title": "阿赫拉特贝伊国", "fontsize": 12, "tyid": "304000", "oid": "103:1535120137583", "color": "#202020" }, "geometry": { "type": "Point", "coordinates": [ 41.835938, 39.504041 ] } }
{"year": "AD1206",  "type": "Feature", "tippecanoe": { "layer": "2AFCA0E889401583915512265", "minzoom": 2, "maxzoom": 8 }, "properties": { "halo": 0.8, "title": "赞吉王朝", "fontsize": 12, "tyid": "304000", "oid": "103:1576575137934", "color": "#202020" }, "geometry": { "type": "Point", "coordinates": [ 41.923828, 36.031332 ] } }
{"year": "AD1206",  "type": "Feature", "tippecanoe": { "layer": "2AFCA0E889401583915512265", "minzoom": 2, "maxzoom": 8 }, "properties": { "halo": 0.8, "title": "贝扎人", "fontsize": 12, "tyid": "304001", "oid": "103:1576575138082", "color": "#262626" }, "geometry": { "type": "Point", "coordinates": [ 36.123047, 18.812718 ] } }
{"year": "AD1206",  "type": "Feature", "tippecanoe": { "layer": "2AFCA0E889401583915512265", "minzoom": 2, "maxzoom": 8 }, "properties": { "halo": 0.8, "title": "谢瓦苏丹国", "fontsize": 12, "tyid": "304000", "oid": "103:1576575137947", "color": "#202020" }, "geometry": { "type": "Point", "coordinates": [ 37.617188, 8.841651 ] } }
{"year": "AD1206",  "type": "Feature", "tippecanoe": { "layer": "2AFCA0E889401583915512265", "minzoom": 2, "maxzoom": 8 }, "properties": { "halo": 0.8, "title": "阿拉巴尼苏丹国", "fontsize": 12, "tyid": "304000", "oid": "103:1576575137950", "color": "#202020" }, "geometry": { "type": "Point", "coordinates": [ 38.408203, 7.798079 ] } }
{"year": "AD1206",  "type": "Feature", "tippecanoe": { "layer": "2AFCA0E889401583915512265", "minzoom": 2, "maxzoom": 8 }, "properties": { "halo": 0.8, "title": "摩加迪沙苏丹国", "fontsize": 12, "tyid": "304000", "oid": "103:1576575137945", "color": "#202020" }, "geometry": { "type": "Point", "coordinates": [ 41.572266, 8.667918 ] } }
{"year": "AD1206",  "type": "Feature", "tippecanoe": { "layer": "2AFCA0E889401583915512265", "minzoom": 2, "maxzoom": 8 }, "properties": { "halo": 0.8, "title": "达瓦洛苏丹国", "fontsize": 12, "tyid": "304000", "oid": "103:1576575137949", "color": "#202020" }, "geometry": { "type": "Point", "coordinates": [ 39.726562, 7.188101 ] } }
{"year": "AD1206",  "type": "Feature", "tippecanoe": { "layer": "2AFCA0E889401583915512265", "minzoom": 2, "maxzoom": 8 }, "properties": { "halo": 0.8, "title": "阿兰王国", "fontsize": 12, "tyid": "304000", "oid": "103:1576575137927", "color": "#202020" }, "geometry": { "type": "Point", "coordinates": [ 45.615234, 42.875964 ] } }
{"year": "AD1206",  "type": "Feature", "tippecanoe": { "layer": "2AFCA0E889401583915512265", "minzoom": 2, "maxzoom": 8 }, "properties": { "halo": 0.8, "title": "埃迪古奇兹王朝", "fontsize": 12, "tyid": "304000", "oid": "103:1576575137933", "color": "#202020" }, "geometry": { "type": "Point", "coordinates": [ 46.318359, 37.649034 ] } }
{"year": "AD1206",  "type": "Feature", "tippecanoe": { "layer": "2AFCA0E889401583915512265", "minzoom": 2, "maxzoom": 8 }, "properties": { "halo": 0.8, "title": "希尔凡沙阿王朝", "fontsize": 12, "tyid": "304000", "oid": "103:1576575138043", "color": "#202020" }, "geometry": { "type": "Point", "coordinates": [ 48.691406, 40.111689 ] } }
{"year": "AD1206",  "type": "Feature", "tippecanoe": { "layer": "2AFCA0E889401583915512265", "minzoom": 2, "maxzoom": 8 }, "properties": { "halo": 0.8, "title": "内卜汗王朝", "fontsize": 12, "tyid": "304002", "oid": "103:1576575138071", "color": "#262626" }, "geometry": { "type": "Point", "coordinates": [ 57.216797, 23.402765 ] } }
{"year": "AD1206",  "type": "Feature", "tippecanoe": { "layer": "2AFCA0E889401583915512265", "minzoom": 2, "maxzoom": 8 }, "properties": { "halo": 0.8, "title": "拉达克王系", "fontsize": 12, "tyid": "304000", "oid": "103:1576575138041", "color": "#202020" }, "geometry": { "type": "Point", "coordinates": [ 72.509766, 36.102376 ] } }
{"year": "AD1206",  "type": "Feature", "tippecanoe": { "layer": "2AFCA0E889401583915512265", "minzoom": 2, "maxzoom": 8 }, "properties": { "halo": 0.8, "title": "索兰基王朝", "fontsize": 12, "tyid": "304000", "oid": "103:1576575137876", "color": "#202020" }, "geometry": { "type": "Point", "coordinates": [ 71.279297, 23.725012 ] } }
{"year": "AD1206",  "type": "Feature", "tippecanoe": { "layer": "2AFCA0E889401583915512265", "minzoom": 2, "maxzoom": 8 }, "properties": { "halo": 0.8, "title": "帕拉玛拉王朝", "fontsize": 12, "tyid": "304000", "oid": "103:1576575137920", "color": "#202020" }, "geometry": { "type": "Point", "coordinates": [ 76.201172, 24.926295 ] } }
{"year": "AD1206",  "type": "Feature", "tippecanoe": { "layer": "2AFCA0E889401583915512265", "minzoom": 2, "maxzoom": 8 }, "properties": { "halo": 0.8, "title": "马拉王朝[尼泊尔]", "fontsize": 12, "tyid": "304000", "oid": "103:1576575137867", "color": "#202020" }, "geometry": { "type": "Point", "coordinates": [ 83.408203, 28.381735 ] } }
{"year": "AD1206",  "type": "Feature", "tippecanoe": { "layer": "2AFCA0E889401583915512265", "minzoom": 2, "maxzoom": 8 }, "properties": { "halo": 0.8, "title": "昌德拉王朝", "fontsize": 12, "tyid": "304000", "oid": "103:1576575137918", "color": "#202020" }, "geometry": { "type": "Point", "coordinates": [ 82.001953, 23.483401 ] } }
{"year": "AD1206",  "type": "Feature", "tippecanoe": { "layer": "2AFCA0E889401583915512265", "minzoom": 2, "maxzoom": 8 }, "properties": { "halo": 0.8, "title": "湿赫拉王朝", "fontsize": 12, "tyid": "304000", "oid": "103:1576575137911", "color": "#202020" }, "geometry": { "type": "Point", "coordinates": [ 73.476562, 17.644022 ] } }
{"year": "AD1206",  "type": "Feature", "tippecanoe": { "layer": "2AFCA0E889401583915512265", "minzoom": 2, "maxzoom": 8 }, "properties": { "halo": 0.8, "title": "曷萨拉帝国", "fontsize": 12, "tyid": "304000", "oid": "103:1576575137873", "color": "#202020" }, "geometry": { "type": "Point", "coordinates": [ 76.552734, 14.264383 ] } }
{"year": "AD1206",  "type": "Feature", "tippecanoe": { "layer": "2AFCA0E889401583915512265", "minzoom": 2, "maxzoom": 8 }, "properties": { "halo": 0.8, "title": "科泽科德王国", "fontsize": 12, "tyid": "304000", "oid": "103:1576575137869", "color": "#202020" }, "geometry": { "type": "Point", "coordinates": [ 76.289062, 10.487812 ] } }
{"year": "AD1206",  "type": "Feature", "tippecanoe": { "layer": "2AFCA0E889401583915512265", "minzoom": 2, "maxzoom": 8 }, "properties": { "halo": 0.8, "title": "朱罗-遮娄其王国", "fontsize": 12, "tyid": "304000", "oid": "103:1576575137871", "color": "#202020" }, "geometry": { "type": "Point", "coordinates": [ 77.695312, 10.833306 ] } }
{"year": "AD1206",  "type": "Feature", "tippecanoe": { "layer": "2AFCA0E889401583915512265", "minzoom": 2, "maxzoom": 8 }, "properties": { "halo": 0.8, "title": "特里普里的卡拉丘里王朝", "fontsize": 12, "tyid": "304000", "oid": "103:1576575137916", "color": "#202020" }, "geometry": { "type": "Point", "coordinates": [ 81.210938, 21.453069 ] } }
{"year": "AD1206",  "type": "Feature", "tippecanoe": { "layer": "2AFCA0E889401583915512265", "minzoom": 2, "maxzoom": 8 }, "properties": { "halo": 0.8, "title": "东恒伽王朝", "fontsize": 12, "tyid": "304000", "oid": "103:1576575137914", "color": "#202020" }, "geometry": { "type": "Point", "coordinates": [ 84.550781, 20.632784 ] } }
{"year": "AD1206",  "type": "Feature", "tippecanoe": { "layer": "2AFCA0E889401583915512265", "minzoom": 2, "maxzoom": 8 }, "properties": { "halo": 0.8, "title": "波隆拉努沃王国", "fontsize": 12, "tyid": "304000", "oid": "103:1576575137860", "color": "#202020" }, "geometry": { "type": "Point", "coordinates": [ 80.683594, 7.623887 ] } }
{"year": "AD1206",  "type": "Feature", "tippecanoe": { "layer": "2AFCA0E889401583915512265", "minzoom": 2, "maxzoom": 8 }, "properties": { "halo": 0.8, "title": "迦摩缕波王国", "fontsize": 12, "tyid": "304000", "oid": "103:1576575138038", "color": "#202020" }, "geometry": { "type": "Point", "coordinates": [ 91.933594, 26.194877 ] } }
{"year": "AD1206",  "type": "Feature", "tippecanoe": { "layer": "2AFCA0E889401583915512265", "minzoom": 2, "maxzoom": 8 }, "properties": { "halo": 0.8, "title": "犀那王朝", "fontsize": 12, "tyid": "304000", "oid": "103:1576575138039", "color": "#202020" }, "geometry": { "type": "Point", "coordinates": [ 90.351562, 24.287027 ] } }
{"year": "AD1206",  "type": "Feature", "tippecanoe": { "layer": "2AFCA0E889401583915512265", "minzoom": 2, "maxzoom": 8 }, "properties": { "halo": 0.8, "title": "若开诸国", "fontsize": 12, "tyid": "304002", "oid": "103:1576575138075", "color": "#262626" }, "geometry": { "type": "Point", "coordinates": [ 92.900391, 21.453069 ] } }
{"year": "AD1206",  "type": "Feature", "tippecanoe": { "layer": "2AFCA0E889401583915512265", "minzoom": 2, "maxzoom": 8 }, "properties": { "halo": 0.8, "title": "骇黎朋猜国", "fontsize": 12, "tyid": "304000", "oid": "103:1576575137866", "color": "#202020" }, "geometry": { "type": "Point", "coordinates": [ 99.140625, 18.562947 ] } }
{"year": "AD1206",  "type": "Feature", "tippecanoe": { "layer": "2AFCA0E889401583915512265", "minzoom": 2, "maxzoom": 8 }, "properties": { "halo": 0.8, "title": "大越国", "fontsize": 12, "tyid": "304000", "oid": "103:1576575137906", "color": "#202020" }, "geometry": { "type": "Point", "coordinates": [ 105.380859, 21.125498 ] } }
{"year": "AD1206",  "type": "Feature", "tippecanoe": { "layer": "2AFCA0E889401583915512265", "minzoom": 2, "maxzoom": 8 }, "properties": { "halo": 0.8, "title": "占婆国", "fontsize": 12, "tyid": "304000", "oid": "103:1576575138036", "color": "#202020" }, "geometry": { "type": "Point", "coordinates": [ 108.369141, 14.604847 ] } }
{"year": "AD1206",  "type": "Feature", "tippecanoe": { "layer": "2AFCA0E889401583915512265", "minzoom": 2, "maxzoom": 8 }, "properties": { "halo": 0.8, "title": "高丽", "fontsize": 12, "tyid": "304000", "oid": "103:1576575137887", "color": "#202020" }, "geometry": { "type": "Point", "coordinates": [ 127.705078, 37.090240 ] } }
{"year": "AD1206",  "type": "Feature", "tippecanoe": { "layer": "2AFCA0E889401583915512265", "minzoom": 2, "maxzoom": 8 }, "properties": { "halo": 0.8, "title": "渤泥国", "fontsize": 12, "tyid": "304000", "oid": "103:1576575137890", "color": "#202020" }, "geometry": { "type": "Point", "coordinates": [ 114.960938, 4.477856 ] } }
{"year": "AD1206",  "type": "Feature", "tippecanoe": { "layer": "2AFCA0E889401583915512265", "minzoom": 2, "maxzoom": 8 }, "properties": { "halo": 0.8, "title": "虾夷", "fontsize": 12, "tyid": "304002", "oid": "103:1576575138085", "color": "#262626" }, "geometry": { "type": "Point", "coordinates": [ 142.558594, 43.389082 ] } }
{"year": "AD1206",  "type": "Feature", "tippecanoe": { "layer": "2AFCA0E889401583915512265", "minzoom": 2, "maxzoom": 8 }, "properties": { "halo": 0.8, "title": "末罗瑜王国", "fontsize": 12, "tyid": "304000", "oid": "103:1576575137899", "color": "#202020" }, "geometry": { "type": "Point", "coordinates": [ 103.095703, -1.054628 ] } }
{"year": "AD1206",  "type": "Feature", "tippecanoe": { "layer": "2AFCA0E889401583915512265", "minzoom": 2, "maxzoom": 8 }, "properties": { "halo": 0.8, "title": "谏义里国", "fontsize": 12, "tyid": "304000", "oid": "103:1576575138019", "color": "#202020" }, "geometry": { "type": "Point", "coordinates": [ 111.708984, -7.623887 ] } }
{"year": "AD1206",  "type": "Feature", "tippecanoe": { "layer": "2AFCA0E8F1601583915512297", "minzoom": 2, "maxzoom": 8 }, "properties": { "tyid": "410000", "centroid": "{\"type\":\"Point\",\"coordinates\":[102.890655519,50.32448578]}", "opacity": 1, "oid": "103:1582721307215", "color": "#A11300", "width": 3 }, "geometry": { "type": "MultiLineString", "coordinates": [ [ [ 108.017578, 21.616579 ], [ 106.611328, 22.024546 ], [ 106.523438, 22.512557 ], [ 106.699219, 22.836946 ], [ 105.820312, 22.998852 ], [ 105.205078, 23.402765 ], [ 103.886719, 22.512557 ], [ 103.535156, 22.836946 ], [ 103.183594, 22.105999 ], [ 102.480469, 22.512557 ], [ 101.777344, 21.861499 ], [ 101.689453, 21.207459 ], [ 101.162109, 21.207459 ], [ 100.986328, 21.779905 ], [ 100.195312, 21.534847 ], [ 99.843750, 22.105999 ], [ 99.140625, 22.187405 ], [ 99.228516, 22.917923 ], [ 98.437500, 23.079732 ], [ 98.701172, 23.402765 ], [ 98.349609, 23.966176 ], [ 98.525391, 24.206890 ], [ 97.294922, 23.805450 ], [ 97.470703, 25.324167 ], [ 98.261719, 26.431228 ], [ 98.701172, 26.667096 ], [ 98.613281, 27.605671 ], [ 98.261719, 27.605671 ], [ 98.085938, 28.226970 ], [ 97.558594, 28.536275 ], [ 97.031250, 27.761330 ], [ 96.240234, 28.304381 ], [ 95.625000, 28.304381 ], [ 94.218750, 27.605671 ], [ 93.691406, 27.059126 ], [ 92.988281, 26.902477 ], [ 92.021484, 26.902477 ], [ 92.109375, 27.371767 ], [ 91.494141, 27.605671 ], [ 91.494141, 27.916767 ], [ 90.791016, 28.071980 ] ], [ [ 130.605469, 42.293564 ], [ 130.166016, 42.940339 ], [ 129.814453, 43.004647 ], [ 129.638672, 42.488302 ], [ 129.287109, 42.423457 ], [ 128.847656, 42.032974 ], [ 127.968750, 42.032974 ], [ 128.232422, 41.574361 ], [ 128.056641, 41.442726 ], [ 127.177734, 41.508577 ], [ 126.826172, 41.836828 ], [ 125.947266, 40.913513 ], [ 124.804688, 40.513799 ], [ 124.277344, 40.044438 ] ], [ [ 135.263672, 54.775346 ], [ 132.978516, 54.162434 ], [ 130.517578, 54.110943 ], [ 131.835938, 54.927142 ], [ 131.044922, 55.677584 ], [ 129.462891, 55.776573 ], [ 128.759766, 55.528631 ], [ 127.705078, 55.727110 ], [ 126.123047, 55.627996 ], [ 125.859375, 55.825973 ], [ 124.804688, 55.924586 ], [ 123.134766, 54.775346 ], [ 121.376953, 54.265224 ], [ 121.025391, 54.521081 ], [ 120.234375, 54.162434 ], [ 119.267578, 54.007769 ], [ 119.003906, 53.383328 ], [ 119.179688, 53.120405 ], [ 120.058594, 53.488046 ], [ 121.201172, 53.540307 ], [ 121.376953, 53.383328 ], [ 120.761719, 53.278353 ], [ 119.970703, 52.802761 ], [ 120.058594, 52.589701 ], [ 120.673828, 52.536273 ], [ 120.673828, 51.998410 ], [ 120.058594, 51.672555 ], [ 119.091797, 50.401515 ], [ 119.355469, 50.401515 ], [ 119.267578, 50.120578 ], [ 118.037109, 49.610710 ], [ 116.191406, 50.064192 ], [ 115.312500, 49.951220 ], [ 114.960938, 50.233152 ], [ 114.257812, 50.289339 ], [ 112.675781, 49.496675 ], [ 110.654297, 49.152970 ], [ 108.457031, 49.382373 ], [ 107.929688, 49.724479 ], [ 107.929688, 49.951220 ], [ 107.050781, 50.064192 ], [ 106.523438, 50.345460 ], [ 105.292969, 50.513427 ], [ 103.974609, 50.176898 ], [ 103.271484, 50.233152 ], [ 102.216797, 50.625073 ], [ 102.041016, 51.399206 ], [ 98.964844, 52.106505 ], [ 98.613281, 52.482780 ], [ 98.876953, 52.908902 ], [ 99.140625, 52.961875 ], [ 98.789062, 53.173119 ], [ 98.173828, 53.120405 ], [ 96.767578, 53.800651 ], [ 96.416016, 53.592505 ], [ 94.658203, 53.435719 ], [ 94.394531, 52.961875 ], [ 94.130859, 52.908902 ], [ 93.515625, 52.214339 ], [ 92.812500, 51.890054 ], [ 91.054688, 51.890054 ], [ 90.175781, 52.696361 ], [ 87.802734, 53.383328 ], [ 86.396484, 53.173119 ], [ 86.132812, 52.908902 ], [ 83.056641, 51.618017 ], [ 82.617188, 51.179343 ], [ 83.056641, 50.958427 ], [ 83.232422, 50.513427 ], [ 82.529297, 49.724479 ], [ 82.529297, 49.325122 ], [ 81.298828, 48.690960 ], [ 81.035156, 48.166085 ], [ 79.628906, 47.694974 ], [ 79.453125, 46.800059 ], [ 78.750000, 46.800059 ], [ 78.750000, 46.619261 ], [ 78.574219, 46.800059 ], [ 78.222656, 46.498392 ], [ 77.783203, 46.679594 ], [ 74.531250, 46.800059 ], [ 73.564453, 46.134170 ], [ 73.388672, 45.706179 ], [ 72.070312, 44.964798 ], [ 70.488281, 44.402392 ], [ 69.521484, 43.452919 ], [ 70.927734, 42.293564 ], [ 73.212891, 42.163403 ], [ 73.916016, 41.836828 ], [ 74.003906, 41.574361 ], [ 73.300781, 41.508577 ], [ 73.828125, 41.046217 ], [ 73.212891, 40.847060 ], [ 72.949219, 40.446947 ], [ 73.125000, 40.044438 ], [ 72.773438, 39.842286 ], [ 72.861328, 39.368279 ], [ 72.421875, 39.436193 ], [ 72.070312, 39.095963 ], [ 72.246094, 38.548165 ], [ 71.894531, 38.272689 ], [ 72.158203, 37.649034 ], [ 71.718750, 36.738884 ], [ 73.476562, 37.509726 ], [ 73.740234, 37.439974 ], [ 73.740234, 37.160317 ], [ 74.531250, 37.090240 ], [ 75.673828, 36.385913 ], [ 75.761719, 36.031332 ], [ 74.882812, 35.817813 ], [ 75.322266, 35.173808 ], [ 75.146484, 34.669359 ], [ 76.113281, 33.578015 ], [ 77.080078, 32.990236 ], [ 77.080078, 32.472695 ], [ 77.871094, 31.802893 ], [ 78.662109, 31.728167 ], [ 79.013672, 31.052934 ], [ 79.892578, 30.826781 ], [ 80.683594, 30.145127 ], [ 82.001953, 30.145127 ], [ 83.583984, 29.228890 ], [ 83.935547, 29.305561 ], [ 84.462891, 28.536275 ], [ 85.605469, 28.226970 ], [ 85.869141, 27.916767 ], [ 87.714844, 27.839076 ], [ 88.681641, 28.071980 ], [ 88.945312, 27.215556 ], [ 89.560547, 28.226970 ], [ 90.791016, 28.071980 ] ] ] } }
{"year": "AD1206",  "type": "Feature", "tippecanoe": { "layer": "2AFCA0E8F1601583915512297", "minzoom": 2, "maxzoom": 8 }, "properties": { "tyid": "410000", "centroid": "{\"type\":\"Point\",\"coordinates\":[118.9965612163,11.9748626986]}", "opacity": 1, "oid": "103:1582721307213", "color": "#A11300", "width": 3 }, "geometry": { "type": "MultiLineString", "coordinates": [ [ [ 122.695312, 24.447150 ], [ 122.431641, 23.402765 ] ], [ [ 120.849609, 20.550509 ], [ 121.728516, 21.616579 ] ], [ [ 119.355469, 17.727759 ], [ 119.794922, 18.895893 ] ], [ [ 118.916016, 14.689881 ], [ 118.916016, 16.045813 ] ], [ [ 118.476562, 10.833306 ], [ 119.003906, 12.039321 ] ], [ [ 115.312500, 7.013668 ], [ 116.191406, 8.059230 ] ], [ [ 111.708984, 3.425692 ], [ 112.939453, 3.864255 ] ], [ [ 108.281250, 5.965754 ], [ 108.193359, 7.362467 ] ], [ [ 110.039062, 11.264612 ], [ 110.214844, 12.468760 ] ], [ [ 109.775391, 15.029686 ], [ 109.248047, 16.214675 ] ] ] } }
{"year": "AD1206",  "type": "Feature", "tippecanoe": { "layer": "2AFCA0E8F3201583915512299", "minzoom": 2, "maxzoom": 8 }, "properties": { "halo": 0.3, "title": "千里长沙", "fontsize": 12, "tyid": "304006", "oid": "103:1576575138088", "color": "#4D4848" }, "geometry": { "type": "Point", "coordinates": [ 111.972656, 16.383391 ] } }
{"year": "AD1206",  "type": "Feature", "tippecanoe": { "layer": "2AFCA0E8F3201583915512299", "minzoom": 2, "maxzoom": 8 }, "properties": { "halo": 0.3, "title": "澎湖", "fontsize": 12, "tyid": "304006", "oid": "103:1576575138090", "color": "#4D4848" }, "geometry": { "type": "Point", "coordinates": [ 119.531250, 23.644524 ] } }
{"year": "AD1206",  "type": "Feature", "tippecanoe": { "layer": "2AFCA0E8F3201583915512299", "minzoom": 2, "maxzoom": 8 }, "properties": { "halo": 0.3, "title": "红头屿", "fontsize": 12, "tyid": "304006", "oid": "103:1576575138091", "color": "#4D4848" }, "geometry": { "type": "Point", "coordinates": [ 121.464844, 22.105999 ] } }
{"year": "AD1206",  "type": "Feature", "tippecanoe": { "layer": "2AFCA0E8F3201583915512299", "minzoom": 2, "maxzoom": 8 }, "properties": { "halo": 0.3, "title": "万里石塘", "fontsize": 12, "tyid": "304006", "oid": "103:1576575138086", "color": "#4D4848" }, "geometry": { "type": "Point", "coordinates": [ 114.257812, 9.795678 ] } }
{"year": "AD1206",  "type": "Feature", "tippecanoe": { "layer": "2AFCA0EF98601583915512285", "minzoom": 2, "maxzoom": 8 }, "properties": { "halo": 0.8, "title": "英格兰王国", "fontsize": 12, "tyid": "304000", "oid": "103:1576575138032", "color": "#202020" }, "geometry": { "type": "Point", "coordinates": [ -1.142578, 52.106505 ] } }
{"year": "AD1206",  "type": "Feature", "tippecanoe": { "layer": "2AFCA0EF98601583915512285", "minzoom": 2, "maxzoom": 8 }, "properties": { "halo": 0.8, "title": "穆瓦希德哈里发国", "fontsize": 12, "tyid": "304000", "oid": "103:1535120137589", "color": "#202020" }, "geometry": { "type": "Point", "coordinates": [ -3.339844, 32.249974 ] } }
{"year": "AD1206",  "type": "Feature", "tippecanoe": { "layer": "2AFCA0EF98601583915512285", "minzoom": 2, "maxzoom": 8 }, "properties": { "halo": 0.8, "title": "挪威王国[维京时期]", "fontsize": 12, "tyid": "304000", "oid": "103:1576575137903", "color": "#202020" }, "geometry": { "type": "Point", "coordinates": [ 11.601562, 62.794935 ] } }
{"year": "AD1206",  "type": "Feature", "tippecanoe": { "layer": "2AFCA0EF98601583915512285", "minzoom": 2, "maxzoom": 8 }, "properties": { "halo": 0.8, "title": "瑞典王国[维京时期]", "fontsize": 12, "tyid": "304000", "oid": "103:1576575138033", "color": "#202020" }, "geometry": { "type": "Point", "coordinates": [ 14.326172, 59.310768 ] } }
{"year": "AD1206",  "type": "Feature", "tippecanoe": { "layer": "2AFCA0EF98601583915512285", "minzoom": 2, "maxzoom": 8 }, "properties": { "halo": 0.8, "title": "神圣罗马帝国", "fontsize": 12, "tyid": "304000", "oid": "103:1576575138007", "color": "#202020" }, "geometry": { "type": "Point", "coordinates": [ 9.843750, 48.458352 ] } }
{"year": "AD1206",  "type": "Feature", "tippecanoe": { "layer": "2AFCA0EF98601583915512285", "minzoom": 2, "maxzoom": 8 }, "properties": { "halo": 0.8, "title": "匈牙利王国", "fontsize": 12, "tyid": "304000", "oid": "103:1576575137982", "color": "#202020" }, "geometry": { "type": "Point", "coordinates": [ 20.302734, 46.558860 ] } }
{"year": "AD1206",  "type": "Feature", "tippecanoe": { "layer": "2AFCA0EF98601583915512285", "minzoom": 2, "maxzoom": 8 }, "properties": { "halo": 0.8, "title": "诺夫哥罗德共和国", "fontsize": 12, "tyid": "304000", "oid": "103:1576575138035", "color": "#202020" }, "geometry": { "type": "Point", "coordinates": [ 37.792969, 62.144976 ] } }
{"year": "AD1206",  "type": "Feature", "tippecanoe": { "layer": "2AFCA0EF98601583915512285", "minzoom": 2, "maxzoom": 8 }, "properties": { "halo": 0.8, "title": "弗拉基米尔-苏兹达尔大公国", "fontsize": 12, "tyid": "304000", "oid": "103:1576575137963", "color": "#202020" }, "geometry": { "type": "Point", "coordinates": [ 41.220703, 57.421294 ] } }
{"year": "AD1206",  "type": "Feature", "tippecanoe": { "layer": "2AFCA0EF98601583915512285", "minzoom": 2, "maxzoom": 8 }, "properties": { "halo": 0.8, "title": "加利西亚-沃里尼亚王国", "fontsize": 12, "tyid": "304000", "oid": "103:1576575137974", "color": "#202020" }, "geometry": { "type": "Point", "coordinates": [ 25.927734, 48.922499 ] } }
{"year": "AD1206",  "type": "Feature", "tippecanoe": { "layer": "2AFCA0EF98601583915512285", "minzoom": 2, "maxzoom": 8 }, "properties": { "halo": 0.8, "title": "保加利亚第二王国", "fontsize": 12, "tyid": "304000", "oid": "103:1576575137975", "color": "#202020" }, "geometry": { "type": "Point", "coordinates": [ 24.609375, 43.644026 ] } }
{"year": "AD1206",  "type": "Feature", "tippecanoe": { "layer": "2AFCA0EF98601583915512285", "minzoom": 2, "maxzoom": 8 }, "properties": { "halo": 0.8, "title": "格鲁吉亚王国", "fontsize": 12, "tyid": "304000", "oid": "103:1535120137577", "color": "#202020" }, "geometry": { "type": "Point", "coordinates": [ 44.560547, 41.112469 ] } }
{"year": "AD1206",  "type": "Feature", "tippecanoe": { "layer": "2AFCA0EF98601583915512285", "minzoom": 2, "maxzoom": 8 }, "properties": { "halo": 0.8, "title": "哈尼亚埃米尔国", "fontsize": 12, "tyid": "304000", "oid": "103:1582720894987", "color": "#202020" }, "geometry": { "type": "Point", "coordinates": [ 13.359375, 31.278551 ] } }
{"year": "AD1206",  "type": "Feature", "tippecanoe": { "layer": "2AFCA0EF98601583915512285", "minzoom": 2, "maxzoom": 8 }, "properties": { "halo": 0.8, "title": "拉丁帝国", "fontsize": 12, "tyid": "304000", "oid": "103:1535120137552", "color": "#202020" }, "geometry": { "type": "Point", "coordinates": [ 27.773438, 39.232253 ] } }
{"year": "AD1206",  "type": "Feature", "tippecanoe": { "layer": "2AFCA0EF98601583915512285", "minzoom": 2, "maxzoom": 8 }, "properties": { "halo": 0.8, "title": "阿尤布苏丹国", "fontsize": 12, "tyid": "304000", "oid": "103:1582720894961", "color": "#202020" }, "geometry": { "type": "Point", "coordinates": [ 29.267578, 28.690588 ] } }
{"year": "AD1206",  "type": "Feature", "tippecanoe": { "layer": "2AFCA0EF98601583915512285", "minzoom": 2, "maxzoom": 8 }, "properties": { "halo": 0.8, "title": "鲁姆苏丹国", "fontsize": 12, "tyid": "304000", "oid": "103:1576575137936", "color": "#202020" }, "geometry": { "type": "Point", "coordinates": [ 34.453125, 39.164141 ] } }
{"year": "AD1206",  "type": "Feature", "tippecanoe": { "layer": "2AFCA0EF98601583915512285", "minzoom": 2, "maxzoom": 8 }, "properties": { "halo": 0.8, "title": "马库里亚王国", "fontsize": 12, "tyid": "304000", "oid": "103:1576575137940", "color": "#202020" }, "geometry": { "type": "Point", "coordinates": [ 31.816406, 18.646245 ] } }
{"year": "AD1206",  "type": "Feature", "tippecanoe": { "layer": "2AFCA0EF98601583915512285", "minzoom": 2, "maxzoom": 8 }, "properties": { "halo": 0.8, "title": "阿罗底亚王国", "fontsize": 12, "tyid": "304000", "oid": "103:1576575137878", "color": "#202020" }, "geometry": { "type": "Point", "coordinates": [ 33.046875, 13.581921 ] } }
{"year": "AD1206",  "type": "Feature", "tippecanoe": { "layer": "2AFCA0EF98601583915512285", "minzoom": 2, "maxzoom": 8 }, "properties": { "halo": 0.8, "title": "扎格维王朝", "fontsize": 12, "tyid": "304000", "oid": "103:1576575137942", "color": "#202020" }, "geometry": { "type": "Point", "coordinates": [ 38.232422, 13.752725 ] } }
{"year": "AD1206",  "type": "Feature", "tippecanoe": { "layer": "2AFCA0EF98601583915512285", "minzoom": 2, "maxzoom": 8 }, "properties": { "halo": 0.8, "title": "伏尔加保加利亚汗国", "fontsize": 12, "tyid": "304000", "oid": "103:1576575137924", "color": "#202020" }, "geometry": { "type": "Point", "coordinates": [ 53.349609, 58.493694 ] } }
{"year": "AD1206",  "type": "Feature", "tippecanoe": { "layer": "2AFCA0EF98601583915512285", "minzoom": 2, "maxzoom": 8 }, "properties": { "halo": 0.8, "title": "库曼-钦察联盟", "fontsize": 12, "tyid": "304000", "oid": "103:1576575137960", "color": "#202020" }, "geometry": { "type": "Point", "coordinates": [ 49.570312, 49.095452 ] } }
{"year": "AD1206",  "type": "Feature", "tippecanoe": { "layer": "2AFCA0EF98601583915512285", "minzoom": 2, "maxzoom": 8 }, "properties": { "halo": 0.8, "title": "巴什基尔人", "fontsize": 12, "tyid": "304002", "oid": "103:1576575138079", "color": "#262626" }, "geometry": { "type": "Point", "coordinates": [ 65.654297, 54.977614 ] } }
{"year": "AD1206",  "type": "Feature", "tippecanoe": { "layer": "2AFCA0EF98601583915512285", "minzoom": 2, "maxzoom": 8 }, "properties": { "halo": 0.8, "title": "西辽", "fontsize": 12, "tyid": "304000", "oid": "103:1576575137893", "color": "#202020" }, "geometry": { "type": "Point", "coordinates": [ 76.376953, 44.276671 ] } }
{"year": "AD1206",  "type": "Feature", "tippecanoe": { "layer": "2AFCA0EF98601583915512285", "minzoom": 2, "maxzoom": 8 }, "properties": { "halo": 0.8, "title": "阿拔斯哈里发国", "fontsize": 12, "tyid": "304000", "oid": "103:1576575137930", "color": "#202020" }, "geometry": { "type": "Point", "coordinates": [ 45.527344, 32.175612 ] } }
{"year": "AD1206",  "type": "Feature", "tippecanoe": { "layer": "2AFCA0EF98601583915512285", "minzoom": 2, "maxzoom": 8 }, "properties": { "halo": 0.8, "title": "贝都因人", "fontsize": 12, "tyid": "304000", "oid": "103:1576575137929", "color": "#202020" }, "geometry": { "type": "Point", "coordinates": [ 47.548828, 23.966176 ] } }
{"year": "AD1206",  "type": "Feature", "tippecanoe": { "layer": "2AFCA0EF98601583915512285", "minzoom": 2, "maxzoom": 8 }, "properties": { "halo": 0.8, "title": "花剌子模王朝", "fontsize": 12, "tyid": "304000", "oid": "103:1576575137925", "color": "#202020" }, "geometry": { "type": "Point", "coordinates": [ 57.128906, 34.597042 ] } }
{"year": "AD1206",  "type": "Feature", "tippecanoe": { "layer": "2AFCA0EF98601583915512285", "minzoom": 2, "maxzoom": 8 }, "properties": { "halo": 0.8, "title": "古尔王朝", "fontsize": 12, "tyid": "304000", "oid": "103:1576575137922", "color": "#202020" }, "geometry": { "type": "Point", "coordinates": [ 71.718750, 29.535230 ] } }
{"year": "AD1206",  "type": "Feature", "tippecanoe": { "layer": "2AFCA0EF98601583915512285", "minzoom": 2, "maxzoom": 8 }, "properties": { "halo": 0.8, "title": "耶达婆王朝", "fontsize": 12, "tyid": "304000", "oid": "103:1576575137874", "color": "#202020" }, "geometry": { "type": "Point", "coordinates": [ 75.937500, 19.890723 ] } }
{"year": "AD1206",  "type": "Feature", "tippecanoe": { "layer": "2AFCA0EF98601583915512285", "minzoom": 2, "maxzoom": 8 }, "properties": { "halo": 0.8, "title": "卡卡提亚王朝", "fontsize": 12, "tyid": "304000", "oid": "103:1576575137913", "color": "#202020" }, "geometry": { "type": "Point", "coordinates": [ 80.332031, 17.811456 ] } }
{"year": "AD1206",  "type": "Feature", "tippecanoe": { "layer": "2AFCA0EF98601583915512285", "minzoom": 2, "maxzoom": 8 }, "properties": { "halo": 0.8, "title": "蒙古帝国", "fontsize": 12, "tyid": "304001", "oid": "103:1576575138017", "color": "#262626" }, "geometry": { "type": "Point", "coordinates": [ 103.447266, 48.632909 ] } }
{"year": "AD1206",  "type": "Feature", "tippecanoe": { "layer": "2AFCA0EF98601583915512285", "minzoom": 2, "maxzoom": 8 }, "properties": { "halo": 0.8, "title": "金", "fontsize": 12, "tyid": "304000", "oid": "103:1576575137891", "color": "#202020" }, "geometry": { "type": "Point", "coordinates": [ 124.804688, 45.151053 ] } }
{"year": "AD1206",  "type": "Feature", "tippecanoe": { "layer": "2AFCA0EF98601583915512285", "minzoom": 2, "maxzoom": 8 }, "properties": { "halo": 0.8, "title": "吐蕃诸部", "fontsize": 12, "tyid": "304001", "oid": "103:1576575138016", "color": "#262626" }, "geometry": { "type": "Point", "coordinates": [ 91.142578, 32.990236 ] } }
{"year": "AD1206",  "type": "Feature", "tippecanoe": { "layer": "2AFCA0EF98601583915512285", "minzoom": 2, "maxzoom": 8 }, "properties": { "halo": 0.8, "title": "后理国", "fontsize": 12, "tyid": "304000", "oid": "103:1576575137858", "color": "#202020" }, "geometry": { "type": "Point", "coordinates": [ 100.546875, 24.287027 ] } }
{"year": "AD1206",  "type": "Feature", "tippecanoe": { "layer": "2AFCA0EF98601583915512285", "minzoom": 2, "maxzoom": 8 }, "properties": { "halo": 0.8, "title": "西夏", "fontsize": 12, "tyid": "304000", "oid": "103:1576575137896", "color": "#202020" }, "geometry": { "type": "Point", "coordinates": [ 102.832031, 39.909736 ] } }
{"year": "AD1206",  "type": "Feature", "tippecanoe": { "layer": "2AFCA0EF98601583915512285", "minzoom": 2, "maxzoom": 8 }, "properties": { "halo": 0.8, "title": "南宋", "fontsize": 12, "tyid": "304000", "oid": "103:1576575137897", "color": "#202020" }, "geometry": { "type": "Point", "coordinates": [ 111.621094, 27.994401 ] } }
{"year": "AD1206",  "type": "Feature", "tippecanoe": { "layer": "2AFCA0EF98601583915512285", "minzoom": 2, "maxzoom": 8 }, "properties": { "halo": 0.8, "title": "蒲甘王国", "fontsize": 12, "tyid": "304000", "oid": "103:1576575137908", "color": "#202020" }, "geometry": { "type": "Point", "coordinates": [ 96.064453, 20.632784 ] } }
{"year": "AD1206",  "type": "Feature", "tippecanoe": { "layer": "2AFCA0EF98601583915512285", "minzoom": 2, "maxzoom": 8 }, "properties": { "halo": 0.8, "title": "三佛齐王国", "fontsize": 12, "tyid": "304000", "oid": "103:1576575137885", "color": "#202020" }, "geometry": { "type": "Point", "coordinates": [ 100.986328, 1.142502 ] } }
{"year": "AD1206",  "type": "Feature", "tippecanoe": { "layer": "2AFCA0EF98601583915512285", "minzoom": 2, "maxzoom": 8 }, "properties": { "halo": 0.8, "title": "高棉帝国", "fontsize": 12, "tyid": "304000", "oid": "103:1576575137900", "color": "#202020" }, "geometry": { "type": "Point", "coordinates": [ 103.183594, 14.349548 ] } }
{"year": "AD1206",  "type": "Feature", "tippecanoe": { "layer": "2AFCA0EF98601583915512285", "minzoom": 2, "maxzoom": 8 }, "properties": { "halo": 0.8, "title": "镰仓幕府", "fontsize": 12, "tyid": "304000", "oid": "103:1576575137888", "color": "#202020" }, "geometry": { "type": "Point", "coordinates": [ 138.955078, 36.315125 ] } }
{"year": "AD1206",  "type": "Feature", "tippecanoe": { "layer": "2AFCA0EF98601583915512285", "minzoom": 2, "maxzoom": 8 }, "properties": { "halo": 0.8, "title": "基卢瓦苏丹国", "fontsize": 12, "tyid": "304000", "oid": "103:1576575138051", "color": "#202020" }, "geometry": { "type": "Point", "coordinates": [ 38.671875, -15.029686 ] } }
{"year": "AD1206",  "type": "Feature", "tippecanoe": { "layer": "2AFCA0EF9B001583915512288", "minzoom": 2, "maxzoom": 8 }, "properties": { "halo": 0.2, "title": "彰义门", "fontsize": 12, "offset": "[0,2]", "icon": "door", "oid": "103:1537436004360", "color": "#A44900", "tyid": "306000" }, "geometry": { "type": "Point", "coordinates": [ 116.279297, 39.909736 ] } }
{"year": "AD1206",  "type": "Feature", "tippecanoe": { "layer": "2AFCA0EF9B001583915512288", "minzoom": 2, "maxzoom": 8 }, "properties": { "halo": 0.2, "title": "颢华门", "fontsize": 12, "offset": "[0,2]", "icon": "door", "oid": "103:1537436004362", "color": "#A44900", "tyid": "306000" }, "geometry": { "type": "Point", "coordinates": [ 116.279297, 39.909736 ] } }
{"year": "AD1206",  "type": "Feature", "tippecanoe": { "layer": "2AFCA0EF9B001583915512288", "minzoom": 2, "maxzoom": 8 }, "properties": { "halo": 0.2, "title": "丽泽门", "fontsize": 12, "offset": "[0,2]", "icon": "door", "oid": "103:1537436004364", "color": "#A44900", "tyid": "306000" }, "geometry": { "type": "Point", "coordinates": [ 116.279297, 39.909736 ] } }
{"year": "AD1206",  "type": "Feature", "tippecanoe": { "layer": "2AFCA0EF9B001583915512288", "minzoom": 2, "maxzoom": 8 }, "properties": { "halo": 0.2, "title": "会城门", "fontsize": 12, "offset": "[0,2]", "icon": "door", "oid": "103:1537436004359", "color": "#A44900", "tyid": "306000" }, "geometry": { "type": "Point", "coordinates": [ 116.279297, 39.909736 ] } }
{"year": "AD1206",  "type": "Feature", "tippecanoe": { "layer": "2AFCA0EF9B001583915512288", "minzoom": 2, "maxzoom": 8 }, "properties": { "halo": 0.2, "title": "通玄门", "fontsize": 12, "offset": "[0,2]", "icon": "door", "oid": "103:1537436004357", "color": "#A44900", "tyid": "306000" }, "geometry": { "type": "Point", "coordinates": [ 116.279297, 39.909736 ] } }
{"year": "AD1206",  "type": "Feature", "tippecanoe": { "layer": "2AFCA0EF9B001583915512288", "minzoom": 2, "maxzoom": 8 }, "properties": { "halo": 0.2, "title": "玉华门（显西门）", "fontsize": 12, "offset": "[0,2]", "icon": "door", "oid": "103:1537436004389", "color": "#A44900", "tyid": "306000" }, "geometry": { "type": "Point", "coordinates": [ 116.279297, 39.909736 ] } }
{"year": "AD1206",  "type": "Feature", "tippecanoe": { "layer": "2AFCA0EF9B001583915512288", "minzoom": 2, "maxzoom": 8 }, "properties": { "halo": 0.2, "title": "拱辰门", "fontsize": 12, "offset": "[0,2]", "icon": "door", "oid": "103:1537436004384", "color": "#A44900", "tyid": "306001" }, "geometry": { "type": "Point", "coordinates": [ 116.279297, 39.909736 ] } }
{"year": "AD1206",  "type": "Feature", "tippecanoe": { "layer": "2AFCA0EF9B001583915512288", "minzoom": 2, "maxzoom": 8 }, "properties": { "halo": 0.2, "title": "昭明门", "fontsize": 12, "offset": "[0,2]", "icon": "door", "oid": "103:1537436004382", "color": "#A44900", "tyid": "306001" }, "geometry": { "type": "Point", "coordinates": [ 116.279297, 39.909736 ] } }
{"year": "AD1206",  "type": "Feature", "tippecanoe": { "layer": "2AFCA0EF9B001583915512288", "minzoom": 2, "maxzoom": 8 }, "properties": { "halo": 0.2, "title": "玉华门", "fontsize": 12, "offset": "[0,2]", "icon": "door", "oid": "103:1537436004386", "color": "#A44900", "tyid": "306001" }, "geometry": { "type": "Point", "coordinates": [ 116.279297, 39.909736 ] } }
{"year": "AD1206",  "type": "Feature", "tippecanoe": { "layer": "2AFCA0EF9B001583915512288", "minzoom": 2, "maxzoom": 8 }, "properties": { "halo": 0.2, "title": "仁政门", "fontsize": 12, "offset": "[0,2]", "icon": "door", "oid": "103:1537436004381", "color": "#A44900", "tyid": "306001" }, "geometry": { "type": "Point", "coordinates": [ 116.279297, 39.909736 ] } }
{"year": "AD1206",  "type": "Feature", "tippecanoe": { "layer": "2AFCA0EF9B001583915512288", "minzoom": 2, "maxzoom": 8 }, "properties": { "halo": 0.2, "title": "宣明门", "fontsize": 12, "offset": "[0,2]", "icon": "door", "oid": "103:1537436004379", "color": "#A44900", "tyid": "306001" }, "geometry": { "type": "Point", "coordinates": [ 116.279297, 39.909736 ] } }
{"year": "AD1206",  "type": "Feature", "tippecanoe": { "layer": "2AFCA0EF9B001583915512288", "minzoom": 2, "maxzoom": 8 }, "properties": { "halo": 0.2, "title": "大安门", "fontsize": 12, "offset": "[0,2]", "icon": "door", "oid": "103:1537436004377", "color": "#A44900", "tyid": "306001" }, "geometry": { "type": "Point", "coordinates": [ 116.279297, 39.909736 ] } }
{"year": "AD1206",  "type": "Feature", "tippecanoe": { "layer": "2AFCA0EF9B001583915512288", "minzoom": 2, "maxzoom": 8 }, "properties": { "halo": 0.2, "title": "应天门", "fontsize": 12, "offset": "[0,2]", "icon": "door", "oid": "103:1537436004376", "color": "#A44900", "tyid": "306001" }, "geometry": { "type": "Point", "coordinates": [ 116.279297, 39.909736 ] } }
{"year": "AD1206",  "type": "Feature", "tippecanoe": { "layer": "2AFCA0EF9B001583915512288", "minzoom": 2, "maxzoom": 8 }, "properties": { "halo": 0.2, "title": "崇智门", "fontsize": 12, "offset": "[0,2]", "icon": "door", "oid": "103:1537436004355", "color": "#A44900", "tyid": "306000" }, "geometry": { "type": "Point", "coordinates": [ 116.279297, 39.909736 ] } }
{"year": "AD1206",  "type": "Feature", "tippecanoe": { "layer": "2AFCA0EF9B001583915512288", "minzoom": 2, "maxzoom": 8 }, "properties": { "halo": 0.2, "title": "宣华门", "fontsize": 12, "offset": "[0,2]", "icon": "door", "oid": "103:1537436004388", "color": "#A44900", "tyid": "306001" }, "geometry": { "type": "Point", "coordinates": [ 116.279297, 39.909736 ] } }
{"year": "AD1206",  "type": "Feature", "tippecanoe": { "layer": "2AFCA0EF9B001583915512288", "minzoom": 2, "maxzoom": 8 }, "properties": { "halo": 0.2, "title": "端礼门", "fontsize": 12, "offset": "[0,2]", "icon": "door", "oid": "103:1537436004365", "color": "#A44900", "tyid": "306000" }, "geometry": { "type": "Point", "coordinates": [ 116.279297, 39.909736 ] } }
{"year": "AD1206",  "type": "Feature", "tippecanoe": { "layer": "2AFCA0EF9B001583915512288", "minzoom": 2, "maxzoom": 8 }, "properties": { "halo": 0.2, "title": "宣阳门", "fontsize": 12, "offset": "[0,2]", "icon": "door", "oid": "103:1537436004374", "color": "#A44900", "tyid": "306000" }, "geometry": { "type": "Point", "coordinates": [ 116.279297, 39.909736 ] } }
{"year": "AD1206",  "type": "Feature", "tippecanoe": { "layer": "2AFCA0EF9B001583915512288", "minzoom": 2, "maxzoom": 8 }, "properties": { "halo": 0.2, "title": "丰宜门", "fontsize": 12, "offset": "[0,2]", "icon": "door", "oid": "103:1537436004367", "color": "#A44900", "tyid": "306000" }, "geometry": { "type": "Point", "coordinates": [ 116.279297, 39.909736 ] } }
{"year": "AD1206",  "type": "Feature", "tippecanoe": { "layer": "2AFCA0EF9B001583915512288", "minzoom": 2, "maxzoom": 8 }, "properties": { "halo": 0.2, "title": "水门", "fontsize": 12, "offset": "[0,2]", "icon": "door", "oid": "103:1537436004369", "color": "#A44900", "tyid": "306000" }, "geometry": { "type": "Point", "coordinates": [ 116.279297, 39.909736 ] } }
{"year": "AD1206",  "type": "Feature", "tippecanoe": { "layer": "2AFCA0EF9B001583915512288", "minzoom": 2, "maxzoom": 8 }, "properties": { "halo": 0.2, "title": "景风门", "fontsize": 12, "offset": "[0,2]", "icon": "door", "oid": "103:1537436004371", "color": "#A44900", "tyid": "306000" }, "geometry": { "type": "Point", "coordinates": [ 116.279297, 39.909736 ] } }
{"year": "AD1206",  "type": "Feature", "tippecanoe": { "layer": "2AFCA0EF9B001583915512288", "minzoom": 2, "maxzoom": 8 }, "properties": { "halo": 0.2, "title": "光泰门", "fontsize": 12, "offset": "[0,2]", "icon": "door", "oid": "103:1537436004354", "color": "#A44900", "tyid": "306000" }, "geometry": { "type": "Point", "coordinates": [ 116.367188, 39.909736 ] } }
{"year": "AD1206",  "type": "Feature", "tippecanoe": { "layer": "2AFCA0EF9B001583915512288", "minzoom": 2, "maxzoom": 8 }, "properties": { "halo": 0.2, "title": "施仁门", "fontsize": 12, "offset": "[0,2]", "icon": "door", "oid": "103:1537436004352", "color": "#A44900", "tyid": "306000" }, "geometry": { "type": "Point", "coordinates": [ 116.367188, 39.909736 ] } }
{"year": "AD1206",  "type": "Feature", "tippecanoe": { "layer": "2AFCA0EF9B001583915512288", "minzoom": 2, "maxzoom": 8 }, "properties": { "halo": 0.2, "title": "宣曜门", "fontsize": 12, "offset": "[0,2]", "icon": "door", "oid": "103:1537436004350", "color": "#A44900", "tyid": "306000" }, "geometry": { "type": "Point", "coordinates": [ 116.367188, 39.909736 ] } }
{"year": "AD1206",  "type": "Feature", "tippecanoe": { "layer": "2AFCA0EF9B001583915512288", "minzoom": 2, "maxzoom": 8 }, "properties": { "halo": 0.2, "title": "阳春门", "fontsize": 12, "offset": "[0,2]", "icon": "door", "oid": "103:1537436004372", "color": "#A44900", "tyid": "306000" }, "geometry": { "type": "Point", "coordinates": [ 116.367188, 39.909736 ] } }
{"year": "AD1206",  "type": "Feature", "tippecanoe": { "layer": "2AFCA0EF9CC01583915512291", "minzoom": 2, "maxzoom": 8 }, "properties": { "halo": 1.8, "title": "英格兰王国", "fontsize": 12, "tyid": "304000", "oid": "103:1576575138032", "color": "#0056E7" }, "geometry": { "type": "Point", "coordinates": [ -1.142578, 52.106505 ] } }
{"year": "AD1206",  "type": "Feature", "tippecanoe": { "layer": "2AFCA0EF9CC01583915512291", "minzoom": 2, "maxzoom": 8 }, "properties": { "halo": 1.8, "title": "穆瓦希德哈里发国", "fontsize": 12, "tyid": "304000", "oid": "103:1535120137589", "color": "#0056E7" }, "geometry": { "type": "Point", "coordinates": [ -3.339844, 32.249974 ] } }
{"year": "AD1206",  "type": "Feature", "tippecanoe": { "layer": "2AFCA0EF9CC01583915512291", "minzoom": 2, "maxzoom": 8 }, "properties": { "halo": 1.8, "title": "挪威王国[维京时期]", "fontsize": 12, "tyid": "304000", "oid": "103:1576575137903", "color": "#0056E7" }, "geometry": { "type": "Point", "coordinates": [ 11.601562, 62.794935 ] } }
{"year": "AD1206",  "type": "Feature", "tippecanoe": { "layer": "2AFCA0EF9CC01583915512291", "minzoom": 2, "maxzoom": 8 }, "properties": { "halo": 1.8, "title": "瑞典王国[维京时期]", "fontsize": 12, "tyid": "304000", "oid": "103:1576575138033", "color": "#0056E7" }, "geometry": { "type": "Point", "coordinates": [ 14.326172, 59.310768 ] } }
{"year": "AD1206",  "type": "Feature", "tippecanoe": { "layer": "2AFCA0EF9CC01583915512291", "minzoom": 2, "maxzoom": 8 }, "properties": { "halo": 1.8, "title": "神圣罗马帝国", "fontsize": 12, "tyid": "304000", "oid": "103:1576575138007", "color": "#0056E7" }, "geometry": { "type": "Point", "coordinates": [ 9.843750, 48.458352 ] } }
{"year": "AD1206",  "type": "Feature", "tippecanoe": { "layer": "2AFCA0EF9CC01583915512291", "minzoom": 2, "maxzoom": 8 }, "properties": { "halo": 1.8, "title": "匈牙利王国", "fontsize": 12, "tyid": "304000", "oid": "103:1576575137982", "color": "#0056E7" }, "geometry": { "type": "Point", "coordinates": [ 20.302734, 46.558860 ] } }
{"year": "AD1206",  "type": "Feature", "tippecanoe": { "layer": "2AFCA0EF9CC01583915512291", "minzoom": 2, "maxzoom": 8 }, "properties": { "halo": 1.8, "title": "诺夫哥罗德共和国", "fontsize": 12, "tyid": "304000", "oid": "103:1576575138035", "color": "#0056E7" }, "geometry": { "type": "Point", "coordinates": [ 37.792969, 62.144976 ] } }
{"year": "AD1206",  "type": "Feature", "tippecanoe": { "layer": "2AFCA0EF9CC01583915512291", "minzoom": 2, "maxzoom": 8 }, "properties": { "halo": 1.8, "title": "弗拉基米尔-苏兹达尔大公国", "fontsize": 12, "tyid": "304000", "oid": "103:1576575137963", "color": "#0056E7" }, "geometry": { "type": "Point", "coordinates": [ 41.220703, 57.421294 ] } }
{"year": "AD1206",  "type": "Feature", "tippecanoe": { "layer": "2AFCA0EF9CC01583915512291", "minzoom": 2, "maxzoom": 8 }, "properties": { "halo": 1.8, "title": "加利西亚-沃里尼亚王国", "fontsize": 12, "tyid": "304000", "oid": "103:1576575137974", "color": "#0056E7" }, "geometry": { "type": "Point", "coordinates": [ 25.927734, 48.922499 ] } }
{"year": "AD1206",  "type": "Feature", "tippecanoe": { "layer": "2AFCA0EF9CC01583915512291", "minzoom": 2, "maxzoom": 8 }, "properties": { "halo": 1.8, "title": "保加利亚第二王国", "fontsize": 12, "tyid": "304000", "oid": "103:1576575137975", "color": "#0056E7" }, "geometry": { "type": "Point", "coordinates": [ 24.609375, 43.644026 ] } }
{"year": "AD1206",  "type": "Feature", "tippecanoe": { "layer": "2AFCA0EF9CC01583915512291", "minzoom": 2, "maxzoom": 8 }, "properties": { "halo": 1.8, "title": "格鲁吉亚王国", "fontsize": 12, "tyid": "304000", "oid": "103:1535120137577", "color": "#0056E7" }, "geometry": { "type": "Point", "coordinates": [ 44.560547, 41.112469 ] } }
{"year": "AD1206",  "type": "Feature", "tippecanoe": { "layer": "2AFCA0EF9CC01583915512291", "minzoom": 2, "maxzoom": 8 }, "properties": { "halo": 1.8, "title": "哈尼亚埃米尔国", "fontsize": 12, "tyid": "304000", "oid": "103:1582720894987", "color": "#0056E7" }, "geometry": { "type": "Point", "coordinates": [ 13.359375, 31.278551 ] } }
{"year": "AD1206",  "type": "Feature", "tippecanoe": { "layer": "2AFCA0EF9CC01583915512291", "minzoom": 2, "maxzoom": 8 }, "properties": { "halo": 1.8, "title": "拉丁帝国", "fontsize": 12, "tyid": "304000", "oid": "103:1535120137552", "color": "#0056E7" }, "geometry": { "type": "Point", "coordinates": [ 27.773438, 39.232253 ] } }
{"year": "AD1206",  "type": "Feature", "tippecanoe": { "layer": "2AFCA0EF9CC01583915512291", "minzoom": 2, "maxzoom": 8 }, "properties": { "halo": 1.8, "title": "阿尤布苏丹国", "fontsize": 12, "tyid": "304000", "oid": "103:1582720894961", "color": "#0056E7" }, "geometry": { "type": "Point", "coordinates": [ 29.267578, 28.690588 ] } }
{"year": "AD1206",  "type": "Feature", "tippecanoe": { "layer": "2AFCA0EF9CC01583915512291", "minzoom": 2, "maxzoom": 8 }, "properties": { "halo": 1.8, "title": "鲁姆苏丹国", "fontsize": 12, "tyid": "304000", "oid": "103:1576575137936", "color": "#0056E7" }, "geometry": { "type": "Point", "coordinates": [ 34.453125, 39.164141 ] } }
{"year": "AD1206",  "type": "Feature", "tippecanoe": { "layer": "2AFCA0EF9CC01583915512291", "minzoom": 2, "maxzoom": 8 }, "properties": { "halo": 1.8, "title": "马库里亚王国", "fontsize": 12, "tyid": "304000", "oid": "103:1576575137940", "color": "#0056E7" }, "geometry": { "type": "Point", "coordinates": [ 31.816406, 18.646245 ] } }
{"year": "AD1206",  "type": "Feature", "tippecanoe": { "layer": "2AFCA0EF9CC01583915512291", "minzoom": 2, "maxzoom": 8 }, "properties": { "halo": 1.8, "title": "阿罗底亚王国", "fontsize": 12, "tyid": "304000", "oid": "103:1576575137878", "color": "#0056E7" }, "geometry": { "type": "Point", "coordinates": [ 33.046875, 13.581921 ] } }
{"year": "AD1206",  "type": "Feature", "tippecanoe": { "layer": "2AFCA0EF9CC01583915512291", "minzoom": 2, "maxzoom": 8 }, "properties": { "halo": 1.8, "title": "扎格维王朝", "fontsize": 12, "tyid": "304000", "oid": "103:1576575137942", "color": "#0056E7" }, "geometry": { "type": "Point", "coordinates": [ 38.232422, 13.752725 ] } }
{"year": "AD1206",  "type": "Feature", "tippecanoe": { "layer": "2AFCA0EF9CC01583915512291", "minzoom": 2, "maxzoom": 8 }, "properties": { "halo": 1.8, "title": "伏尔加保加利亚汗国", "fontsize": 12, "tyid": "304000", "oid": "103:1576575137924", "color": "#0056E7" }, "geometry": { "type": "Point", "coordinates": [ 53.349609, 58.493694 ] } }
{"year": "AD1206",  "type": "Feature", "tippecanoe": { "layer": "2AFCA0EF9CC01583915512291", "minzoom": 2, "maxzoom": 8 }, "properties": { "halo": 1.8, "title": "库曼-钦察联盟", "fontsize": 12, "tyid": "304000", "oid": "103:1576575137960", "color": "#0056E7" }, "geometry": { "type": "Point", "coordinates": [ 49.570312, 49.095452 ] } }
{"year": "AD1206",  "type": "Feature", "tippecanoe": { "layer": "2AFCA0EF9CC01583915512291", "minzoom": 2, "maxzoom": 8 }, "properties": { "halo": 1.6, "title": "巴什基尔人", "fontsize": 12, "tyid": "304002", "oid": "103:1576575138079", "color": "#0056E7" }, "geometry": { "type": "Point", "coordinates": [ 65.654297, 54.977614 ] } }
{"year": "AD1206",  "type": "Feature", "tippecanoe": { "layer": "2AFCA0EF9CC01583915512291", "minzoom": 2, "maxzoom": 8 }, "properties": { "halo": 1.8, "title": "西辽", "fontsize": 12, "tyid": "304000", "oid": "103:1576575137893", "color": "#0056E7" }, "geometry": { "type": "Point", "coordinates": [ 76.376953, 44.276671 ] } }
{"year": "AD1206",  "type": "Feature", "tippecanoe": { "layer": "2AFCA0EF9CC01583915512291", "minzoom": 2, "maxzoom": 8 }, "properties": { "halo": 1.8, "title": "阿拔斯哈里发国", "fontsize": 12, "tyid": "304000", "oid": "103:1576575137930", "color": "#0056E7" }, "geometry": { "type": "Point", "coordinates": [ 45.527344, 32.175612 ] } }
{"year": "AD1206",  "type": "Feature", "tippecanoe": { "layer": "2AFCA0EF9CC01583915512291", "minzoom": 2, "maxzoom": 8 }, "properties": { "halo": 1.8, "title": "贝都因人", "fontsize": 12, "tyid": "304000", "oid": "103:1576575137929", "color": "#0056E7" }, "geometry": { "type": "Point", "coordinates": [ 47.548828, 23.966176 ] } }
{"year": "AD1206",  "type": "Feature", "tippecanoe": { "layer": "2AFCA0EF9CC01583915512291", "minzoom": 2, "maxzoom": 8 }, "properties": { "halo": 1.8, "title": "花剌子模王朝", "fontsize": 12, "tyid": "304000", "oid": "103:1576575137925", "color": "#0056E7" }, "geometry": { "type": "Point", "coordinates": [ 57.128906, 34.597042 ] } }
{"year": "AD1206",  "type": "Feature", "tippecanoe": { "layer": "2AFCA0EF9CC01583915512291", "minzoom": 2, "maxzoom": 8 }, "properties": { "halo": 1.8, "title": "古尔王朝", "fontsize": 12, "tyid": "304000", "oid": "103:1576575137922", "color": "#0056E7" }, "geometry": { "type": "Point", "coordinates": [ 71.718750, 29.535230 ] } }
{"year": "AD1206",  "type": "Feature", "tippecanoe": { "layer": "2AFCA0EF9CC01583915512291", "minzoom": 2, "maxzoom": 8 }, "properties": { "halo": 1.8, "title": "耶达婆王朝", "fontsize": 12, "tyid": "304000", "oid": "103:1576575137874", "color": "#0056E7" }, "geometry": { "type": "Point", "coordinates": [ 75.937500, 19.890723 ] } }
{"year": "AD1206",  "type": "Feature", "tippecanoe": { "layer": "2AFCA0EF9CC01583915512291", "minzoom": 2, "maxzoom": 8 }, "properties": { "halo": 1.8, "title": "卡卡提亚王朝", "fontsize": 12, "tyid": "304000", "oid": "103:1576575137913", "color": "#0056E7" }, "geometry": { "type": "Point", "coordinates": [ 80.332031, 17.811456 ] } }
{"year": "AD1206",  "type": "Feature", "tippecanoe": { "layer": "2AFCA0EF9CC01583915512291", "minzoom": 2, "maxzoom": 8 }, "properties": { "halo": 1.6, "title": "蒙古帝国", "fontsize": 12, "tyid": "304001", "oid": "103:1576575138017", "color": "#0056E7" }, "geometry": { "type": "Point", "coordinates": [ 103.447266, 48.632909 ] } }
{"year": "AD1206",  "type": "Feature", "tippecanoe": { "layer": "2AFCA0EF9CC01583915512291", "minzoom": 2, "maxzoom": 8 }, "properties": { "halo": 1.8, "title": "金", "fontsize": 12, "tyid": "304000", "oid": "103:1576575137891", "color": "#0056E7" }, "geometry": { "type": "Point", "coordinates": [ 124.804688, 45.151053 ] } }
{"year": "AD1206",  "type": "Feature", "tippecanoe": { "layer": "2AFCA0EF9CC01583915512291", "minzoom": 2, "maxzoom": 8 }, "properties": { "halo": 1.6, "title": "吐蕃诸部", "fontsize": 12, "tyid": "304001", "oid": "103:1576575138016", "color": "#0056E7" }, "geometry": { "type": "Point", "coordinates": [ 91.142578, 32.990236 ] } }
{"year": "AD1206",  "type": "Feature", "tippecanoe": { "layer": "2AFCA0EF9CC01583915512291", "minzoom": 2, "maxzoom": 8 }, "properties": { "halo": 1.8, "title": "后理国", "fontsize": 12, "tyid": "304000", "oid": "103:1576575137858", "color": "#0056E7" }, "geometry": { "type": "Point", "coordinates": [ 100.546875, 24.287027 ] } }
{"year": "AD1206",  "type": "Feature", "tippecanoe": { "layer": "2AFCA0EF9CC01583915512291", "minzoom": 2, "maxzoom": 8 }, "properties": { "halo": 1.8, "title": "西夏", "fontsize": 12, "tyid": "304000", "oid": "103:1576575137896", "color": "#0056E7" }, "geometry": { "type": "Point", "coordinates": [ 102.832031, 39.909736 ] } }
{"year": "AD1206",  "type": "Feature", "tippecanoe": { "layer": "2AFCA0EF9CC01583915512291", "minzoom": 2, "maxzoom": 8 }, "properties": { "halo": 1.8, "title": "南宋", "fontsize": 12, "tyid": "304000", "oid": "103:1576575137897", "color": "#0056E7" }, "geometry": { "type": "Point", "coordinates": [ 111.621094, 27.994401 ] } }
{"year": "AD1206",  "type": "Feature", "tippecanoe": { "layer": "2AFCA0EF9CC01583915512291", "minzoom": 2, "maxzoom": 8 }, "properties": { "halo": 1.8, "title": "蒲甘王国", "fontsize": 12, "tyid": "304000", "oid": "103:1576575137908", "color": "#0056E7" }, "geometry": { "type": "Point", "coordinates": [ 96.064453, 20.632784 ] } }
{"year": "AD1206",  "type": "Feature", "tippecanoe": { "layer": "2AFCA0EF9CC01583915512291", "minzoom": 2, "maxzoom": 8 }, "properties": { "halo": 1.8, "title": "三佛齐王国", "fontsize": 12, "tyid": "304000", "oid": "103:1576575137885", "color": "#0056E7" }, "geometry": { "type": "Point", "coordinates": [ 100.986328, 1.142502 ] } }
{"year": "AD1206",  "type": "Feature", "tippecanoe": { "layer": "2AFCA0EF9CC01583915512291", "minzoom": 2, "maxzoom": 8 }, "properties": { "halo": 1.8, "title": "高棉帝国", "fontsize": 12, "tyid": "304000", "oid": "103:1576575137900", "color": "#0056E7" }, "geometry": { "type": "Point", "coordinates": [ 103.183594, 14.349548 ] } }
{"year": "AD1206",  "type": "Feature", "tippecanoe": { "layer": "2AFCA0EF9CC01583915512291", "minzoom": 2, "maxzoom": 8 }, "properties": { "halo": 1.8, "title": "镰仓幕府", "fontsize": 12, "tyid": "304000", "oid": "103:1576575137888", "color": "#0056E7" }, "geometry": { "type": "Point", "coordinates": [ 138.955078, 36.315125 ] } }
{"year": "AD1206",  "type": "Feature", "tippecanoe": { "layer": "2AFCA0EF9CC01583915512291", "minzoom": 2, "maxzoom": 8 }, "properties": { "halo": 1.8, "title": "基卢瓦苏丹国", "fontsize": 12, "tyid": "304000", "oid": "103:1576575138051", "color": "#0056E7" }, "geometry": { "type": "Point", "coordinates": [ 38.671875, -15.029686 ] } }
{"year": "AD1206",  "type": "Feature", "tippecanoe": { "layer": "2AFCA0EF9DA01583915512292", "minzoom": 2, "maxzoom": 8 }, "properties": { "halo": 0.2, "title": "长春宫", "fontsize": 12, "tyid": "701000", "centroid": "{\"type\":\"Point\",\"coordinates\":[116.335411176576,39.89909032965]}", "icon": "", "oid": "103:1537436833983", "color": "#4B4040" }, "geometry": { "type": "Point", "coordinates": [ 116.279297, 39.909736 ] } }
{"year": "AD1206",  "type": "Feature", "tippecanoe": { "layer": "2AFCA0EF9DA01583915512292", "minzoom": 2, "maxzoom": 8 }, "properties": { "halo": 0.2, "title": "白云观", "fontsize": 12, "tyid": "701000", "centroid": "{\"type\":\"Point\",\"coordinates\":[116.337803416177,39.8994722332]}", "icon": "", "oid": "103:1537436833985", "color": "#4B4040" }, "geometry": { "type": "Point", "coordinates": [ 116.279297, 39.909736 ] } }
{"year": "AD1206",  "type": "Feature", "tippecanoe": { "layer": "2AFCA0EF9DA01583915512292", "minzoom": 2, "maxzoom": 8 }, "properties": { "halo": 0.2, "title": "天王寺", "fontsize": 12, "tyid": "701000", "centroid": "{\"type\":\"Point\",\"coordinates\":[116.339759248275,39.8936948027]}", "icon": "", "oid": "103:1537436833986", "color": "#4B4040" }, "geometry": { "type": "Point", "coordinates": [ 116.279297, 39.909736 ] } }
{"year": "AD1206",  "type": "Feature", "tippecanoe": { "layer": "2AFCA0EF9DA01583915512292", "minzoom": 2, "maxzoom": 8 }, "properties": { "halo": 0.2, "title": "洪法寺", "fontsize": 12, "tyid": "701000", "centroid": "{\"type\":\"Point\",\"coordinates\":[116.342701293538,39.8924050555]}", "icon": "", "oid": "103:1537436833988", "color": "#4B4040" }, "geometry": { "type": "Point", "coordinates": [ 116.279297, 39.909736 ] } }
{"year": "AD1206",  "type": "Feature", "tippecanoe": { "layer": "2AFCA0EF9DA01583915512292", "minzoom": 2, "maxzoom": 8 }, "properties": { "halo": 0.2, "title": "昊天寺", "fontsize": 12, "tyid": "701000", "centroid": "{\"type\":\"Point\",\"coordinates\":[116.344103810314,39.8919491508]}", "icon": "", "oid": "103:1537436833990", "color": "#4B4040" }, "geometry": { "type": "Point", "coordinates": [ 116.279297, 39.909736 ] } }
{"year": "AD1206",  "type": "Feature", "tippecanoe": { "layer": "2AFCA0EF9DA01583915512292", "minzoom": 2, "maxzoom": 8 }, "properties": { "halo": 0.2, "title": "昭明宫", "fontsize": 12, "tyid": "700000", "centroid": "{\"type\":\"Point\",\"coordinates\":[116.3422194847,39.8851674882]}", "icon": "", "oid": "103:1537436858864", "color": "#4B4040" }, "geometry": { "type": "Point", "coordinates": [ 116.279297, 39.909736 ] } }
{"year": "AD1206",  "type": "Feature", "tippecanoe": { "layer": "2AFCA0EF9DA01583915512292", "minzoom": 2, "maxzoom": 8 }, "properties": { "halo": 0.2, "title": "仁政殿", "fontsize": 12, "tyid": "700000", "centroid": "{\"type\":\"Point\",\"coordinates\":[116.342260482217,39.8840995286]}", "icon": "", "oid": "103:1537436858862", "color": "#4B4040" }, "geometry": { "type": "Point", "coordinates": [ 116.279297, 39.909736 ] } }
{"year": "AD1206",  "type": "Feature", "tippecanoe": { "layer": "2AFCA0EF9DA01583915512292", "minzoom": 2, "maxzoom": 8 }, "properties": { "halo": 0.2, "title": "大安殿", "fontsize": 12, "tyid": "700000", "centroid": "{\"type\":\"Point\",\"coordinates\":[116.342524173576,39.8792957339]}", "icon": "", "oid": "103:1537436858860", "color": "#4B4040" }, "geometry": { "type": "Point", "coordinates": [ 116.279297, 39.909736 ] } }
{"year": "AD1206",  "type": "Feature", "tippecanoe": { "layer": "2AFCA0EF9DA01583915512292", "minzoom": 2, "maxzoom": 8 }, "properties": { "halo": 0.2, "title": "紫金寺", "fontsize": 12, "tyid": "701000", "centroid": "{\"type\":\"Point\",\"coordinates\":[116.354174460123,39.8955068812]}", "icon": "", "oid": "103:1537436833993", "color": "#4B4040" }, "geometry": { "type": "Point", "coordinates": [ 116.279297, 39.909736 ] } }
{"year": "AD1206",  "type": "Feature", "tippecanoe": { "layer": "2AFCA0EF9DA01583915512292", "minzoom": 2, "maxzoom": 8 }, "properties": { "halo": 0.2, "title": "海云寺", "fontsize": 12, "tyid": "701000", "centroid": "{\"type\":\"Point\",\"coordinates\":[116.356029597081,39.89692845055]}", "icon": "", "oid": "103:1537436833997", "color": "#4B4040" }, "geometry": { "type": "Point", "coordinates": [ 116.279297, 39.909736 ] } }
{"year": "AD1206",  "type": "Feature", "tippecanoe": { "layer": "2AFCA0EF9DA01583915512292", "minzoom": 2, "maxzoom": 8 }, "properties": { "halo": 0.2, "title": "圆洪寺", "fontsize": 12, "tyid": "701000", "centroid": "{\"type\":\"Point\",\"coordinates\":[116.357801751692,39.89969660845]}", "icon": "", "oid": "103:1537436833998", "color": "#4B4040" }, "geometry": { "type": "Point", "coordinates": [ 116.279297, 39.909736 ] } }
{"year": "AD1206",  "type": "Feature", "tippecanoe": { "layer": "2AFCA0EF9DA01583915512292", "minzoom": 2, "maxzoom": 8 }, "properties": { "halo": 0.2, "title": "竹林寺", "fontsize": 12, "tyid": "701000", "centroid": "{\"type\":\"Point\",\"coordinates\":[116.356534922465,39.89619861035]}", "icon": "", "oid": "103:1537436833995", "color": "#4B4040" }, "geometry": { "type": "Point", "coordinates": [ 116.279297, 39.909736 ] } }
{"year": "AD1206",  "type": "Feature", "tippecanoe": { "layer": "2AFCA0EF9DA01583915512292", "minzoom": 2, "maxzoom": 8 }, "properties": { "halo": 0.2, "title": "接待寺", "fontsize": 12, "tyid": "701000", "centroid": "{\"type\":\"Point\",\"coordinates\":[116.366794054572,39.89580834905]}", "icon": "", "oid": "103:1537436834000", "color": "#4B4040" }, "geometry": { "type": "Point", "coordinates": [ 116.279297, 39.909736 ] } }
{"year": "AD1206",  "type": "Feature", "tippecanoe": { "layer": "2AFCA0EF9DA01583915512292", "minzoom": 2, "maxzoom": 8 }, "properties": { "halo": 0.2, "title": "归义寺", "fontsize": 12, "tyid": "701000", "centroid": "{\"type\":\"Point\",\"coordinates\":[116.348139156734,39.89162360085]}", "icon": "", "oid": "103:1537436833991", "color": "#4B4040" }, "geometry": { "type": "Point", "coordinates": [ 116.279297, 39.909736 ] } }
{"year": "AD1206",  "type": "Feature", "tippecanoe": { "layer": "2AFCA0EF9DA01583915512292", "minzoom": 2, "maxzoom": 8 }, "properties": { "halo": 0.2, "title": "崇效寺", "fontsize": 12, "tyid": "701000", "centroid": "{\"type\":\"Point\",\"coordinates\":[116.350979631804,39.8802438187]}", "icon": "", "oid": "103:1537436834010", "color": "#4B4040" }, "geometry": { "type": "Point", "coordinates": [ 116.279297, 39.909736 ] } }
{"year": "AD1206",  "type": "Feature", "tippecanoe": { "layer": "2AFCA0EF9DA01583915512292", "minzoom": 2, "maxzoom": 8 }, "properties": { "halo": 0.2, "title": "圣恩寺", "fontsize": 12, "tyid": "701000", "centroid": "{\"type\":\"Point\",\"coordinates\":[116.35799261398,39.88878489395]}", "icon": "", "oid": "103:1537436834005", "color": "#4B4040" }, "geometry": { "type": "Point", "coordinates": [ 116.279297, 39.909736 ] } }
{"year": "AD1206",  "type": "Feature", "tippecanoe": { "layer": "2AFCA0EF9DA01583915512292", "minzoom": 2, "maxzoom": 8 }, "properties": { "halo": 0.2, "title": "玉虚宫", "fontsize": 12, "tyid": "701000", "centroid": "{\"type\":\"Point\",\"coordinates\":[116.362040470547,39.8911054633]}", "icon": "", "oid": "103:1537436834009", "color": "#4B4040" }, "geometry": { "type": "Point", "coordinates": [ 116.279297, 39.909736 ] } }
{"year": "AD1206",  "type": "Feature", "tippecanoe": { "layer": "2AFCA0EF9DA01583915512292", "minzoom": 2, "maxzoom": 8 }, "properties": { "halo": 0.2, "title": "仙露寺", "fontsize": 12, "tyid": "701000", "centroid": "{\"type\":\"Point\",\"coordinates\":[116.361961651242,39.8898473233]}", "icon": "", "oid": "103:1537436834007", "color": "#4B4040" }, "geometry": { "type": "Point", "coordinates": [ 116.279297, 39.909736 ] } }
{"year": "AD1206",  "type": "Feature", "tippecanoe": { "layer": "2AFCA0EF9DA01583915512292", "minzoom": 2, "maxzoom": 8 }, "properties": { "halo": 0.2, "title": "圣安寺", "fontsize": 12, "tyid": "701000", "centroid": "{\"type\":\"Point\",\"coordinates\":[116.358589552654,39.88268585955]}", "icon": "", "oid": "103:1537436834012", "color": "#4B4040" }, "geometry": { "type": "Point", "coordinates": [ 116.279297, 39.909736 ] } }
{"year": "AD1206",  "type": "Feature", "tippecanoe": { "layer": "2AFCA0EF9DA01583915512292", "minzoom": 2, "maxzoom": 8 }, "properties": { "halo": 0.2, "title": "悯忠寺", "fontsize": 12, "tyid": "701000", "centroid": "{\"type\":\"Point\",\"coordinates\":[116.362935765748,39.8837221148]}", "icon": "", "oid": "103:1537436834014", "color": "#4B4040" }, "geometry": { "type": "Point", "coordinates": [ 116.279297, 39.909736 ] } }
{"year": "AD1206",  "type": "Feature", "tippecanoe": { "layer": "2AFCA0EF9DA01583915512292", "minzoom": 2, "maxzoom": 8 }, "properties": { "halo": 0.2, "title": "报恩寺", "fontsize": 12, "tyid": "701000", "centroid": "{\"type\":\"Point\",\"coordinates\":[116.369176041807,39.8942951308]}", "icon": "", "oid": "103:1537436834002", "color": "#4B4040" }, "geometry": { "type": "Point", "coordinates": [ 116.367188, 39.909736 ] } }
{"year": "AD1206",  "type": "Feature", "tippecanoe": { "layer": "2AFCA0EF9DA01583915512292", "minzoom": 2, "maxzoom": 8 }, "properties": { "halo": 0.2, "title": "大万寿寺", "fontsize": 12, "tyid": "701000", "centroid": "{\"type\":\"Point\",\"coordinates\":[116.370882019209,39.89447180575]}", "icon": "", "oid": "103:1537436834003", "color": "#4B4040" }, "geometry": { "type": "Point", "coordinates": [ 116.367188, 39.909736 ] } }
{"year": "AD1206",  "type": "Feature", "tippecanoe": { "layer": "2AFCA0EF9E801583915512293", "minzoom": 2, "maxzoom": 8 }, "properties": { "halo": 1.8, "title": "冰岛自由邦", "fontsize": 12, "tyid": "304000", "oid": "103:1576575137904", "color": "#0056E7" }, "geometry": { "type": "Point", "coordinates": [ -18.632812, 64.997939 ] } }
{"year": "AD1206",  "type": "Feature", "tippecanoe": { "layer": "2AFCA0EF9E801583915512293", "minzoom": 2, "maxzoom": 8 }, "properties": { "halo": 1.8, "title": "苏格兰王国", "fontsize": 12, "tyid": "304000", "oid": "103:1576575138009", "color": "#0056E7" }, "geometry": { "type": "Point", "coordinates": [ -4.042969, 56.704506 ] } }
{"year": "AD1206",  "type": "Feature", "tippecanoe": { "layer": "2AFCA0EF9E801583915512293", "minzoom": 2, "maxzoom": 8 }, "properties": { "halo": 1.8, "title": "康诺特诸王国", "fontsize": 12, "tyid": "304000", "oid": "103:1576575138012", "color": "#0056E7" }, "geometry": { "type": "Point", "coordinates": [ -8.701172, 53.696706 ] } }
{"year": "AD1206",  "type": "Feature", "tippecanoe": { "layer": "2AFCA0EF9E801583915512293", "minzoom": 2, "maxzoom": 8 }, "properties": { "halo": 1.8, "title": "莱昂王国", "fontsize": 12, "tyid": "304000", "oid": "103:1535120137604", "color": "#0056E7" }, "geometry": { "type": "Point", "coordinates": [ -7.119141, 42.747012 ] } }
{"year": "AD1206",  "type": "Feature", "tippecanoe": { "layer": "2AFCA0EF9E801583915512293", "minzoom": 2, "maxzoom": 8 }, "properties": { "halo": 1.8, "title": "卡斯蒂利亚王国", "fontsize": 12, "tyid": "304000", "oid": "103:1535120137599", "color": "#0056E7" }, "geometry": { "type": "Point", "coordinates": [ -3.779297, 41.574361 ] } }
{"year": "AD1206",  "type": "Feature", "tippecanoe": { "layer": "2AFCA0EF9E801583915512293", "minzoom": 2, "maxzoom": 8 }, "properties": { "halo": 1.8, "title": "葡萄牙王国", "fontsize": 12, "tyid": "304000", "oid": "103:1535120137602", "color": "#0056E7" }, "geometry": { "type": "Point", "coordinates": [ -7.998047, 40.178873 ] } }
{"year": "AD1206",  "type": "Feature", "tippecanoe": { "layer": "2AFCA0EF9E801583915512293", "minzoom": 2, "maxzoom": 8 }, "properties": { "halo": 1.8, "title": "塔克鲁尔王国", "fontsize": 12, "tyid": "304000", "oid": "103:1576575137951", "color": "#0056E7" }, "geometry": { "type": "Point", "coordinates": [ -13.974609, 17.140790 ] } }
{"year": "AD1206",  "type": "Feature", "tippecanoe": { "layer": "2AFCA0EF9E801583915512293", "minzoom": 2, "maxzoom": 8 }, "properties": { "halo": 1.8, "title": "曼德人", "fontsize": 12, "tyid": "304000", "oid": "103:1576575137956", "color": "#0056E7" }, "geometry": { "type": "Point", "coordinates": [ -9.052734, 11.609193 ] } }
{"year": "AD1206",  "type": "Feature", "tippecanoe": { "layer": "2AFCA0EF9E801583915512293", "minzoom": 2, "maxzoom": 8 }, "properties": { "halo": 1.8, "title": "加纳帝国", "fontsize": 12, "tyid": "304000", "oid": "103:1576575137953", "color": "#0056E7" }, "geometry": { "type": "Point", "coordinates": [ -5.800781, 16.383391 ] } }
{"year": "AD1206",  "type": "Feature", "tippecanoe": { "layer": "2AFCA0EF9E801583915512293", "minzoom": 2, "maxzoom": 8 }, "properties": { "halo": 1.6, "title": "莫西人诸国", "fontsize": 12, "tyid": "304002", "oid": "103:1582720894989", "color": "#0056E7" }, "geometry": { "type": "Point", "coordinates": [ -2.812500, 14.093957 ] } }
{"year": "AD1206",  "type": "Feature", "tippecanoe": { "layer": "2AFCA0EF9E801583915512293", "minzoom": 2, "maxzoom": 8 }, "properties": { "halo": 1.8, "title": "加奥帝国", "fontsize": 12, "tyid": "304000", "oid": "103:1576575137955", "color": "#0056E7" }, "geometry": { "type": "Point", "coordinates": [ -0.615234, 16.299051 ] } }
{"year": "AD1206",  "type": "Feature", "tippecanoe": { "layer": "2AFCA0EF9E801583915512293", "minzoom": 2, "maxzoom": 8 }, "properties": { "halo": 1.8, "title": "丹麦王国[维京时期]", "fontsize": 12, "tyid": "304000", "oid": "103:1576575138028", "color": "#0056E7" }, "geometry": { "type": "Point", "coordinates": [ 9.228516, 56.022948 ] } }
{"year": "AD1206",  "type": "Feature", "tippecanoe": { "layer": "2AFCA0EF9E801583915512293", "minzoom": 2, "maxzoom": 8 }, "properties": { "halo": 1.8, "title": "佛兰德斯伯国", "fontsize": 12, "tyid": "304000", "oid": "103:1576575138003", "color": "#0056E7" }, "geometry": { "type": "Point", "coordinates": [ 3.076172, 50.625073 ] } }
{"year": "AD1206",  "type": "Feature", "tippecanoe": { "layer": "2AFCA0EF9E801583915512293", "minzoom": 2, "maxzoom": 8 }, "properties": { "halo": 1.6, "title": "弗里斯兰伯国", "fontsize": 12, "tyid": "304002", "oid": "103:1576575138073", "color": "#0056E7" }, "geometry": { "type": "Point", "coordinates": [ 6.767578, 53.120405 ] } }
{"year": "AD1206",  "type": "Feature", "tippecanoe": { "layer": "2AFCA0EF9E801583915512293", "minzoom": 2, "maxzoom": 8 }, "properties": { "halo": 1.8, "title": "布卢瓦伯国", "fontsize": 12, "tyid": "304000", "oid": "103:1576575138066", "color": "#0056E7" }, "geometry": { "type": "Point", "coordinates": [ 4.130859, 48.690960 ] } }
{"year": "AD1206",  "type": "Feature", "tippecanoe": { "layer": "2AFCA0EF9E801583915512293", "minzoom": 2, "maxzoom": 8 }, "properties": { "halo": 1.8, "title": "法兰西王国", "fontsize": 12, "tyid": "304000", "oid": "103:1576575138006", "color": "#0056E7" }, "geometry": { "type": "Point", "coordinates": [ 3.164062, 47.279229 ] } }
{"year": "AD1206",  "type": "Feature", "tippecanoe": { "layer": "2AFCA0EF9E801583915512293", "minzoom": 2, "maxzoom": 8 }, "properties": { "halo": 1.8, "title": "图卢兹伯国", "fontsize": 12, "tyid": "304000", "oid": "103:1535120137592", "color": "#0056E7" }, "geometry": { "type": "Point", "coordinates": [ 2.021484, 43.707594 ] } }
{"year": "AD1206",  "type": "Feature", "tippecanoe": { "layer": "2AFCA0EF9E801583915512293", "minzoom": 2, "maxzoom": 8 }, "properties": { "halo": 1.8, "title": "阿拉贡联合王国", "fontsize": 12, "tyid": "304000", "oid": "103:1535120137594", "color": "#0056E7" }, "geometry": { "type": "Point", "coordinates": [ 0.263672, 41.771312 ] } }
{"year": "AD1206",  "type": "Feature", "tippecanoe": { "layer": "2AFCA0EF9E801583915512293", "minzoom": 2, "maxzoom": 8 }, "properties": { "halo": 1.8, "title": "波美拉尼亚公国", "fontsize": 12, "tyid": "304000", "oid": "103:1576575138069", "color": "#0056E7" }, "geometry": { "type": "Point", "coordinates": [ 14.765625, 53.383328 ] } }
{"year": "AD1206",  "type": "Feature", "tippecanoe": { "layer": "2AFCA0EF9E801583915512293", "minzoom": 2, "maxzoom": 8 }, "properties": { "halo": 1.8, "title": "大波兰公国", "fontsize": 12, "tyid": "304000", "oid": "103:1576575137994", "color": "#0056E7" }, "geometry": { "type": "Point", "coordinates": [ 16.787109, 52.160455 ] } }
{"year": "AD1206",  "type": "Feature", "tippecanoe": { "layer": "2AFCA0EF9E801583915512293", "minzoom": 2, "maxzoom": 8 }, "properties": { "halo": 1.8, "title": "西里西亚公国", "fontsize": 12, "tyid": "304000", "oid": "103:1576575137989", "color": "#0056E7" }, "geometry": { "type": "Point", "coordinates": [ 16.435547, 50.903033 ] } }
{"year": "AD1206",  "type": "Feature", "tippecanoe": { "layer": "2AFCA0EF9E801583915512293", "minzoom": 2, "maxzoom": 8 }, "properties": { "halo": 1.8, "title": "波西米亚王国", "fontsize": 12, "tyid": "304000", "oid": "103:1576575137988", "color": "#0056E7" }, "geometry": { "type": "Point", "coordinates": [ 14.326172, 49.837982 ] } }
{"year": "AD1206",  "type": "Feature", "tippecanoe": { "layer": "2AFCA0EF9E801583915512293", "minzoom": 2, "maxzoom": 8 }, "properties": { "halo": 1.8, "title": "摩拉维亚侯国", "fontsize": 12, "tyid": "304000", "oid": "103:1576575137986", "color": "#0056E7" }, "geometry": { "type": "Point", "coordinates": [ 16.699219, 49.325122 ] } }
{"year": "AD1206",  "type": "Feature", "tippecanoe": { "layer": "2AFCA0EF9E801583915512293", "minzoom": 2, "maxzoom": 8 }, "properties": { "halo": 1.8, "title": "马佐维亚公国", "fontsize": 12, "tyid": "304000", "oid": "103:1576575137992", "color": "#0056E7" }, "geometry": { "type": "Point", "coordinates": [ 20.478516, 52.696361 ] } }
{"year": "AD1206",  "type": "Feature", "tippecanoe": { "layer": "2AFCA0EF9E801583915512293", "minzoom": 2, "maxzoom": 8 }, "properties": { "halo": 1.8, "title": "桑多梅日公国", "fontsize": 12, "tyid": "304000", "oid": "103:1576575137991", "color": "#0056E7" }, "geometry": { "type": "Point", "coordinates": [ 20.742188, 50.847573 ] } }
{"year": "AD1206",  "type": "Feature", "tippecanoe": { "layer": "2AFCA0EF9E801583915512293", "minzoom": 2, "maxzoom": 8 }, "properties": { "halo": 1.8, "title": "教皇国", "fontsize": 12, "tyid": "304000", "oid": "103:1535120137560", "color": "#0056E7" }, "geometry": { "type": "Point", "coordinates": [ 12.304688, 42.553080 ] } }
{"year": "AD1206",  "type": "Feature", "tippecanoe": { "layer": "2AFCA0EF9E801583915512293", "minzoom": 2, "maxzoom": 8 }, "properties": { "halo": 1.6, "title": "塞尔维亚大公国", "fontsize": 12, "tyid": "304002", "oid": "103:1535120137558", "color": "#0056E7" }, "geometry": { "type": "Point", "coordinates": [ 19.335938, 43.197167 ] } }
{"year": "AD1206",  "type": "Feature", "tippecanoe": { "layer": "2AFCA0EF9E801583915512293", "minzoom": 2, "maxzoom": 8 }, "properties": { "halo": 1.6, "title": "利沃尼亚人", "fontsize": 12, "tyid": "304002", "oid": "103:1576575138083", "color": "#0056E7" }, "geometry": { "type": "Point", "coordinates": [ 23.203125, 56.897004 ] } }
{"year": "AD1206",  "type": "Feature", "tippecanoe": { "layer": "2AFCA0EF9E801583915512293", "minzoom": 2, "maxzoom": 8 }, "properties": { "halo": 1.8, "title": "古爱沙尼亚人", "fontsize": 12, "tyid": "304000", "oid": "103:1576575137864", "color": "#0056E7" }, "geometry": { "type": "Point", "coordinates": [ 25.488281, 58.539595 ] } }
{"year": "AD1206",  "type": "Feature", "tippecanoe": { "layer": "2AFCA0EF9E801583915512293", "minzoom": 2, "maxzoom": 8 }, "properties": { "halo": 1.8, "title": "叶尔西卡公国", "fontsize": 12, "tyid": "304000", "oid": "103:1576575137979", "color": "#0056E7" }, "geometry": { "type": "Point", "coordinates": [ 26.806641, 56.511018 ] } }
{"year": "AD1206",  "type": "Feature", "tippecanoe": { "layer": "2AFCA0EF9E801583915512293", "minzoom": 2, "maxzoom": 8 }, "properties": { "halo": 1.8, "title": "立陶宛人", "fontsize": 12, "tyid": "304000", "oid": "103:1576575137980", "color": "#0056E7" }, "geometry": { "type": "Point", "coordinates": [ 25.048828, 54.724620 ] } }
{"year": "AD1206",  "type": "Feature", "tippecanoe": { "layer": "2AFCA0EF9E801583915512293", "minzoom": 2, "maxzoom": 8 },