{ "type": "Feature", "tippecanoe": { "layer": "2B8C41D324381565246322523", "minzoom": 2, "maxzoom": 10 }, "properties": { "color": "#202020", "title": "群岛王国", "halo": 0.8, "fontsize": 12, "oid": "103:1535120138878", "tyid": "304000" }, "geometry": { "type": "Point", "coordinates": [ -6.591797, 58.263287 ] } }
{ "type": "Feature", "tippecanoe": { "layer": "2B8C41D324381565246322523", "minzoom": 2, "maxzoom": 10 }, "properties": { "color": "#202020", "title": "埃里克王国", "halo": 0.8, "fontsize": 12, "oid": "103:1537435953422", "tyid": "304000" }, "geometry": { "type": "Point", "coordinates": [ -7.470703, 54.775346 ] } }
{ "type": "Feature", "tippecanoe": { "layer": "2B8C41D324381565246322523", "minzoom": 2, "maxzoom": 10 }, "properties": { "color": "#666666", "title": "都柏林", "oid": "103:1562760089430", "icon": "admin-2", "fontsize": 12, "halo": 1.2, "tyid": "303001", "offset": "[0,1.3]" }, "geometry": { "type": "Point", "coordinates": [ -6.328125, 53.383328 ] } }
{ "type": "Feature", "tippecanoe": { "layer": "2B8C41D324381565246322523", "minzoom": 2, "maxzoom": 10 }, "properties": { "color": "#202020", "title": "纳瓦拉王国", "halo": 0.8, "fontsize": 12, "oid": "103:1535120138831", "tyid": "304000" }, "geometry": { "type": "Point", "coordinates": [ -2.109375, 42.940339 ] } }
{ "type": "Feature", "tippecanoe": { "layer": "2B8C41D324381565246322523", "minzoom": 2, "maxzoom": 10 }, "properties": { "color": "#202020", "title": "荷兰伯国", "halo": 0.8, "fontsize": 12, "oid": "103:1535120138876", "tyid": "304000" }, "geometry": { "type": "Point", "coordinates": [ 4.658203, 52.052490 ] } }
{ "type": "Feature", "tippecanoe": { "layer": "2B8C41D324381565246322523", "minzoom": 2, "maxzoom": 10 }, "properties": { "color": "#666666", "title": "布鲁塞尔", "oid": "103:1562760089421", "icon": "admin-2", "fontsize": 12, "halo": 1.2, "tyid": "303001", "offset": "[0,1.3]" }, "geometry": { "type": "Point", "coordinates": [ 4.306641, 50.903033 ] } }
{ "type": "Feature", "tippecanoe": { "layer": "2B8C41D324381565246322523", "minzoom": 2, "maxzoom": 10 }, "properties": { "color": "#202020", "title": "布拉班特公国", "halo": 0.8, "fontsize": 12, "oid": "103:1535120138838", "tyid": "304000" }, "geometry": { "type": "Point", "coordinates": [ 4.746094, 51.069017 ] } }
{ "type": "Feature", "tippecanoe": { "layer": "2B8C41D324381565246322523", "minzoom": 2, "maxzoom": 10 }, "properties": { "color": "#666666", "title": "科隆", "oid": "103:1537436003399", "icon": "admin-2", "fontsize": 12, "halo": 1.2, "tyid": "303001", "offset": "[0,1.3]" }, "geometry": { "type": "Point", "coordinates": [ 6.943359, 50.958427 ] } }
{ "type": "Feature", "tippecanoe": { "layer": "2B8C41D324381565246322523", "minzoom": 2, "maxzoom": 10 }, "properties": { "color": "#666666", "title": "第戎", "oid": "103:1537436003778", "icon": "admin-2", "fontsize": 12, "halo": 1.2, "tyid": "303001", "offset": "[0,1.3]" }, "geometry": { "type": "Point", "coordinates": [ 5.009766, 47.338823 ] } }
{ "type": "Feature", "tippecanoe": { "layer": "2B8C41D324381565246322523", "minzoom": 2, "maxzoom": 10 }, "properties": { "color": "#202020", "title": "普罗旺斯伯国", "halo": 0.8, "fontsize": 12, "oid": "103:1535120138928", "tyid": "304000" }, "geometry": { "type": "Point", "coordinates": [ 6.064453, 43.516689 ] } }
{ "type": "Feature", "tippecanoe": { "layer": "2B8C41D324381565246322523", "minzoom": 2, "maxzoom": 10 }, "properties": { "color": "#202020", "title": "热那亚共和国", "halo": 0.8, "fontsize": 12, "oid": "103:1535120138926", "tyid": "304000" }, "geometry": { "type": "Point", "coordinates": [ 7.822266, 44.087585 ] } }
{ "type": "Feature", "tippecanoe": { "layer": "2B8C41D324381565246322523", "minzoom": 2, "maxzoom": 10 }, "properties": { "color": "#666666", "title": "热那亚", "oid": "103:1562760089827", "icon": "admin-2", "fontsize": 12, "halo": 1.2, "tyid": "303001", "offset": "[0,1.3]" }, "geometry": { "type": "Point", "coordinates": [ 8.876953, 44.465151 ] } }
{ "type": "Feature", "tippecanoe": { "layer": "2B8C41D324381565246322523", "minzoom": 2, "maxzoom": 10 }, "properties": { "color": "#202020", "title": "比萨共和国", "halo": 0.8, "fontsize": 12, "oid": "103:1535120138869", "tyid": "304000" }, "geometry": { "type": "Point", "coordinates": [ 9.052734, 42.358544 ] } }
{ "type": "Feature", "tippecanoe": { "layer": "2B8C41D324381565246322523", "minzoom": 2, "maxzoom": 10 }, "properties": { "color": "#202020", "title": "吕根亲王国", "halo": 0.8, "fontsize": 12, "oid": "103:1537435953457", "tyid": "304000" }, "geometry": { "type": "Point", "coordinates": [ 12.832031, 54.110943 ] } }
{ "type": "Feature", "tippecanoe": { "layer": "2B8C41D324381565246322523", "minzoom": 2, "maxzoom": 10 }, "properties": { "color": "#202020", "title": "东波美拉利亚公国", "halo": 0.8, "fontsize": 12, "oid": "103:1537435953414", "tyid": "304000" }, "geometry": { "type": "Point", "coordinates": [ 18.281250, 54.059388 ] } }
{ "type": "Feature", "tippecanoe": { "layer": "2B8C41D324381565246322523", "minzoom": 2, "maxzoom": 10 }, "properties": { "color": "#202020", "title": "克拉科夫公国", "halo": 0.8, "fontsize": 12, "oid": "103:1535120138808", "tyid": "304000" }, "geometry": { "type": "Point", "coordinates": [ 18.720703, 49.553726 ] } }
{ "type": "Feature", "tippecanoe": { "layer": "2B8C41D324381565246322523", "minzoom": 2, "maxzoom": 10 }, "properties": { "color": "#666666", "title": "威尼斯", "oid": "103:1562760089816", "icon": "admin-2", "fontsize": 12, "halo": 1.2, "tyid": "303001", "offset": "[0,1.3]" }, "geometry": { "type": "Point", "coordinates": [ 12.304688, 45.460131 ] } }
{ "type": "Feature", "tippecanoe": { "layer": "2B8C41D324381565246322523", "minzoom": 2, "maxzoom": 10 }, "properties": { "color": "#666666", "title": "维也纳", "oid": "103:1562760089771", "icon": "admin-2", "fontsize": 12, "halo": 1.2, "tyid": "303001", "offset": "[0,1.3]" }, "geometry": { "type": "Point", "coordinates": [ 16.347656, 48.224673 ] } }
{ "type": "Feature", "tippecanoe": { "layer": "2B8C41D324381565246322523", "minzoom": 2, "maxzoom": 10 }, "properties": { "color": "#202020", "title": "威尼斯共和国", "halo": 0.8, "fontsize": 12, "oid": "103:1535120138872", "tyid": "304000" }, "geometry": { "type": "Point", "coordinates": [ 13.798828, 45.089036 ] } }
{ "type": "Feature", "tippecanoe": { "layer": "2B8C41D324381565246322523", "minzoom": 2, "maxzoom": 10 }, "properties": { "color": "#666666", "title": "罗马", "oid": "103:1537436003760", "icon": "admin-2", "fontsize": 12, "halo": 1.2, "tyid": "303001", "offset": "[0,1.3]" }, "geometry": { "type": "Point", "coordinates": [ 12.480469, 41.902277 ] } }
{ "type": "Feature", "tippecanoe": { "layer": "2B8C41D324381565246322523", "minzoom": 2, "maxzoom": 10 }, "properties": { "color": "#202020", "title": "波斯尼亚班内特国", "halo": 0.8, "fontsize": 12, "oid": "103:1537435953364", "tyid": "304000" }, "geometry": { "type": "Point", "coordinates": [ 17.841797, 44.087585 ] } }
{ "type": "Feature", "tippecanoe": { "layer": "2B8C41D324381565246322523", "minzoom": 2, "maxzoom": 10 }, "properties": { "color": "#262626", "title": "克里米亚哥特人", "halo": 0.8, "fontsize": 12, "oid": "103:1535120138964", "tyid": "304002" }, "geometry": { "type": "Point", "coordinates": [ 33.925781, 45.521744 ] } }
{ "type": "Feature", "tippecanoe": { "layer": "2B8C41D324381565246322523", "minzoom": 2, "maxzoom": 10 }, "properties": { "color": "#202020", "title": "哈尼亚酋长国", "halo": 0.8, "fontsize": 12, "oid": "103:1537435953201", "tyid": "304000" }, "geometry": { "type": "Point", "coordinates": [ 2.812500, 39.571822 ] } }
{ "type": "Feature", "tippecanoe": { "layer": "2B8C41D324381565246322523", "minzoom": 2, "maxzoom": 10 }, "properties": { "color": "#202020", "title": "阿波利亚土著王国", "halo": 0.8, "fontsize": 12, "oid": "103:1537435953416", "tyid": "304000" }, "geometry": { "type": "Point", "coordinates": [ 8.789062, 39.909736 ] } }
{ "type": "Feature", "tippecanoe": { "layer": "2B8C41D324381565246322523", "minzoom": 2, "maxzoom": 10 }, "properties": { "color": "#202020", "title": "卡利亚里土著王国", "halo": 0.8, "fontsize": 12, "oid": "103:1537435953205", "tyid": "304000" }, "geometry": { "type": "Point", "coordinates": [ 9.052734, 39.436193 ] } }
{ "type": "Feature", "tippecanoe": { "layer": "2B8C41D324381565246322523", "minzoom": 2, "maxzoom": 10 }, "properties": { "color": "#202020", "title": "塞浦路斯王国", "halo": 0.8, "fontsize": 12, "oid": "103:1535120138647", "tyid": "304000" }, "geometry": { "type": "Point", "coordinates": [ 33.134766, 35.101934 ] } }
{ "type": "Feature", "tippecanoe": { "layer": "2B8C41D324381565246322523", "minzoom": 2, "maxzoom": 10 }, "properties": { "color": "#202020", "title": "安条克公国", "halo": 0.8, "fontsize": 12, "oid": "103:1535120138731", "tyid": "304000" }, "geometry": { "type": "Point", "coordinates": [ 36.298828, 36.385913 ] } }
{ "type": "Feature", "tippecanoe": { "layer": "2B8C41D324381565246322523", "minzoom": 2, "maxzoom": 10 }, "properties": { "color": "#202020", "title": "的黎波里伯国", "halo": 0.8, "fontsize": 12, "oid": "103:1535120138733", "tyid": "304000" }, "geometry": { "type": "Point", "coordinates": [ 36.298828, 35.389050 ] } }
{ "type": "Feature", "tippecanoe": { "layer": "2B8C41D324381565246322523", "minzoom": 2, "maxzoom": 10 }, "properties": { "color": "#202020", "title": "耶路撒冷拉丁王国", "halo": 0.8, "fontsize": 12, "oid": "103:1537435953484", "tyid": "304000" }, "geometry": { "type": "Point", "coordinates": [ 35.156250, 33.063924 ] } }
{ "type": "Feature", "tippecanoe": { "layer": "2B8C41D324381565246322523", "minzoom": 2, "maxzoom": 10 }, "properties": { "color": "#202020", "title": "萨尔图克贝伊国", "halo": 0.8, "fontsize": 12, "oid": "103:1537435953285", "tyid": "304000" }, "geometry": { "type": "Point", "coordinates": [ 40.605469, 40.111689 ] } }
{ "type": "Feature", "tippecanoe": { "layer": "2B8C41D324381565246322523", "minzoom": 2, "maxzoom": 10 }, "properties": { "color": "#666666", "title": "巴库", "oid": "103:1562760089408", "icon": "admin-2", "fontsize": 12, "halo": 1.2, "tyid": "303001", "offset": "[0,1.3]" }, "geometry": { "type": "Point", "coordinates": [ 49.833984, 40.446947 ] } }
{ "type": "Feature", "tippecanoe": { "layer": "2B8C41D324381565246322523", "minzoom": 2, "maxzoom": 10 }, "properties": { "color": "#666666", "title": "雷伊", "oid": "103:1562760089751", "icon": "admin-2", "fontsize": 12, "halo": 1.2, "tyid": "303001", "offset": "[0,1.3]" }, "geometry": { "type": "Point", "coordinates": [ 51.328125, 35.746512 ] } }
{ "type": "Feature", "tippecanoe": { "layer": "2B8C41D324381565246322523", "minzoom": 2, "maxzoom": 10 }, "properties": { "color": "#202020", "title": "果阿的卡丹巴王朝", "halo": 0.8, "fontsize": 12, "oid": "103:1535120138681", "tyid": "304000" }, "geometry": { "type": "Point", "coordinates": [ 74.179688, 15.368950 ] } }
{ "type": "Feature", "tippecanoe": { "layer": "2B8C41D324381565246322523", "minzoom": 2, "maxzoom": 10 }, "properties": { "color": "#333333", "title": "西京路", "halo": 1.4, "fontsize": 14, "oid": "103:1535120133722", "tyid": "304003" }, "geometry": { "type": "Point", "coordinates": [ 113.554688, 41.046217 ] } }
{ "type": "Feature", "tippecanoe": { "layer": "2B8C41D324381565246322523", "minzoom": 2, "maxzoom": 10 }, "properties": { "color": "#333333", "title": "北京路", "halo": 1.4, "fontsize": 14, "oid": "103:1535120133720", "tyid": "304003" }, "geometry": { "type": "Point", "coordinates": [ 120.146484, 43.897892 ] } }
{ "type": "Feature", "tippecanoe": { "layer": "2B8C41D324381565246322523", "minzoom": 2, "maxzoom": 10 }, "properties": { "color": "#333333", "title": "上京路", "halo": 1.4, "fontsize": 14, "oid": "103:1535120133716", "tyid": "304003" }, "geometry": { "type": "Point", "coordinates": [ 131.835938, 50.345460 ] } }
{ "type": "Feature", "tippecanoe": { "layer": "2B8C41D324381565246322523", "minzoom": 2, "maxzoom": 10 }, "properties": { "color": "#333333", "title": "咸平路", "halo": 1.4, "fontsize": 14, "oid": "103:1535120133740", "tyid": "304003" }, "geometry": { "type": "Point", "coordinates": [ 124.365234, 43.004647 ] } }
{ "type": "Feature", "tippecanoe": { "layer": "2B8C41D324381565246322523", "minzoom": 2, "maxzoom": 10 }, "properties": { "color": "#333333", "title": "东京路", "halo": 1.4, "fontsize": 14, "oid": "103:1535120133718", "tyid": "304003" }, "geometry": { "type": "Point", "coordinates": [ 124.189453, 41.244772 ] } }
{ "type": "Feature", "tippecanoe": { "layer": "2B8C41D324381565246322523", "minzoom": 2, "maxzoom": 10 }, "properties": { "color": "#333333", "title": "临洮路", "halo": 1.4, "fontsize": 14, "oid": "103:1535120133742", "tyid": "304003" }, "geometry": { "type": "Point", "coordinates": [ 103.710938, 35.245619 ] } }
{ "type": "Feature", "tippecanoe": { "layer": "2B8C41D324381565246322523", "minzoom": 2, "maxzoom": 10 }, "properties": { "color": "#333333", "title": "凤翔府路", "halo": 1.4, "fontsize": 14, "oid": "103:1535120133735", "tyid": "304003" }, "geometry": { "type": "Point", "coordinates": [ 106.435547, 35.173808 ] } }
{ "type": "Feature", "tippecanoe": { "layer": "2B8C41D324381565246322523", "minzoom": 2, "maxzoom": 10 }, "properties": { "color": "#333333", "title": "利州路", "halo": 1.4, "fontsize": 14, "oid": "103:1535120133772", "tyid": "304003" }, "geometry": { "type": "Point", "coordinates": [ 106.435547, 32.990236 ] } }
{ "type": "Feature", "tippecanoe": { "layer": "2B8C41D324381565246322523", "minzoom": 2, "maxzoom": 10 }, "properties": { "color": "#333333", "title": "河东北路", "halo": 1.4, "fontsize": 14, "oid": "103:1535120133727", "tyid": "304003" }, "geometry": { "type": "Point", "coordinates": [ 111.884766, 37.788081 ] } }
{ "type": "Feature", "tippecanoe": { "layer": "2B8C41D324381565246322523", "minzoom": 2, "maxzoom": 10 }, "properties": { "color": "#333333", "title": "庆原路", "halo": 1.4, "fontsize": 14, "oid": "103:1535120133738", "tyid": "304003" }, "geometry": { "type": "Point", "coordinates": [ 107.578125, 35.960223 ] } }
{ "type": "Feature", "tippecanoe": { "layer": "2B8C41D324381565246322523", "minzoom": 2, "maxzoom": 10 }, "properties": { "color": "#333333", "title": "延安府路", "halo": 1.4, "fontsize": 14, "oid": "103:1535120133736", "tyid": "304003" }, "geometry": { "type": "Point", "coordinates": [ 109.423828, 36.597889 ] } }
{ "type": "Feature", "tippecanoe": { "layer": "2B8C41D324381565246322523", "minzoom": 2, "maxzoom": 10 }, "properties": { "color": "#333333", "title": "河东南路", "halo": 1.4, "fontsize": 14, "oid": "103:1535120133729", "tyid": "304003" }, "geometry": { "type": "Point", "coordinates": [ 112.060547, 36.031332 ] } }
{ "type": "Feature", "tippecanoe": { "layer": "2B8C41D324381565246322523", "minzoom": 2, "maxzoom": 10 }, "properties": { "color": "#333333", "title": "京兆府路", "halo": 1.4, "fontsize": 14, "oid": "103:1535120133733", "tyid": "304003" }, "geometry": { "type": "Point", "coordinates": [ 109.775391, 34.234512 ] } }
{ "type": "Feature", "tippecanoe": { "layer": "2B8C41D324381565246322523", "minzoom": 2, "maxzoom": 10 }, "properties": { "color": "#333333", "title": "京西南路", "halo": 1.4, "fontsize": 14, "oid": "103:1535120133760", "tyid": "304003" }, "geometry": { "type": "Point", "coordinates": [ 111.533203, 32.026706 ] } }
{ "type": "Feature", "tippecanoe": { "layer": "2B8C41D324381565246322523", "minzoom": 2, "maxzoom": 10 }, "properties": { "color": "#333333", "title": "成都府路", "halo": 1.4, "fontsize": 14, "oid": "103:1535120133778", "tyid": "304003" }, "geometry": { "type": "Point", "coordinates": [ 103.447266, 30.372875 ] } }
{ "type": "Feature", "tippecanoe": { "layer": "2B8C41D324381565246322523", "minzoom": 2, "maxzoom": 10 }, "properties": { "color": "#333333", "title": "潼川府路", "halo": 1.4, "fontsize": 14, "oid": "103:1535120133774", "tyid": "304003" }, "geometry": { "type": "Point", "coordinates": [ 105.029297, 28.613459 ] } }
{ "type": "Feature", "tippecanoe": { "layer": "2B8C41D324381565246322523", "minzoom": 2, "maxzoom": 10 }, "properties": { "color": "#333333", "title": "夔州路", "halo": 1.4, "fontsize": 14, "oid": "103:1535120133776", "tyid": "304003" }, "geometry": { "type": "Point", "coordinates": [ 108.017578, 28.844674 ] } }
{ "type": "Feature", "tippecanoe": { "layer": "2B8C41D324381565246322523", "minzoom": 2, "maxzoom": 10 }, "properties": { "color": "#333333", "title": "荆湖北路", "halo": 1.4, "fontsize": 14, "oid": "103:1535120133762", "tyid": "304003" }, "geometry": { "type": "Point", "coordinates": [ 111.621094, 29.382175 ] } }
{ "type": "Feature", "tippecanoe": { "layer": "2B8C41D324381565246322523", "minzoom": 2, "maxzoom": 10 }, "properties": { "color": "#333333", "title": "广南西路", "halo": 1.4, "fontsize": 14, "oid": "103:1535120133771", "tyid": "304003" }, "geometry": { "type": "Point", "coordinates": [ 108.457031, 23.725012 ] } }
{ "type": "Feature", "tippecanoe": { "layer": "2B8C41D324381565246322523", "minzoom": 2, "maxzoom": 10 }, "properties": { "color": "#333333", "title": "荆湖南路", "halo": 1.4, "fontsize": 14, "oid": "103:1535120133765", "tyid": "304003" }, "geometry": { "type": "Point", "coordinates": [ 112.148438, 26.902477 ] } }
{ "type": "Feature", "tippecanoe": { "layer": "2B8C41D324381565246322523", "minzoom": 2, "maxzoom": 10 }, "properties": { "color": "#333333", "title": "河北西路", "halo": 1.4, "fontsize": 14, "oid": "103:1535120133725", "tyid": "304003" }, "geometry": { "type": "Point", "coordinates": [ 114.433594, 37.230328 ] } }
{ "type": "Feature", "tippecanoe": { "layer": "2B8C41D324381565246322523", "minzoom": 2, "maxzoom": 10 }, "properties": { "color": "#333333", "title": "中都路", "halo": 1.4, "fontsize": 14, "oid": "103:1535120133724", "tyid": "304003" }, "geometry": { "type": "Point", "coordinates": [ 117.246094, 40.044438 ] } }
{ "type": "Feature", "tippecanoe": { "layer": "2B8C41D324381565246322523", "minzoom": 2, "maxzoom": 10 }, "properties": { "color": "#333333", "title": "河北东路", "halo": 1.4, "fontsize": 14, "oid": "103:1535120133743", "tyid": "304003" }, "geometry": { "type": "Point", "coordinates": [ 116.542969, 38.065392 ] } }
{ "type": "Feature", "tippecanoe": { "layer": "2B8C41D324381565246322523", "minzoom": 2, "maxzoom": 10 }, "properties": { "color": "#333333", "title": "南京路", "halo": 1.4, "fontsize": 14, "oid": "103:1535120133749", "tyid": "304003" }, "geometry": { "type": "Point", "coordinates": [ 114.345703, 33.724340 ] } }
{ "type": "Feature", "tippecanoe": { "layer": "2B8C41D324381565246322523", "minzoom": 2, "maxzoom": 10 }, "properties": { "color": "#333333", "title": "大名府路", "halo": 1.4, "fontsize": 14, "oid": "103:1535120133731", "tyid": "304003" }, "geometry": { "type": "Point", "coordinates": [ 115.488281, 36.385913 ] } }
{ "type": "Feature", "tippecanoe": { "layer": "2B8C41D324381565246322523", "minzoom": 2, "maxzoom": 10 }, "properties": { "color": "#333333", "title": "山东西路", "halo": 1.4, "fontsize": 14, "oid": "103:1535120133747", "tyid": "304003" }, "geometry": { "type": "Point", "coordinates": [ 116.806641, 35.460670 ] } }
{ "type": "Feature", "tippecanoe": { "layer": "2B8C41D324381565246322523", "minzoom": 2, "maxzoom": 10 }, "properties": { "color": "#333333", "title": "山东东路", "halo": 1.4, "fontsize": 14, "oid": "103:1535120133745", "tyid": "304003" }, "geometry": { "type": "Point", "coordinates": [ 119.003906, 36.385913 ] } }
{ "type": "Feature", "tippecanoe": { "layer": "2B8C41D324381565246322523", "minzoom": 2, "maxzoom": 10 }, "properties": { "color": "#333333", "title": "淮南东路", "halo": 1.4, "fontsize": 14, "oid": "103:1535120133751", "tyid": "304003" }, "geometry": { "type": "Point", "coordinates": [ 119.531250, 32.842674 ] } }
{ "type": "Feature", "tippecanoe": { "layer": "2B8C41D324381565246322523", "minzoom": 2, "maxzoom": 10 }, "properties": { "color": "#333333", "title": "江南西路", "halo": 1.4, "fontsize": 14, "oid": "103:1535120133758", "tyid": "304003" }, "geometry": { "type": "Point", "coordinates": [ 115.224609, 27.449790 ] } }
{ "type": "Feature", "tippecanoe": { "layer": "2B8C41D324381565246322523", "minzoom": 2, "maxzoom": 10 }, "properties": { "color": "#333333", "title": "淮南西路", "halo": 1.4, "fontsize": 14, "oid": "103:1535120133763", "tyid": "304003" }, "geometry": { "type": "Point", "coordinates": [ 116.279297, 31.503629 ] } }
{ "type": "Feature", "tippecanoe": { "layer": "2B8C41D324381565246322523", "minzoom": 2, "maxzoom": 10 }, "properties": { "color": "#333333", "title": "江南东路", "halo": 1.4, "fontsize": 14, "oid": "103:1535120133756", "tyid": "304003" }, "geometry": { "type": "Point", "coordinates": [ 117.773438, 29.916852 ] } }
{ "type": "Feature", "tippecanoe": { "layer": "2B8C41D324381565246322523", "minzoom": 2, "maxzoom": 10 }, "properties": { "color": "#333333", "title": "广南东路", "halo": 1.4, "fontsize": 14, "oid": "103:1535120133769", "tyid": "304003" }, "geometry": { "type": "Point", "coordinates": [ 113.818359, 23.885838 ] } }
{ "type": "Feature", "tippecanoe": { "layer": "2B8C41D324381565246322523", "minzoom": 2, "maxzoom": 10 }, "properties": { "color": "#333333", "title": "福建路", "halo": 1.4, "fontsize": 14, "oid": "103:1535120133767", "tyid": "304003" }, "geometry": { "type": "Point", "coordinates": [ 117.949219, 26.115986 ] } }
{ "type": "Feature", "tippecanoe": { "layer": "2B8C41D324381565246322523", "minzoom": 2, "maxzoom": 10 }, "properties": { "color": "#333333", "title": "浙西路", "halo": 1.4, "fontsize": 14, "oid": "103:1535120133754", "tyid": "304003" }, "geometry": { "type": "Point", "coordinates": [ 120.058594, 30.826781 ] } }
{ "type": "Feature", "tippecanoe": { "layer": "2B8C41D324381565246322523", "minzoom": 2, "maxzoom": 10 }, "properties": { "color": "#333333", "title": "浙东路", "halo": 1.4, "fontsize": 14, "oid": "103:1535120133752", "tyid": "304003" }, "geometry": { "type": "Point", "coordinates": [ 120.146484, 28.844674 ] } }
{ "type": "Feature", "tippecanoe": { "layer": "2B8C41D327481565246322524", "minzoom": 2, "maxzoom": 10 }, "properties": { "color": "#0056E7", "title": "格拉斯哥", "oid": "103:1562760082287", "icon": "admin-3", "fontsize": 11, "halo": 1, "tyid": "303002", "offset": "[0,1.3]" }, "geometry": { "type": "Point", "coordinates": [ -4.306641, 55.875311 ] } }
{ "type": "Feature", "tippecanoe": { "layer": "2B8C41D327481565246322524", "minzoom": 2, "maxzoom": 10 }, "properties": { "color": "#0056E7", "title": "爱丁堡", "oid": "103:1537435972421", "icon": "admin-3", "fontsize": 11, "halo": 1, "tyid": "303002", "offset": "[0,1.3]" }, "geometry": { "type": "Point", "coordinates": [ -3.251953, 55.973798 ] } }
{ "type": "Feature", "tippecanoe": { "layer": "2B8C41D327481565246322524", "minzoom": 2, "maxzoom": 10 }, "properties": { "color": "#0056E7", "title": "约克", "oid": "103:1562760082417", "icon": "admin-3", "fontsize": 11, "halo": 1, "tyid": "303002", "offset": "[0,1.3]" }, "geometry": { "type": "Point", "coordinates": [ -1.142578, 54.007769 ] } }
{ "type": "Feature", "tippecanoe": { "layer": "2B8C41D327481565246322524", "minzoom": 2, "maxzoom": 10 }, "properties": { "color": "#0056E7", "title": "波尔图", "oid": "103:1562760082275", "icon": "admin-3", "fontsize": 11, "halo": 1, "tyid": "303002", "offset": "[0,1.3]" }, "geometry": { "type": "Point", "coordinates": [ -8.701172, 41.178654 ] } }
{ "type": "Feature", "tippecanoe": { "layer": "2B8C41D327481565246322524", "minzoom": 2, "maxzoom": 10 }, "properties": { "color": "#0056E7", "title": "波尔多", "oid": "103:1562760082512", "icon": "admin-3", "fontsize": 11, "halo": 1, "tyid": "303002", "offset": "[0,1.3]" }, "geometry": { "type": "Point", "coordinates": [ -0.615234, 44.840291 ] } }
{ "type": "Feature", "tippecanoe": { "layer": "2B8C41D327481565246322524", "minzoom": 2, "maxzoom": 10 }, "properties": { "color": "#0056E7", "title": "里斯本", "oid": "103:1562760082331", "icon": "admin-3", "fontsize": 11, "halo": 1, "tyid": "303002", "offset": "[0,1.3]" }, "geometry": { "type": "Point", "coordinates": [ -9.140625, 38.754083 ] } }
{ "type": "Feature", "tippecanoe": { "layer": "2B8C41D327481565246322524", "minzoom": 2, "maxzoom": 10 }, "properties": { "color": "#0056E7", "title": "奥斯陆", "oid": "103:1562760082010", "icon": "admin-3", "fontsize": 11, "halo": 1, "tyid": "303002", "offset": "[0,1.3]" }, "geometry": { "type": "Point", "coordinates": [ 10.722656, 59.977005 ] } }
{ "type": "Feature", "tippecanoe": { "layer": "2B8C41D327481565246322524", "minzoom": 2, "maxzoom": 10 }, "properties": { "color": "#0056E7", "title": "梅斯", "oid": "103:1562760081928", "icon": "admin-3", "fontsize": 11, "halo": 1, "tyid": "303002", "offset": "[0,1.3]" }, "geometry": { "type": "Point", "coordinates": [ 6.152344, 49.152970 ] } }
{ "type": "Feature", "tippecanoe": { "layer": "2B8C41D327481565246322524", "minzoom": 2, "maxzoom": 10 }, "properties": { "color": "#0056E7", "title": "巴塞罗那", "oid": "103:1562760082210", "icon": "admin-3", "fontsize": 11, "halo": 1, "tyid": "303002", "offset": "[0,1.3]" }, "geometry": { "type": "Point", "coordinates": [ 2.109375, 41.442726 ] } }
{ "type": "Feature", "tippecanoe": { "layer": "2B8C41D327481565246322524", "minzoom": 2, "maxzoom": 10 }, "properties": { "color": "#0056E7", "title": "奥格斯堡", "oid": "103:1562760082185", "icon": "admin-3", "fontsize": 11, "halo": 1, "tyid": "303002", "offset": "[0,1.3]" }, "geometry": { "type": "Point", "coordinates": [ 10.898438, 48.400032 ] } }
{ "type": "Feature", "tippecanoe": { "layer": "2B8C41D327481565246322524", "minzoom": 2, "maxzoom": 10 }, "properties": { "color": "#0056E7", "title": "隆德", "oid": "103:1562760082351", "icon": "admin-3", "fontsize": 11, "halo": 1, "tyid": "303002", "offset": "[0,1.3]" }, "geometry": { "type": "Point", "coordinates": [ 13.183594, 55.727110 ] } }
{ "type": "Feature", "tippecanoe": { "layer": "2B8C41D327481565246322524", "minzoom": 2, "maxzoom": 10 }, "properties": { "color": "#0056E7", "title": "莱巴赫", "oid": "103:1562760082334", "icon": "admin-3", "fontsize": 11, "halo": 1, "tyid": "303002", "offset": "[0,1.3]" }, "geometry": { "type": "Point", "coordinates": [ 14.501953, 46.073231 ] } }
{ "type": "Feature", "tippecanoe": { "layer": "2B8C41D327481565246322524", "minzoom": 2, "maxzoom": 10 }, "properties": { "color": "#0056E7", "title": "佛罗伦萨", "oid": "103:1562760082116", "icon": "admin-3", "fontsize": 11, "halo": 1, "tyid": "303002", "offset": "[0,1.3]" }, "geometry": { "type": "Point", "coordinates": [ 11.250000, 43.834527 ] } }
{ "type": "Feature", "tippecanoe": { "layer": "2B8C41D327481565246322524", "minzoom": 2, "maxzoom": 10 }, "properties": { "color": "#0056E7", "title": "波佐尼", "oid": "103:1537435972357", "icon": "admin-3", "fontsize": 11, "halo": 1, "tyid": "303002", "offset": "[0,1.3]" }, "geometry": { "type": "Point", "coordinates": [ 17.050781, 48.166085 ] } }
{ "type": "Feature", "tippecanoe": { "layer": "2B8C41D327481565246322524", "minzoom": 2, "maxzoom": 10 }, "properties": { "color": "#0056E7", "title": "康斯坦察", "oid": "103:1562760082257", "icon": "admin-3", "fontsize": 11, "halo": 1, "tyid": "303002", "offset": "[0,1.3]" }, "geometry": { "type": "Point", "coordinates": [ 28.564453, 44.213710 ] } }
{ "type": "Feature", "tippecanoe": { "layer": "2B8C41D327481565246322524", "minzoom": 2, "maxzoom": 10 }, "properties": { "color": "#0056E7", "title": "莫斯科", "oid": "103:1562760081904", "icon": "admin-3", "fontsize": 11, "halo": 1, "tyid": "303002", "offset": "[0,1.3]" }, "geometry": { "type": "Point", "coordinates": [ 37.529297, 55.776573 ] } }
{ "type": "Feature", "tippecanoe": { "layer": "2B8C41D327481565246322524", "minzoom": 2, "maxzoom": 10 }, "properties": { "color": "#0056E7", "title": "雅典", "oid": "103:1562760082181", "icon": "admin-3", "fontsize": 11, "halo": 1, "tyid": "303002", "offset": "[0,1.3]" }, "geometry": { "type": "Point", "coordinates": [ 23.642578, 37.996163 ] } }
{ "type": "Feature", "tippecanoe": { "layer": "2B8C41D327481565246322524", "minzoom": 2, "maxzoom": 10 }, "properties": { "color": "#0056E7", "title": "阿尔戈斯", "oid": "103:1562760082157", "icon": "admin-3", "fontsize": 11, "halo": 1, "tyid": "303002", "offset": "[0,1.3]" }, "geometry": { "type": "Point", "coordinates": [ 22.675781, 37.649034 ] } }
{ "type": "Feature", "tippecanoe": { "layer": "2B8C41D327481565246322524", "minzoom": 2, "maxzoom": 10 }, "properties": { "color": "#0056E7", "title": "士麦拿", "oid": "103:1562760082088", "icon": "admin-3", "fontsize": 11, "halo": 1, "tyid": "303002", "offset": "[0,1.3]" }, "geometry": { "type": "Point", "coordinates": [ 27.158203, 38.754083 ] } }
{ "type": "Feature", "tippecanoe": { "layer": "2B8C41D327481565246322524", "minzoom": 2, "maxzoom": 10 }, "properties": { "color": "#0056E7", "title": "大不里士", "oid": "103:1562760082656", "icon": "admin-3", "fontsize": 11, "halo": 1, "tyid": "303002", "offset": "[0,1.3]" }, "geometry": { "type": "Point", "coordinates": [ 46.230469, 38.134557 ] } }
{ "type": "Feature", "tippecanoe": { "layer": "2B8C41D327481565246322524", "minzoom": 2, "maxzoom": 10 }, "properties": { "color": "#0056E7", "title": "齐齐哈尔古城", "oid": "103:1537435971919", "icon": "admin-3", "fontsize": 11, "halo": 1, "tyid": "303002", "offset": "[0,1.3]" }, "geometry": { "type": "Point", "coordinates": [ 123.837891, 47.398349 ] } }
{ "type": "Feature", "tippecanoe": { "layer": "2B8C41D327481565246322524", "minzoom": 2, "maxzoom": 10 }, "properties": { "color": "#0056E7", "title": "凤翔府", "oid": "103:1537435971769", "icon": "admin-3", "fontsize": 11, "halo": 1, "tyid": "303002", "offset": "[0,1.3]" }, "geometry": { "type": "Point", "coordinates": [ 107.314453, 34.524661 ] } }
{ "type": "Feature", "tippecanoe": { "layer": "2B8C41D327481565246322524", "minzoom": 2, "maxzoom": 10 }, "properties": { "color": "#0056E7", "title": "金州", "oid": "103:1537435971773", "icon": "admin-3", "fontsize": 11, "halo": 1, "tyid": "303002", "offset": "[0,1.3]" }, "geometry": { "type": "Point", "coordinates": [ 108.984375, 32.768800 ] } }
{ "type": "Feature", "tippecanoe": { "layer": "2B8C41D327481565246322524", "minzoom": 2, "maxzoom": 10 }, "properties": { "color": "#0056E7", "title": "景德镇", "oid": "103:1537435971897", "icon": "admin-3", "fontsize": 11, "halo": 1, "tyid": "303002", "offset": "[0,1.3]" }, "geometry": { "type": "Point", "coordinates": [ 117.158203, 29.305561 ] } }
{ "type": "Feature", "tippecanoe": { "layer": "2B8C41D327481565246322524", "minzoom": 2, "maxzoom": 10 }, "properties": { "color": "#0056E7", "title": "大坂", "oid": "103:1537435972029", "icon": "admin-3", "fontsize": 11, "halo": 1, "tyid": "303002", "offset": "[0,1.3]" }, "geometry": { "type": "Point", "coordinates": [ 135.439453, 34.741612 ] } }
{ "type": "Feature", "tippecanoe": { "layer": "2B8C41D327F01565246322516", "minzoom": 2, "maxzoom": 10 }, "properties": { "color": "#4B4040", "title": "阿尼亚查克火山", "oid": "103:1537435925996", "icon": "moutain", "fontsize": 11, "halo": 0.2, "tyid": "307000", "offset": "[0,2]" }, "geometry": { "type": "Point", "coordinates": [ -158.291016, 56.944974 ] } }
{ "type": "Feature", "tippecanoe": { "layer": "2B8C41D327F01565246322516", "minzoom": 2, "maxzoom": 10 }, "properties": { "color": "#4B4040", "title": "克利夫兰火山", "oid": "103:1537435926041", "icon": "moutain", "fontsize": 11, "halo": 0.2, "tyid": "307000", "offset": "[0,2]" }, "geometry": { "type": "Point", "coordinates": [ -169.980469, 52.855864 ] } }
{ "type": "Feature", "tippecanoe": { "layer": "2B8C41D327F01565246322516", "minzoom": 2, "maxzoom": 10 }, "properties": { "color": "#4B4040", "title": "福克拉山", "oid": "103:1537435926423", "icon": "moutain", "fontsize": 11, "halo": 0.2, "tyid": "307000", "offset": "[0,2]" }, "geometry": { "type": "Point", "coordinates": [ -151.435547, 62.995158 ] } }
{ "type": "Feature", "tippecanoe": { "layer": "2B8C41D327F01565246322516", "minzoom": 2, "maxzoom": 10 }, "properties": { "color": "#4B4040", "title": "阿拉斯加山脉", "oid": "103:1537435928452", "icon": "moutain", "fontsize": 11, "halo": 0.2, "tyid": "307000", "offset": "[0,2]" }, "geometry": { "type": "Point", "coordinates": [ -151.083984, 63.074866 ] } }
{ "type": "Feature", "tippecanoe": { "layer": "2B8C41D327F01565246322516", "minzoom": 2, "maxzoom": 10 }, "properties": { "color": "#4B4040", "title": "亨特山", "oid": "103:1537435926215", "icon": "moutain", "fontsize": 11, "halo": 0.2, "tyid": "307000", "offset": "[0,2]" }, "geometry": { "type": "Point", "coordinates": [ -151.171875, 62.955223 ] } }
{ "type": "Feature", "tippecanoe": { "layer": "2B8C41D327F01565246322516", "minzoom": 2, "maxzoom": 10 }, "properties": { "color": "#4B4040", "title": "海斯山", "oid": "103:1537435926150", "icon": "moutain", "fontsize": 11, "halo": 0.2, "tyid": "307000", "offset": "[0,2]" }, "geometry": { "type": "Point", "coordinates": [ -146.777344, 63.626745 ] } }
{ "type": "Feature", "tippecanoe": { "layer": "2B8C41D327F01565246322516", "minzoom": 2, "maxzoom": 10 }, "properties": { "color": "#4B4040", "title": "尼科拉山脉", "oid": "103:1537435926188", "icon": "moutain", "fontsize": 11, "halo": 0.2, "tyid": "307000", "offset": "[0,2]" }, "geometry": { "type": "Point", "coordinates": [ -154.160156, 60.630102 ] } }
{ "type": "Feature", "tippecanoe": { "layer": "2B8C41D327F01565246322516", "minzoom": 2, "maxzoom": 10 }, "properties": { "color": "#4B4040", "title": "托德里洛山脉", "oid": "103:1537435926199", "icon": "moutain", "fontsize": 11, "halo": 0.2, "tyid": "307000", "offset": "[0,2]" }, "geometry": { "type": "Point", "coordinates": [ -152.314453, 61.312452 ] } }
{ "type": "Feature", "tippecanoe": { "layer": "2B8C41D327F01565246322516", "minzoom": 2, "maxzoom": 10 }, "properties": { "color": "#4B4040", "title": "里道特火山", "oid": "103:1537435925997", "icon": "moutain", "fontsize": 11, "halo": 0.2, "tyid": "307000", "offset": "[0,2]" }, "geometry": { "type": "Point", "coordinates": [ -152.753906, 60.500525 ] } }
{ "type": "Feature", "tippecanoe": { "layer": "2B8C41D327F01565246322516", "minzoom": 2, "maxzoom": 10 }, "properties": { "color": "#4B4040", "title": "奇格米特山脉", "oid": "103:1537435926204", "icon": "moutain", "fontsize": 11, "halo": 0.2, "tyid": "307000", "offset": "[0,2]" }, "geometry": { "type": "Point", "coordinates": [ -153.632812, 60.196156 ] } }
{ "type": "Feature", "tippecanoe": { "layer": "2B8C41D327F01565246322516", "minzoom": 2, "maxzoom": 10 }, "properties": { "color": "#4B4040", "title": "诺瓦鲁普塔火山", "oid": "103:1537435926094", "icon": "moutain", "fontsize": 11, "halo": 0.2, "tyid": "307000", "offset": "[0,2]" }, "geometry": { "type": "Point", "coordinates": [ -155.214844, 58.309489 ] } }
{ "type": "Feature", "tippecanoe": { "layer": "2B8C41D327F01565246322516", "minzoom": 2, "maxzoom": 10 }, "properties": { "color": "#4B4040", "title": "阿留申山脉", "oid": "103:1537435926191", "icon": "moutain", "fontsize": 11, "halo": 0.2, "tyid": "307000", "offset": "[0,2]" }, "geometry": { "type": "Point", "coordinates": [ -157.060547, 57.088515 ] } }
{ "type": "Feature", "tippecanoe": { "layer": "2B8C41D327F01565246322516", "minzoom": 2, "maxzoom": 10 }, "properties": { "color": "#4B4040", "title": "基奈山脉", "oid": "103:1537435926267", "icon": "moutain", "fontsize": 11, "halo": 0.2, "tyid": "307000", "offset": "[0,2]" }, "geometry": { "type": "Point", "coordinates": [ -150.644531, 59.712097 ] } }
{ "type": "Feature", "tippecanoe": { "layer": "2B8C41D327F01565246322516", "minzoom": 2, "maxzoom": 10 }, "properties": { "color": "#4B4040", "title": "马库斯贝克峰", "oid": "103:1537435928242", "icon": "moutain", "fontsize": 11, "halo": 0.2, "tyid": "307000", "offset": "[0,2]" }, "geometry": { "type": "Point", "coordinates": [ -147.832031, 61.438767 ] } }
{ "type": "Feature", "tippecanoe": { "layer": "2B8C41D327F01565246322516", "minzoom": 2, "maxzoom": 10 }, "properties": { "color": "#4B4040", "title": "兰格尔山脉", "oid": "103:1537435926198", "icon": "moutain", "fontsize": 11, "halo": 0.2, "tyid": "307000", "offset": "[0,2]" }, "geometry": { "type": "Point", "coordinates": [ -143.525391, 61.814664 ] } }
{ "type": "Feature", "tippecanoe": { "layer": "2B8C41D327F01565246322516", "minzoom": 2, "maxzoom": 10 }, "properties": { "color": "#4B4040", "title": "维基峰", "oid": "103:1537435925206", "icon": "moutain", "fontsize": 11, "halo": 0.2, "tyid": "307000", "offset": "[0,2]" }, "geometry": { "type": "Point", "coordinates": [ -141.240234, 61.938950 ] } }
{ "type": "Feature", "tippecanoe": { "layer": "2B8C41D327F01565246322516", "minzoom": 2, "maxzoom": 10 }, "properties": { "color": "#4B4040", "title": "奥吉尔维山脉", "oid": "103:1537435928548", "icon": "moutain", "fontsize": 11, "halo": 0.2, "tyid": "307000", "offset": "[0,2]" }, "geometry": { "type": "Point", "coordinates": [ -137.285156, 64.396938 ] } }
{ "type": "Feature", "tippecanoe": { "layer": "2B8C41D327F01565246322516", "minzoom": 2, "maxzoom": 10 }, "properties": { "color": "#4B4040", "title": "楚加奇山", "oid": "103:1537435928464", "icon": "moutain", "fontsize": 11, "halo": 0.2, "tyid": "307000", "offset": "[0,2]" }, "geometry": { "type": "Point", "coordinates": [ -145.371094, 61.185625 ] } }
{ "type": "Feature", "tippecanoe": { "layer": "2B8C41D327F01565246322516", "minzoom": 2, "maxzoom": 10 }, "properties": { "color": "#4B4040", "title": "贝尔山", "oid": "103:1537435925224", "icon": "moutain", "fontsize": 11, "halo": 0.2, "tyid": "307000", "offset": "[0,2]" }, "geometry": { "type": "Point", "coordinates": [ -141.152344, 61.312452 ] } }
{ "type": "Feature", "tippecanoe": { "layer": "2B8C41D327F01565246322516", "minzoom": 2, "maxzoom": 10 }, "properties": { "color": "#4B4040", "title": "圣埃利亚斯山", "oid": "103:1537435925036", "icon": "moutain", "fontsize": 11, "halo": 0.2, "tyid": "307000", "offset": "[0,2]" }, "geometry": { "type": "Point", "coordinates": [ -140.976562, 60.326948 ] } }
{ "type": "Feature", "tippecanoe": { "layer": "2B8C41D327F01565246322516", "minzoom": 2, "maxzoom": 10 }, "properties": { "color": "#4B4040", "title": "伍德山", "oid": "103:1537435928226", "icon": "moutain", "fontsize": 11, "halo": 0.2, "tyid": "307000", "offset": "[0,2]" }, "geometry": { "type": "Point", "coordinates": [ -140.537109, 61.270233 ] } }
{ "type": "Feature", "tippecanoe": { "layer": "2B8C41D327F01565246322516", "minzoom": 2, "maxzoom": 10 }, "properties": { "color": "#4B4040", "title": "斯拉格德山", "oid": "103:1537435926192", "icon": "moutain", "fontsize": 11, "halo": 0.2, "tyid": "307000", "offset": "[0,2]" }, "geometry": { "type": "Point", "coordinates": [ -140.625000, 61.185625 ] } }
{ "type": "Feature", "tippecanoe": { "layer": "2B8C41D327F01565246322516", "minzoom": 2, "maxzoom": 10 }, "properties": { "color": "#4B4040", "title": "卢卡尼亚山", "oid": "103:1537435925037", "icon": "moutain", "fontsize": 11, "halo": 0.2, "tyid": "307000", "offset": "[0,2]" }, "geometry": { "type": "Point", "coordinates": [ -140.537109, 61.058285 ] } }
{ "type": "Feature", "tippecanoe": { "layer": "2B8C41D327F01565246322516", "minzoom": 2, "maxzoom": 10 }, "properties": { "color": "#4B4040", "title": "斯蒂尔山", "oid": "103:1537435927946", "icon": "moutain", "fontsize": 11, "halo": 0.2, "tyid": "307000", "offset": "[0,2]" }, "geometry": { "type": "Point", "coordinates": [ -140.361328, 61.100789 ] } }
{ "type": "Feature", "tippecanoe": { "layer": "2B8C41D327F01565246322516", "minzoom": 2, "maxzoom": 10 }, "properties": { "color": "#4B4040", "title": "沃尔什山", "oid": "103:1537435928191", "icon": "moutain", "fontsize": 11, "halo": 0.2, "tyid": "307000", "offset": "[0,2]" }, "geometry": { "type": "Point", "coordinates": [ -140.097656, 61.015725 ] } }
{ "type": "Feature", "tippecanoe": { "layer": "2B8C41D327F01565246322516", "minzoom": 2, "maxzoom": 10 }, "properties": { "color": "#4B4040", "title": "麦克阿瑟山", "oid": "103:1537435926190", "icon": "moutain", "fontsize": 11, "halo": 0.2, "tyid": "307000", "offset": "[0,2]" }, "geometry": { "type": "Point", "coordinates": [ -140.273438, 60.630102 ] } }
{ "type": "Feature", "tippecanoe": { "layer": "2B8C41D327F01565246322516", "minzoom": 2, "maxzoom": 10 }, "properties": { "color": "#4B4040", "title": "洛根山", "oid": "103:1537435925665", "icon": "moutain", "fontsize": 11, "halo": 0.2, "tyid": "307000", "offset": "[0,2]" }, "geometry": { "type": "Point", "coordinates": [ -140.449219, 60.586967 ] } }
{ "type": "Feature", "tippecanoe": { "layer": "2B8C41D327F01565246322516", "minzoom": 2, "maxzoom": 10 }, "properties": { "color": "#4B4040", "title": "奥古斯塔山", "oid": "103:1537435924910", "icon": "moutain", "fontsize": 11, "halo": 0.2, "tyid": "307000", "offset": "[0,2]" }, "geometry": { "type": "Point", "coordinates": [ -140.537109, 60.326948 ] } }
{ "type": "Feature", "tippecanoe": { "layer": "2B8C41D327F01565246322516", "minzoom": 2, "maxzoom": 10 }, "properties": { "color": "#4B4040", "title": "温哥华山", "oid": "103:1537435926195", "icon": "moutain", "fontsize": 11, "halo": 0.2, "tyid": "307000", "offset": "[0,2]" }, "geometry": { "type": "Point", "coordinates": [ -139.746094, 60.370429 ] } }
{ "type": "Feature", "tippecanoe": { "layer": "2B8C41D327F01565246322516", "minzoom": 2, "maxzoom": 10 }, "properties": { "color": "#4B4040", "title": "圣埃利亚斯山脉", "oid": "103:1537435926200", "icon": "moutain", "fontsize": 11, "halo": 0.2, "tyid": "307000", "offset": "[0,2]" }, "geometry": { "type": "Point", "coordinates": [ -139.570312, 60.500525 ] } }
{ "type": "Feature", "tippecanoe": { "layer": "2B8C41D327F01565246322516", "minzoom": 2, "maxzoom": 10 }, "properties": { "color": "#4B4040", "title": "阿尔弗斯通山", "oid": "103:1537435926208", "icon": "moutain", "fontsize": 11, "halo": 0.2, "tyid": "307000", "offset": "[0,2]" }, "geometry": { "type": "Point", "coordinates": [ -139.130859, 60.370429 ] } }
{ "type": "Feature", "tippecanoe": { "layer": "2B8C41D327F01565246322516", "minzoom": 2, "maxzoom": 10 }, "properties": { "color": "#4B4040", "title": "哈伯德山", "oid": "103:1537435926210", "icon": "moutain", "fontsize": 11, "halo": 0.2, "tyid": "307000", "offset": "[0,2]" }, "geometry": { "type": "Point", "coordinates": [ -139.130859, 60.326948 ] } }
{ "type": "Feature", "tippecanoe": { "layer": "2B8C41D327F01565246322516", "minzoom": 2, "maxzoom": 10 }, "properties": { "color": "#4B4040", "title": "肯尼迪山", "oid": "103:1537435926203", "icon": "moutain", "fontsize": 11, "halo": 0.2, "tyid": "307000", "offset": "[0,2]" }, "geometry": { "type": "Point", "coordinates": [ -139.042969, 60.370429 ] } }
{ "type": "Feature", "tippecanoe": { "layer": "2B8C41D327F01565246322516", "minzoom": 2, "maxzoom": 10 }, "properties": { "color": "#4B4040", "title": "库克山", "oid": "103:1541669025654", "icon": "moutain", "fontsize": 11, "halo": 0.2, "tyid": "307000", "offset": "[0,2]" }, "geometry": { "type": "Point", "coordinates": [ -140.009766, 60.196156 ] } }
{ "type": "Feature", "tippecanoe": { "layer": "2B8C41D327F01565246322516", "minzoom": 2, "maxzoom": 10 }, "properties": { "color": "#4B4040", "title": "费尔韦瑟山", "oid": "103:1537435925711", "icon": "moutain", "fontsize": 11, "halo": 0.2, "tyid": "307000", "offset": "[0,2]" }, "geometry": { "type": "Point", "coordinates": [ -137.548828, 58.950008 ] } }
{ "type": "Feature", "tippecanoe": { "layer": "2B8C41D327F01565246322516", "minzoom": 2, "maxzoom": 10 }, "properties": { "color": "#4B4040", "title": "钻石头山", "oid": "103:1537435926036", "icon": "moutain", "fontsize": 11, "halo": 0.2, "tyid": "307000", "offset": "[0,2]" }, "geometry": { "type": "Point", "coordinates": [ -157.851562, 21.289374 ] } }
{ "type": "Feature", "tippecanoe": { "layer": "2B8C41D327F01565246322516", "minzoom": 2, "maxzoom": 10 }, "properties": { "color": "#4B4040", "title": "普库库伊", "oid": "103:1537435925166", "icon": "moutain", "fontsize": 11, "halo": 0.2, "tyid": "307000", "offset": "[0,2]" }, "geometry": { "type": "Point", "coordinates": [ -156.621094, 20.961440 ] } }
{ "type": "Feature", "tippecanoe": { "layer": "2B8C41D327F01565246322516", "minzoom": 2, "maxzoom": 10 }, "properties": { "color": "#4B4040", "title": "冒纳凯阿火山", "oid": "103:1537435925069", "icon": "moutain", "fontsize": 11, "halo": 0.2, "tyid": "307000", "offset": "[0,2]" }, "geometry": { "type": "Point", "coordinates": [ -155.478516, 19.890723 ] } }
{ "type": "Feature", "tippecanoe": { "layer": "2B8C41D327F01565246322516", "minzoom": 2, "maxzoom": 10 }, "properties": { "color": "#4B4040", "title": "冒纳罗亚火山", "oid": "103:1537435925494", "icon": "moutain", "fontsize": 11, "halo": 0.2, "tyid": "307000", "offset": "[0,2]" }, "geometry": { "type": "Point", "coordinates": [ -155.654297, 19.559790 ] } }
{ "type": "Feature", "tippecanoe": { "layer": "2B8C41D327F01565246322516", "minzoom": 2, "maxzoom": 10 }, "properties": { "color": "#4B4040", "title": "基拉韦厄火山", "oid": "103:1537435925375", "icon": "moutain", "fontsize": 11, "halo": 0.2, "tyid": "307000", "offset": "[0,2]" }, "geometry": { "type": "Point", "coordinates": [ -155.302734, 19.476950 ] } }
{ "type": "Feature", "tippecanoe": { "layer": "2B8C41D327F01565246322516", "minzoom": 2, "maxzoom": 10 }, "properties": { "color": "#4B4040", "title": "海岸山脉", "oid": "103:1541669024470", "icon": "moutain", "fontsize": 11, "halo": 0.2, "tyid": "307000", "offset": "[0,2]" }, "geometry": { "type": "Point", "coordinates": [ -128.056641, 54.007769 ] } }
{ "type": "Feature", "tippecanoe": { "layer": "2B8C41D327F01565246322516", "minzoom": 2, "maxzoom": 10 }, "properties": { "color": "#4B4040", "title": "沃丁顿山", "oid": "103:1537435928415", "icon": "moutain", "fontsize": 11, "halo": 0.2, "tyid": "307000", "offset": "[0,2]" }, "geometry": { "type": "Point", "coordinates": [ -125.332031, 51.399206 ] } }
{ "type": "Feature", "tippecanoe": { "layer": "2B8C41D327F01565246322516", "minzoom": 2, "maxzoom": 10 }, "properties": { "color": "#4B4040", "title": "奥林匹克山脉", "oid": "103:1537435928289", "icon": "moutain", "fontsize": 11, "halo": 0.2, "tyid": "307000", "offset": "[0,2]" }, "geometry": { "type": "Point", "coordinates": [ -123.837891, 47.872144 ] } }
{ "type": "Feature", "tippecanoe": { "layer": "2B8C41D327F01565246322516", "minzoom": 2, "maxzoom": 10 }, "properties": { "color": "#4B4040", "title": "卡里布山脉", "oid": "103:1537435926536", "icon": "moutain", "fontsize": 11, "halo": 0.2, "tyid": "307000", "offset": "[0,2]" }, "geometry": { "type": "Point", "coordinates": [ -120.322266, 52.961875 ] } }
{ "type": "Feature", "tippecanoe": { "layer": "2B8C41D327F01565246322516", "minzoom": 2, "maxzoom": 10 }, "properties": { "color": "#4B4040", "title": "罗布森山", "oid": "103:1537435925371", "icon": "moutain", "fontsize": 11, "halo": 0.2, "tyid": "307000", "offset": "[0,2]" }, "geometry": { "type": "Point", "coordinates": [ -119.179688, 53.120405 ] } }
{ "type": "Feature", "tippecanoe": { "layer": "2B8C41D327F01565246322516", "minzoom": 2, "maxzoom": 10 }, "properties": { "color": "#4B4040", "title": "莫纳希山脉", "oid": "103:1537435926526", "icon": "moutain", "fontsize": 11, "halo": 0.2, "tyid": "307000", "offset": "[0,2]" }, "geometry": { "type": "Point", "coordinates": [ -119.003906, 52.429222 ] } }
{ "type": "Feature", "tippecanoe": { "layer": "2B8C41D327F01565246322516", "minzoom": 2, "maxzoom": 10 }, "properties": { "color": "#4B4040", "title": "哥伦比亚山脉", "oid": "103:1537435925792", "icon": "moutain", "fontsize": 11, "halo": 0.2, "tyid": "307000", "offset": "[0,2]" }, "geometry": { "type": "Point", "coordinates": [ -117.949219, 51.672555 ] } }
{ "type": "Feature", "tippecanoe": { "layer": "2B8C41D327F01565246322516", "minzoom": 2, "maxzoom": 10 }, "properties": { "color": "#4B4040", "title": "贝克山", "oid": "103:1541669023662", "icon": "moutain", "fontsize": 11, "halo": 0.2, "tyid": "307000", "offset": "[0,2]" }, "geometry": { "type": "Point", "coordinates": [ -116.630859, 51.672555 ] } }
{ "type": "Feature", "tippecanoe": { "layer": "2B8C41D327F01565246322516", "minzoom": 2, "maxzoom": 10 }, "properties": { "color": "#4B4040", "title": "卡斯尔山", "oid": "103:1537435925838", "icon": "moutain", "fontsize": 11, "halo": 0.2, "tyid": "307000", "offset": "[0,2]" }, "geometry": { "type": "Point", "coordinates": [ -116.015625, 51.344339 ] } }
{ "type": "Feature", "tippecanoe": { "layer": "2B8C41D327F01565246322516", "minzoom": 2, "maxzoom": 10 }, "properties": { "color": "#4B4040", "title": "阿西尼博因山", "oid": "103:1537435925968", "icon": "moutain", "fontsize": 11, "halo": 0.2, "tyid": "307000", "offset": "[0,2]" }, "geometry": { "type": "Point", "coordinates": [ -115.664062, 50.903033 ] } }
{ "type": "Feature", "tippecanoe": { "layer": "2B8C41D327F01565246322516", "minzoom": 2, "maxzoom": 10 }, "properties": { "color": "#4B4040", "title": "塞尔扣克山脉", "oid": "103:1537435926538", "icon": "moutain", "fontsize": 11, "halo": 0.2, "tyid": "307000", "offset": "[0,2]" }, "geometry": { "type": "Point", "coordinates": [ -117.421875, 49.951220 ] } }
{ "type": "Feature", "tippecanoe": { "layer": "2B8C41D327F01565246322516", "minzoom": 2, "maxzoom": 10 }, "properties": { "color": "#4B4040", "title": "普塞尔山脉", "oid": "103:1537435926540", "icon": "moutain", "fontsize": 11, "halo": 0.2, "tyid": "307000", "offset": "[0,2]" }, "geometry": { "type": "Point", "coordinates": [ -116.279297, 49.951220 ] } }
{ "type": "Feature", "tippecanoe": { "layer": "2B8C41D327F01565246322516", "minzoom": 2, "maxzoom": 10 }, "properties": { "color": "#4B4040", "title": "约翰·劳里山", "oid": "103:1537435925688", "icon": "moutain", "fontsize": 11, "halo": 0.2, "tyid": "307000", "offset": "[0,2]" }, "geometry": { "type": "Point", "coordinates": [ -115.136719, 51.124213 ] } }
{ "type": "Feature", "tippecanoe": { "layer": "2B8C41D327F01565246322516", "minzoom": 2, "maxzoom": 10 }, "properties": { "color": "#4B4040", "title": "奥林匹斯山", "oid": "103:1541669023414", "icon": "moutain", "fontsize": 11, "halo": 0.2, "tyid": "307000", "offset": "[0,2]" }, "geometry": { "type": "Point", "coordinates": [ -123.750000, 47.813155 ] } }
{ "type": "Feature", "tippecanoe": { "layer": "2B8C41D327F01565246322516", "minzoom": 2, "maxzoom": 10 }, "properties": { "color": "#4B4040", "title": "贝克山", "oid": "103:1541669023666", "icon": "moutain", "fontsize": 11, "halo": 0.2, "tyid": "307000", "offset": "[0,2]" }, "geometry": { "type": "Point", "coordinates": [ -121.552734, 48.516604 ] } }
{ "type": "Feature", "tippecanoe": { "layer": "2B8C41D327F01565246322516", "minzoom": 2, "maxzoom": 10 }, "properties": { "color": "#4B4040", "title": "格拉西尔峰", "oid": "103:1537435928248", "icon": "moutain", "fontsize": 11, "halo": 0.2, "tyid": "307000", "offset": "[0,2]" }, "geometry": { "type": "Point", "coordinates": [ -121.201172, 48.166085 ] } }
{ "type": "Feature", "tippecanoe": { "layer": "2B8C41D327F01565246322516", "minzoom": 2, "maxzoom": 10 }, "properties": { "color": "#4B4040", "title": "胡德山", "oid": "103:1537435926164", "icon": "moutain", "fontsize": 11, "halo": 0.2, "tyid": "307000", "offset": "[0,2]" }, "geometry": { "type": "Point", "coordinates": [ -121.464844, 47.279229 ] } }
{ "type": "Feature", "tippecanoe": { "layer": "2B8C41D327F01565246322516", "minzoom": 2, "maxzoom": 10 }, "properties": { "color": "#4B4040", "title": "瑞尼尔山", "oid": "103:1537435925288", "icon": "moutain", "fontsize": 11, "halo": 0.2, "tyid": "307000", "offset": "[0,2]" }, "geometry": { "type": "Point", "coordinates": [ -121.816406, 46.860191 ] } }
{ "type": "Feature", "tippecanoe": { "layer": "2B8C41D327F01565246322516", "minzoom": 2, "maxzoom": 10 }, "properties": { "color": "#4B4040", "title": "喀斯喀特山脉", "oid": "103:1537435928447", "icon": "moutain", "fontsize": 11, "halo": 0.2, "tyid": "307000", "offset": "[0,2]" }, "geometry": { "type": "Point", "coordinates": [ -121.816406, 46.860191 ] } }
{ "type": "Feature", "tippecanoe": { "layer": "2B8C41D327F01565246322516", "minzoom": 2, "maxzoom": 10 }, "properties": { "color": "#4B4040", "title": "圣海伦火山", "oid": "103:1537435925677", "icon": "moutain", "fontsize": 11, "halo": 0.2, "tyid": "307000", "offset": "[0,2]" }, "geometry": { "type": "Point", "coordinates": [ -122.255859, 46.195042 ] } }
{ "type": "Feature", "tippecanoe": { "layer": "2B8C41D327F01565246322516", "minzoom": 2, "maxzoom": 10 }, "properties": { "color": "#4B4040", "title": "亚当斯山", "oid": "103:1537435924933", "icon": "moutain", "fontsize": 11, "halo": 0.2, "tyid": "307000", "offset": "[0,2]" }, "geometry": { "type": "Point", "coordinates": [ -121.552734, 46.255847 ] } }
{ "type": "Feature", "tippecanoe": { "layer": "2B8C41D327F01565246322516", "minzoom": 2, "maxzoom": 10 }, "properties": { "color": "#4B4040", "title": "乐声安峰", "oid": "103:1537435925388", "icon": "moutain", "fontsize": 11, "halo": 0.2, "tyid": "307000", "offset": "[0,2]" }, "geometry": { "type": "Point", "coordinates": [ -122.871094, 42.358544 ] } }
{ "type": "Feature", "tippecanoe": { "layer": "2B8C41D327F01565246322516", "minzoom": 2, "maxzoom": 10 }, "properties": { "color": "#4B4040", "title": "派勒特岩", "oid": "103:1537435925165", "icon": "moutain", "fontsize": 11, "halo": 0.2, "tyid": "307000", "offset": "[0,2]" }, "geometry": { "type": "Point", "coordinates": [ -122.607422, 42.032974 ] } }
{ "type": "Feature", "tippecanoe": { "layer": "2B8C41D327F01565246322516", "minzoom": 2, "maxzoom": 10 }, "properties": { "color": "#4B4040", "title": "马札马火山", "oid": "103:1537435924957", "icon": "moutain", "fontsize": 11, "halo": 0.2, "tyid": "307000", "offset": "[0,2]" }, "geometry": { "type": "Point", "coordinates": [ -122.167969, 42.940339 ] } }
{ "type": "Feature", "tippecanoe": { "layer": "2B8C41D327F01565246322516", "minzoom": 2, "maxzoom": 10 }, "properties": { "color": "#4B4040", "title": "沙斯塔山", "oid": "103:1537435925077", "icon": "moutain", "fontsize": 11, "halo": 0.2, "tyid": "307000", "offset": "[0,2]" }, "geometry": { "type": "Point", "coordinates": [ -122.255859, 41.442726 ] } }
{ "type": "Feature", "tippecanoe": { "layer": "2B8C41D327F01565246322516", "minzoom": 2, "maxzoom": 10 }, "properties": { "color": "#4B4040", "title": "犹太峰", "oid": "103:1537435928432", "icon": "moutain", "fontsize": 11, "halo": 0.2, "tyid": "307000", "offset": "[0,2]" }, "geometry": { "type": "Point", "coordinates": [ -115.751953, 47.754098 ] } }
{ "type": "Feature", "tippecanoe": { "layer": "2B8C41D327F01565246322516", "minzoom": 2, "maxzoom": 10 }, "properties": { "color": "#4B4040", "title": "蓝山山脉", "oid": "103:1537435926678", "icon": "moutain", "fontsize": 11, "halo": 0.2, "tyid": "307000", "offset": "[0,2]" }, "geometry": { "type": "Point", "coordinates": [ -118.037109, 45.521744 ] } }
{ "type": "Feature", "tippecanoe": { "layer": "2B8C41D327F01565246322516", "minzoom": 2, "maxzoom": 10 }, "properties": { "color": "#4B4040", "title": "瓦洛厄山脉", "oid": "103:1537435924892", "icon": "moutain", "fontsize": 11, "halo": 0.2, "tyid": "307000", "offset": "[0,2]" }, "geometry": { "type": "Point", "coordinates": [ -117.333984, 45.213004 ] } }
{ "type": "Feature", "tippecanoe": { "layer": "2B8C41D327F01565246322516", "minzoom": 2, "maxzoom": 10 }, "properties": { "color": "#4B4040", "title": "黄石火山", "oid": "103:1537435925093", "icon": "moutain", "fontsize": 11, "halo": 0.2, "tyid": "307000", "offset": "[0,2]" }, "geometry": { "type": "Point", "coordinates": [ -110.742188, 44.402392 ] } }
{ "type": "Feature", "tippecanoe": { "layer": "2B8C41D327F01565246322516", "minzoom": 2, "maxzoom": 10 }, "properties": { "color": "#4B4040", "title": "大提顿峰", "oid": "103:1537435925029", "icon": "moutain", "fontsize": 11, "halo": 0.2, "tyid": "307000", "offset": "[0,2]" }, "geometry": { "type": "Point", "coordinates": [ -110.830078, 43.771094 ] } }
{ "type": "Feature", "tippecanoe": { "layer": "2B8C41D327F01565246322516", "minzoom": 2, "maxzoom": 10 }, "properties": { "color": "#4B4040", "title": "洛基山脉", "oid": "103:1537435924870", "icon": "moutain", "fontsize": 11, "halo": 0.2, "tyid": "307000", "offset": "[0,2]" }, "geometry": { "type": "Point", "coordinates": [ -110.830078, 43.771094 ] } }
{ "type": "Feature", "tippecanoe": { "layer": "2B8C41D327F01565246322516", "minzoom": 2, "maxzoom": 10 }, "properties": { "color": "#4B4040", "title": "布拉克山", "oid": "103:1537435928272", "icon": "moutain", "fontsize": 11, "halo": 0.2, "tyid": "307000", "offset": "[0,2]" }, "geometry": { "type": "Point", "coordinates": [ -103.798828, 44.024422 ] } }
{ "type": "Feature", "tippecanoe": { "layer": "2B8C41D327F01565246322516", "minzoom": 2, "maxzoom": 10 }, "properties": { "color": "#4B4040", "title": "拉森火山", "oid": "103:1537435925809", "icon": "moutain", "fontsize": 11, "halo": 0.2, "tyid": "307000", "offset": "[0,2]" }, "geometry": { "type": "Point", "coordinates": [ -121.376953, 40.313043 ] } }
{ "type": "Feature", "tippecanoe": { "layer": "2B8C41D327F01565246322516", "minzoom": 2, "maxzoom": 10 }, "properties": { "color": "#4B4040", "title": "双峰", "oid": "103:1537435925169", "icon": "moutain", "fontsize": 11, "halo": 0.2, "tyid": "307000", "offset": "[0,2]" }, "geometry": { "type": "Point", "coordinates": [ -122.519531, 37.788081 ] } }
{ "type": "Feature", "tippecanoe": { "layer": "2B8C41D327F01565246322516", "minzoom": 2, "maxzoom": 10 }, "properties": { "color": "#4B4040", "title": "内华达山脉", "oid": "103:1541669025875", "icon": "moutain", "fontsize": 11, "halo": 0.2, "tyid": "307000", "offset": "[0,2]" }, "geometry": { "type": "Point", "coordinates": [ -119.619141, 37.788081 ] } }
{ "type": "Feature", "tippecanoe": { "layer": "2B8C41D327F01565246322516", "minzoom": 2, "maxzoom": 10 }, "properties": { "color": "#4B4040", "title": "圣拉斐尔山脉", "oid": "103:1537435928537", "icon": "moutain", "fontsize": 11, "halo": 0.2, "tyid": "307000", "offset": "[0,2]" }, "geometry": { "type": "Point", "coordinates": [ -119.882812, 34.741612 ] } }
{ "type": "Feature", "tippecanoe": { "layer": "2B8C41D327F01565246322516", "minzoom": 2, "maxzoom": 10 }, "properties": { "color": "#4B4040", "title": "惠特尼峰", "oid": "103:1537435925523", "icon": "moutain", "fontsize": 11, "halo": 0.2, "tyid": "307000", "offset": "[0,2]" }, "geometry": { "type": "Point", "coordinates": [ -118.300781, 36.597889 ] } }
{ "type": "Feature", "tippecanoe": { "layer": "2B8C41D327F01565246322516", "minzoom": 2, "maxzoom": 10 }, "properties": { "color": "#4B4040", "title": "圣莫尼卡山", "oid": "103:1537435924914", "icon": "moutain", "fontsize": 11, "halo": 0.2, "tyid": "307000", "offset": "[0,2]" }, "geometry": { "type": "Point", "coordinates": [ -119.003906, 34.161818 ] } }
{ "type": "Feature", "tippecanoe": { "layer": "2B8C41D327F01565246322516", "minzoom": 2, "maxzoom": 10 }, "properties": { "color": "#4B4040", "title": "婴儿山脉", "oid": "103:1537435924889", "icon": "moutain", "fontsize": 11, "halo": 0.2, "tyid": "307000", "offset": "[0,2]" }, "geometry": { "type": "Point", "coordinates": [ -115.927734, 37.230328 ] } }
{ "type": "Feature", "tippecanoe": { "layer": "2B8C41D327F01565246322516", "minzoom": 2, "maxzoom": 10 }, "properties": { "color": "#4B4040", "title": "圣盖博山", "oid": "103:1537435924752", "icon": "moutain", "fontsize": 11, "halo": 0.2, "tyid": "307000", "offset": "[0,2]" }, "geometry": { "type": "Point", "coordinates": [ -117.685547, 34.307144 ] } }
{ "type": "Feature", "tippecanoe": { "layer": "2B8C41D327F01565246322516", "minzoom": 2, "maxzoom": 10 }, "properties": { "color": "#4B4040", "title": "廷帕诺戈斯山", "oid": "103:1537435925062", "icon": "moutain", "fontsize": 11, "halo": 0.2, "tyid": "307000", "offset": "[0,2]" }, "geometry": { "type": "Point", "coordinates": [ -111.708984, 40.446947 ] } }
{ "type": "Feature", "tippecanoe": { "layer": "2B8C41D327F01565246322516", "minzoom": 2, "maxzoom": 10 }, "properties": { "color": "#4B4040", "title": "瓦萨奇山脉", "oid": "103:1537435924917", "icon": "moutain", "fontsize": 11, "halo": 0.2, "tyid": "307000", "offset": "[0,2]" }, "geometry": { "type": "Point", "coordinates": [ -111.796875, 39.842286 ] } }
{ "type": "Feature", "tippecanoe": { "layer": "2B8C41D327F01565246322516", "minzoom": 2, "maxzoom": 10 }, "properties": { "color": "#4B4040", "title": "国王峰", "oid": "103:1537435925275", "icon": "moutain", "fontsize": 11, "halo": 0.2, "tyid": "307000", "offset": "[0,2]" }, "geometry": { "type": "Point", "coordinates": [ -110.390625, 40.780541 ] } }
{ "type": "Feature", "tippecanoe": { "layer": "2B8C41D327F01565246322516", "minzoom": 2, "maxzoom": 10 }, "properties": { "color": "#4B4040", "title": "犹因塔山脉", "oid": "103:1537435924916", "icon": "moutain", "fontsize": 11, "halo": 0.2, "tyid": "307000", "offset": "[0,2]" }, "geometry": { "type": "Point", "coordinates": [ -110.390625, 40.780541 ] } }
{ "type": "Feature", "tippecanoe": { "layer": "2B8C41D327F01565246322516", "minzoom": 2, "maxzoom": 10 }, "properties": { "color": "#4B4040", "title": "大平顶山", "oid": "103:1537435926615", "icon": "moutain", "fontsize": 11, "halo": 0.2, "tyid": "307000", "offset": "[0,2]" }, "geometry": { "type": "Point", "coordinates": [ -108.017578, 39.164141 ] } }
{ "type": "Feature", "tippecanoe": { "layer": "2B8C41D327F01565246322516", "minzoom": 2, "maxzoom": 10 }, "properties": { "color": "#4B4040", "title": "莫戈永山", "oid": "103:1537435928377", "icon": "moutain", "fontsize": 11, "halo": 0.2, "tyid": "307000", "offset": "[0,2]" }, "geometry": { "type": "Point", "coordinates": [ -108.720703, 33.358062 ] } }
{ "type": "Feature", "tippecanoe": { "layer": "2B8C41D327F01565246322516", "minzoom": 2, "maxzoom": 10 }, "properties": { "color": "#4B4040", "title": "埃尔克山", "oid": "103:1537435924905", "icon": "moutain", "fontsize": 11, "halo": 0.2, "tyid": "307000", "offset": "[0,2]" }, "geometry": { "type": "Point", "coordinates": [ -106.875000, 39.027719 ] } }
{ "type": "Feature", "tippecanoe": { "layer": "2B8C41D327F01565246322516", "minzoom": 2, "maxzoom": 10 }, "properties": { "color": "#4B4040", "title": "阿尔伯特峰", "oid": "103:1537435925174", "icon": "moutain", "fontsize": 11, "halo": 0.2, "tyid": "307000", "offset": "[0,2]" }, "geometry": { "type": "Point", "coordinates": [ -106.523438, 39.164141 ] } }
{ "type": "Feature", "tippecanoe": { "layer": "2B8C41D327F01565246322516", "minzoom": 2, "maxzoom": 10 }, "properties": { "color": "#4B4040", "title": "派克峰", "oid": "103:1537435928418", "icon": "moutain", "fontsize": 11, "halo": 0.2, "tyid": "307000", "offset": "[0,2]" }, "geometry": { "type": "Point", "coordinates": [ -105.117188, 38.891033 ] } }
{ "type": "Feature", "tippecanoe": { "layer": "2B8C41D327F01565246322516", "minzoom": 2, "maxzoom": 10 }, "properties": { "color": "#4B4040", "title": "霍普金斯山", "oid": "103:1537435926017", "icon": "moutain", "fontsize": 11, "halo": 0.2, "tyid": "307000", "offset": "[0,2]" }, "geometry": { "type": "Point", "coordinates": [ -110.917969, 31.728167 ] } }
{ "type": "Feature", "tippecanoe": { "layer": "2B8C41D327F01565246322516", "minzoom": 2, "maxzoom": 10 }, "properties": { "color": "#4B4040", "title": "西马德雷山脉", "oid": "103:1537435928594", "icon": "moutain", "fontsize": 11, "halo": 0.2, "tyid": "307000", "offset": "[0,2]" }, "geometry": { "type": "Point", "coordinates": [ -107.050781, 25.958045 ] } }
{ "type": "Feature", "tippecanoe": { "layer": "2B8C41D327F01565246322516", "minzoom": 2, "maxzoom": 10 }, "properties": { "color": "#4B4040", "title": "东马德雷山脉", "oid": "103:1537435924755", "icon": "moutain", "fontsize": 11, "halo": 0.2, "tyid": "307000", "offset": "[0,2]" }, "geometry": { "type": "Point", "coordinates": [ -100.634766, 25.403585 ] } }
{ "type": "Feature", "tippecanoe": { "layer": "2B8C41D327F01565246322516", "minzoom": 2, "maxzoom": 10 }, "properties": { "color": "#4B4040", "title": "科利马火山", "oid": "103:1537435925002", "icon": "moutain", "fontsize": 11, "halo": 0.2, "tyid": "307000", "offset": "[0,2]" }, "geometry": { "type": "Point", "coordinates": [ -103.623047, 19.559790 ] } }
{ "type": "Feature", "tippecanoe": { "layer": "2B8C41D327F01565246322516", "minzoom": 2, "maxzoom": 10 }, "properties": { "color": "#4B4040", "title": "帕里库廷火山", "oid": "103:1537435925702", "icon": "moutain", "fontsize": 11, "halo": 0.2, "tyid": "307000", "offset": "[0,2]" }, "geometry": { "type": "Point", "coordinates": [ -102.304688, 19.559790 ] } }
{ "type": "Feature", "tippecanoe": { "layer": "2B8C41D327F01565246322516", "minzoom": 2, "maxzoom": 10 }, "properties": { "color": "#4B4040", "title": "波波卡特佩特火山", "oid": "103:1537435925840", "icon": "moutain", "fontsize": 11, "halo": 0.2, "tyid": "307000", "offset": "[0,2]" }, "geometry": { "type": "Point", "coordinates": [ -98.701172, 19.062118 ] } }
{ "type": "Feature", "tippecanoe": { "layer": "2B8C41D327F01565246322516", "minzoom": 2, "maxzoom": 10 }, "properties": { "color": "#4B4040", "title": "奥里萨巴山", "oid": "103:1537435925867", "icon": "moutain", "fontsize": 11, "halo": 0.2, "tyid": "307000", "offset": "[0,2]" }, "geometry": { "type": "Point", "coordinates": [ -97.294922, 19.062118 ] } }
{ "type": "Feature", "tippecanoe": { "layer": "2B8C41D327F01565246322516", "minzoom": 2, "maxzoom": 10 }, "properties": { "color": "#4B4040", "title": "拉坎敦山脉", "oid": "103:1537435926257", "icon": "moutain", "fontsize": 11, "halo": 0.2, "tyid": "307000", "offset": "[0,2]" }, "geometry": { "type": "Point", "coordinates": [ -91.142578, 17.224758 ] } }
{ "type": "Feature", "tippecanoe": { "layer": "2B8C41D327F01565246322516", "minzoom": 2, "maxzoom": 10 }, "properties": { "color": "#4B4040", "title": "恰帕斯马德雷山脉", "oid": "103:1537435926265", "icon": "moutain", "fontsize": 11, "halo": 0.2, "tyid": "307000", "offset": "[0,2]" }, "geometry": { "type": "Point", "coordinates": [ -92.636719, 15.538376 ] } }
{ "type": "Feature", "tippecanoe": { "layer": "2B8C41D327F01565246322516", "minzoom": 2, "maxzoom": 10 }, "properties": { "color": "#4B4040", "title": "库丘马塔内斯山脉", "oid": "103:1537435926288", "icon": "moutain", "fontsize": 11, "halo": 0.2, "tyid": "307000", "offset": "[0,2]" }, "geometry": { "type": "Point", "coordinates": [ -91.582031, 15.538376 ] } }
{ "type": "Feature", "tippecanoe": { "layer": "2B8C41D327F01565246322516", "minzoom": 2, "maxzoom": 10 }, "properties": { "color": "#4B4040", "title": "塔胡木耳科火山", "oid": "103:1537435925353", "icon": "moutain", "fontsize": 11, "halo": 0.2, "tyid": "307000", "offset": "[0,2]" }, "geometry": { "type": "Point", "coordinates": [ -91.933594, 15.114553 ] } }
{ "type": "Feature", "tippecanoe": { "layer": "2B8C41D327F01565246322516", "minzoom": 2, "maxzoom": 10 }, "properties": { "color": "#4B4040", "title": "圣地亚古多火山", "oid": "103:1537435925091", "icon": "moutain", "fontsize": 11, "halo": 0.2, "tyid": "307000", "offset": "[0,2]" }, "geometry": { "type": "Point", "coordinates": [ -91.582031, 14.774883 ] } }
{ "type": "Feature", "tippecanoe": { "layer": "2B8C41D327F01565246322516", "minzoom": 2, "maxzoom": 10 }, "properties": { "color": "#4B4040", "title": "丘阿库斯山脉", "oid": "103:1537435926260", "icon": "moutain", "fontsize": 11, "halo": 0.2, "tyid": "307000", "offset": "[0,2]" }, "geometry": { "type": "Point", "coordinates": [ -90.791016, 15.114553 ] } }
{ "type": "Feature", "tippecanoe": { "layer": "2B8C41D327F01565246322516", "minzoom": 2, "maxzoom": 10 }, "properties": { "color": "#4B4040", "title": "富埃戈火山", "oid": "103:1537435925311", "icon": "moutain", "fontsize": 11, "halo": 0.2, "tyid": "307000", "offset": "[0,2]" }, "geometry": { "type": "Point", "coordinates": [ -90.966797, 14.519780 ] } }
{ "type": "Feature", "tippecanoe": { "layer": "2B8C41D327F01565246322516", "minzoom": 2, "maxzoom": 10 }, "properties": { "color": "#4B4040", "title": "帕卡亚火山", "oid": "103:1537435924989", "icon": "moutain", "fontsize": 11, "halo": 0.2, "tyid": "307000", "offset": "[0,2]" }, "geometry": { "type": "Point", "coordinates": [ -90.615234, 14.434680 ] } }
{ "type": "Feature", "tippecanoe": { "layer": "2B8C41D327F01565246322516", "minzoom": 2, "maxzoom": 10 }, "properties": { "color": "#4B4040", "title": "阿斯加德山", "oid": "103:1537435925563", "icon": "moutain", "fontsize": 11, "halo": 0.2, "tyid": "307000", "offset": "[0,2]" }, "geometry": { "type": "Point", "coordinates": [ -65.302734, 66.687784 ] } }
{ "type": "Feature", "tippecanoe": { "layer": "2B8C41D327F01565246322516", "minzoom": 2, "maxzoom": 10 }, "properties": { "color": "#4B4040", "title": "贡比约恩山", "oid": "103:1537435928606", "icon": "moutain", "fontsize": 11, "halo": 0.2, "tyid": "307000", "offset": "[0,2]" }, "geometry": { "type": "Point", "coordinates": [ -29.970703, 68.942607 ] } }
{ "type": "Feature", "tippecanoe": { "layer": "2B8C41D327F01565246322516", "minzoom": 2, "maxzoom": 10 }, "properties": { "color": "#4B4040", "title": "巴林顿山", "oid": "103:1537435924779", "icon": "moutain", "fontsize": 11, "halo": 0.2, "tyid": "307000", "offset": "[0,2]" }, "geometry": { "type": "Point", "coordinates": [ -88.242188, 42.163403 ] } }
{ "type": "Feature", "tippecanoe": { "layer": "2B8C41D327F01565246322516", "minzoom": 2, "maxzoom": 10 }, "properties": { "color": "#4B4040", "title": "阿第伦达克山脉", "oid": "103:1537435924877", "icon": "moutain", "fontsize": 11, "halo": 0.2, "tyid": "307000", "offset": "[0,2]" }, "geometry": { "type": "Point", "coordinates": [ -74.003906, 44.150681 ] } }
{ "type": "Feature", "tippecanoe": { "layer": "2B8C41D327F01565246322516", "minzoom": 2, "maxzoom": 10 }, "properties": { "color": "#4B4040", "title": "比奇山", "oid": "103:1537435928419", "icon": "moutain", "fontsize": 11, "halo": 0.2, "tyid": "307000", "offset": "[0,2]" }, "geometry": { "type": "Point", "coordinates": [ -73.652344, 44.402392 ] } }
{ "type": "Feature", "tippecanoe": { "layer": "2B8C41D327F01565246322516", "minzoom": 2, "maxzoom": 10 }, "properties": { "color": "#4B4040", "title": "卡兹奇山", "oid": "103:1537435928421", "icon": "moutain", "fontsize": 11, "halo": 0.2, "tyid": "307000", "offset": "[0,2]" }, "geometry": { "type": "Point", "coordinates": [ -74.443359, 42.032974 ] } }
{ "type": "Feature", "tippecanoe": { "layer": "2B8C41D327F01565246322516", "minzoom": 2, "maxzoom": 10 }, "properties": { "color": "#4B4040", "title": "洛朗山脉", "oid": "103:1537435928403", "icon": "moutain", "fontsize": 11, "halo": 0.2, "tyid": "307000", "offset": "[0,2]" }, "geometry": { "type": "Point", "coordinates": [ -70.839844, 47.338823 ] } }
{ "type": "Feature", "tippecanoe": { "layer": "2B8C41D327F01565246322516", "minzoom": 2, "maxzoom": 10 }, "properties": { "color": "#4B4040", "title": "绿山山脉", "oid": "103:1537435928423", "icon": "moutain", "fontsize": 11, "halo": 0.2, "tyid": "307000", "offset": "[0,2]" }, "geometry": { "type": "Point", "coordinates": [ -72.597656, 44.840291 ] } }
{ "type": "Feature", "tippecanoe": { "layer": "2B8C41D327F01565246322516", "minzoom": 2, "maxzoom": 10 }, "properties": { "color": "#4B4040", "title": "白山山脉", "oid": "103:1537435928425", "icon": "moutain", "fontsize": 11, "halo": 0.2, "tyid": "307000", "offset": "[0,2]" }, "geometry": { "type": "Point", "coordinates": [ -71.367188, 44.276671 ] } }
{ "type": "Feature", "tippecanoe": { "layer": "2B8C41D327F01565246322516", "minzoom": 2, "maxzoom": 10 }, "properties": { "color": "#4B4040", "title": "华盛顿山", "oid": "103:1537435926565", "icon": "moutain", "fontsize": 11, "halo": 0.2, "tyid": "307000", "offset": "[0,2]" }, "geometry": { "type": "Point", "coordinates": [ -71.367188, 44.276671 ] } }
{ "type": "Feature", "tippecanoe": { "layer": "2B8C41D327F01565246322516", "minzoom": 2, "maxzoom": 10 }, "properties": { "color": "#4B4040", "title": "蒙纳德诺克山", "oid": "103:1537435926545", "icon": "moutain", "fontsize": 11, "halo": 0.2, "tyid": "307000", "offset": "[0,2]" }, "geometry": { "type": "Point", "coordinates": [ -72.158203, 42.875964 ] } }
{ "type": "Feature", "tippecanoe": { "layer": "2B8C41D327F01565246322516", "minzoom": 2, "maxzoom": 10 }, "properties": { "color": "#4B4040", "title": "信号山", "oid": "103:1537435928402", "icon": "moutain", "fontsize": 11, "halo": 0.2, "tyid": "307000", "offset": "[0,2]" }, "geometry": { "type": "Point", "coordinates": [ -52.734375, 47.576526 ] } }
{ "type": "Feature", "tippecanoe": { "layer": "2B8C41D327F01565246322516", "minzoom": 2, "maxzoom": 10 }, "properties": { "color": "#4B4040", "title": "大烟山", "oid": "103:1537435924796", "icon": "moutain", "fontsize": 11, "halo": 0.2, "tyid": "307000", "offset": "[0,2]" }, "geometry": { "type": "Point", "coordinates": [ -83.583984, 35.603719 ] } }
{ "type": "Feature", "tippecanoe": { "layer": "2B8C41D327F01565246322516", "minzoom": 2, "maxzoom": 10 }, "properties": { "color": "#4B4040", "title": "蓝岭山脉", "oid": "103:1537435924880", "icon": "moutain", "fontsize": 11, "halo": 0.2, "tyid": "307000", "offset": "[0,2]" }, "geometry": { "type": "Point", "coordinates": [ -82.265625, 35.817813 ] } }
{ "type": "Feature", "tippecanoe": { "layer": "2B8C41D327F01565246322516", "minzoom": 2, "maxzoom": 10 }, "properties": { "color": "#4B4040", "title": "米切尔峰", "oid": "103:1537435925837", "icon": "moutain", "fontsize": 11, "halo": 0.2, "tyid": "307000", "offset": "[0,2]" }, "geometry": { "type": "Point", "coordinates": [ -82.265625, 35.817813 ] } }
{ "type": "Feature", "tippecanoe": { "layer": "2B8C41D327F01565246322516", "minzoom": 2, "maxzoom": 10 }, "properties": { "color": "#4B4040", "title": "教堂山", "oid": "103:1537435924776", "icon": "moutain", "fontsize": 11, "halo": 0.2, "tyid": "307000", "offset": "[0,2]" }, "geometry": { "type": "Point", "coordinates": [ -79.101562, 35.960223 ] } }
{ "type": "Feature", "tippecanoe": { "layer": "2B8C41D327F01565246322516", "minzoom": 2, "maxzoom": 10 }, "properties": { "color": "#4B4040", "title": "阿巴拉契亚山脉", "oid": "103:1537435924742", "icon": "moutain", "fontsize": 11, "halo": 0.2, "tyid": "307000", "offset": "[0,2]" }, "geometry": { "type": "Point", "coordinates": [ -78.046875, 40.044438 ] } }
{ "type": "Feature", "tippecanoe": { "layer": "2B8C41D327F01565246322516", "minzoom": 2, "maxzoom": 10 }, "properties": { "color": "#4B4040", "title": "圣克鲁斯山脉", "oid": "103:1541669026114", "icon": "moutain", "fontsize": 11, "halo": 0.2, "tyid": "307000", "offset": "[0,2]" }, "geometry": { "type": "Point", "coordinates": [ -89.384766, 15.707663 ] } }
{ "type": "Feature", "tippecanoe": { "layer": "2B8C41D327F01565246322516", "minzoom": 2, "maxzoom": 10 }, "properties": { "color": "#4B4040", "title": "马雅山脉", "oid": "103:1537435926273", "icon": "moutain", "fontsize": 11, "halo": 0.2, "tyid": "307000", "offset": "[0,2]" }, "geometry": { "type": "Point", "coordinates": [ -89.121094, 16.551962 ] } }
{ "type": "Feature", "tippecanoe": { "layer": "2B8C41D327F01565246322516", "minzoom": 2, "maxzoom": 10 }, "properties": { "color": "#4B4040", "title": "拉斯米纳斯山脉", "oid": "103:1537435926261", "icon": "moutain", "fontsize": 11, "halo": 0.2, "tyid": "307000", "offset": "[0,2]" }, "geometry": { "type": "Point", "coordinates": [ -89.736328, 15.199386 ] } }
{ "type": "Feature", "tippecanoe": { "layer": "2B8C41D327F01565246322516", "minzoom": 2, "maxzoom": 10 }, "properties": { "color": "#4B4040", "title": "梅伦东山脉", "oid": "103:1537435926263", "icon": "moutain", "fontsize": 11, "halo": 0.2, "tyid": "307000", "offset": "[0,2]" }, "geometry": { "type": "Point", "coordinates": [ -89.033203, 14.689881 ] } }
{ "type": "Feature", "tippecanoe": { "layer": "2B8C41D327F01565246322516", "minzoom": 2, "maxzoom": 10 }, "properties": { "color": "#4B4040", "title": "埃尔皮塔尔山", "oid": "103:1537435925376", "icon": "moutain", "fontsize": 11, "halo": 0.2, "tyid": "307000", "offset": "[0,2]" }, "geometry": { "type": "Point", "coordinates": [ -89.121094, 14.434680 ] } }
{ "type": "Feature", "tippecanoe": { "layer": "2B8C41D327F01565246322516", "minzoom": 2, "maxzoom": 10 }, "properties": { "color": "#4B4040", "title": "圣安娜火山", "oid": "103:1537435925308", "icon": "moutain", "fontsize": 11, "halo": 0.2, "tyid": "307000", "offset": "[0,2]" }, "geometry": { "type": "Point", "coordinates": [ -89.648438, 13.923404 ] } }
{ "type": "Feature", "tippecanoe": { "layer": "2B8C41D327F01565246322516", "minzoom": 2, "maxzoom": 10 }, "properties": { "color": "#4B4040", "title": "伊萨克火山", "oid": "103:1537435925309", "icon": "moutain", "fontsize": 11, "halo": 0.2, "tyid": "307000", "offset": "[0,2]" }, "geometry": { "type": "Point", "coordinates": [ -89.648438, 13.838080 ] } }
{ "type": "Feature", "tippecanoe": { "layer": "2B8C41D327F01565246322516", "minzoom": 2, "maxzoom": 10 }, "properties": { "color": "#4B4040", "title": "圣米格尔火山", "oid": "103:1537435925885", "icon": "moutain", "fontsize": 11, "halo": 0.2, "tyid": "307000", "offset": "[0,2]" }, "geometry": { "type": "Point", "coordinates": [ -88.330078, 13.496473 ] } }
{ "type": "Feature", "tippecanoe": { "layer": "2B8C41D327F01565246322516", "minzoom": 2, "maxzoom": 10 }, "properties": { "color": "#4B4040", "title": "科西圭纳火山", "oid": "103:1537435925385", "icon": "moutain", "fontsize": 11, "halo": 0.2, "tyid": "307000", "offset": "[0,2]" }, "geometry": { "type": "Point", "coordinates": [ -87.626953, 13.068777 ] } }
{ "type": "Feature", "tippecanoe": { "layer": "2B8C41D327F01565246322516", "minzoom": 2, "maxzoom": 10 }, "properties": { "color": "#4B4040", "title": "圣克里斯托瓦尔火山", "oid": "103:1537435925305", "icon": "moutain", "fontsize": 11, "halo": 0.2, "tyid": "307000", "offset": "[0,2]" }, "geometry": { "type": "Point", "coordinates": [ -87.011719, 12.726084 ] } }
{ "type": "Feature", "tippecanoe": { "layer": "2B8C41D327F01565246322516", "minzoom": 2, "maxzoom": 10 }, "properties": { "color": "#4B4040", "title": "塞罗内格罗火山", "oid": "103:1537435925304", "icon": "moutain", "fontsize": 11, "halo": 0.2, "tyid": "307000", "offset": "[0,2]" }, "geometry": { "type": "Point", "coordinates": [ -86.748047, 12.554564 ] } }
{ "type": "Feature", "tippecanoe": { "layer": "2B8C41D327F01565246322516", "minzoom": 2, "maxzoom": 10 }, "properties": { "color": "#4B4040", "title": "莫莫通博火山", "oid": "103:1537435925061", "icon": "moutain", "fontsize": 11, "halo": 0.2, "tyid": "307000", "offset": "[0,2]" }, "geometry": { "type": "Point", "coordinates": [ -86.572266, 12.468760 ] } }
{ "type": "Feature", "tippecanoe": { "layer": "2B8C41D327F01565246322516", "minzoom": 2, "maxzoom": 10 }, "properties": { "color": "#4B4040", "title": "马萨亚火山", "oid": "103:1537435925387", "icon": "moutain", "fontsize": 11, "halo": 0.2, "tyid": "307000", "offset": "[0,2]" }, "geometry": { "type": "Point", "coordinates": [ -86.220703, 12.039321 ] } }
{ "type": "Feature", "tippecanoe": { "layer": "2B8C41D327F01565246322516", "minzoom": 2, "maxzoom": 10 }, "properties": { "color": "#4B4040", "title": "康塞普西翁火山", "oid": "103:1537435925307", "icon": "moutain", "fontsize": 11, "halo": 0.2, "tyid": "307000", "offset": "[0,2]" }, "geometry": { "type": "Point", "coordinates": [ -85.693359, 11.609193 ] } }
{ "type": "Feature", "tippecanoe": { "layer": "2B8C41D327F01565246322516", "minzoom": 2, "maxzoom": 10 }, "properties": { "color": "#4B4040", "title": "马德拉斯火山", "oid": "103:1537435924940", "icon": "moutain", "fontsize": 11, "halo": 0.2, "tyid": "307000", "offset": "[0,2]" }, "geometry": { "type": "Point", "coordinates": [ -85.517578, 11.523088 ] } }
{ "type": "Feature", "tippecanoe": { "layer": "2B8C41D327F01565246322516", "minzoom": 2, "maxzoom": 10 }, "properties": { "color": "#4B4040", "title": "瓜纳卡斯特山脉", "oid": "103:1537435926361", "icon": "moutain", "fontsize": 11, "halo": 0.2, "tyid": "307000", "offset": "[0,2]" }, "geometry": { "type": "Point", "coordinates": [ -85.166016, 10.833306 ] } }
{ "type": "Feature", "tippecanoe": { "layer": "2B8C41D327F01565246322516", "minzoom": 2, "maxzoom": 10 }, "properties": { "color": "#4B4040", "title": "阿雷纳尔火山", "oid": "103:1537435925300", "icon": "moutain", "fontsize": 11, "halo": 0.2, "tyid": "307000", "offset": "[0,2]" }, "geometry": { "type": "Point", "coordinates": [ -84.726562, 10.487812 ] } }
{ "type": "Feature", "tippecanoe": { "layer": "2B8C41D327F01565246322516", "minzoom": 2, "maxzoom": 10 }, "properties": { "color": "#4B4040", "title": "波阿斯火山", "oid": "103:1537435925303", "icon": "moutain", "fontsize": 11, "halo": 0.2, "tyid": "307000", "offset": "[0,2]" }, "geometry": { "type": "Point", "coordinates": [ -84.287109, 10.228437 ] } }
{ "type": "Feature", "tippecanoe": { "layer": "2B8C41D327F01565246322516", "minzoom": 2, "maxzoom": 10 }, "properties": { "color": "#4B4040", "title": "伊拉苏火山", "oid": "103:1537435925906", "icon": "moutain", "fontsize": 11, "halo": 0.2, "tyid": "307000", "offset": "[0,2]" }, "geometry": { "type": "Point", "coordinates": [ -83.935547, 10.055403 ] } }
{ "type": "Feature", "tippecanoe": { "layer": "2B8C41D327F01565246322516", "minzoom": 2, "maxzoom": 10 }, "properties": { "color": "#4B4040", "title": "图里亚尔瓦火山", "oid": "103:1537435925301", "icon": "moutain", "fontsize": 11, "halo": 0.2, "tyid": "307000", "offset": "[0,2]" }, "geometry": { "type": "Point", "coordinates": [ -83.847656, 10.055403 ] } }
{ "type": "Feature", "tippecanoe": { "layer": "2B8C41D327F01565246322516", "minzoom": 2, "maxzoom": 10 }, "properties": { "color": "#4B4040", "title": "塔拉曼卡山脉", "oid": "103:1537435924799", "icon": "moutain", "fontsize": 11, "halo": 0.2, "tyid": "307000", "offset": "[0,2]" }, "geometry": { "type": "Point", "coordinates": [ -83.671875, 9.535749 ] } }
{ "type": "Feature", "tippecanoe": { "layer": "2B8C41D327F01565246322516", "minzoom": 2, "maxzoom": 10 }, "properties": { "color": "#4B4040", "title": "奇里波峰", "oid": "103:1537435925025", "icon": "moutain", "fontsize": 11, "halo": 0.2, "tyid": "307000", "offset": "[0,2]" }, "geometry": { "type": "Point", "coordinates": [ -83.496094, 9.535749 ] } }
{ "type": "Feature", "tippecanoe": { "layer": "2B8C41D327F01565246322516", "minzoom": 2, "maxzoom": 10 }, "properties": { "color": "#4B4040", "title": "奇里基火山", "oid": "103:1537435925134", "icon": "moutain", "fontsize": 11, "halo": 0.2, "tyid": "307000", "offset": "[0,2]" }, "geometry": { "type": "Point", "coordinates": [ -82.617188, 8.841651 ] } }
{ "type": "Feature", "tippecanoe": { "layer": "2B8C41D327F01565246322516", "minzoom": 2, "maxzoom": 10 }, "properties": { "color": "#4B4040", "title": "拉耶瓜达火山", "oid": "103:1537435925384", "icon": "moutain", "fontsize": 11, "halo": 0.2, "tyid": "307000", "offset": "[0,2]" }, "geometry": { "type": "Point", "coordinates": [ -80.859375, 8.494105 ] } }
{ "type": "Feature", "tippecanoe": { "layer": "2B8C41D327F01565246322516", "minzoom": 2, "maxzoom": 10 }, "properties": { "color": "#4B4040", "title": "埃尔巴耶火山", "oid": "103:1537435926138", "icon": "moutain", "fontsize": 11, "halo": 0.2, "tyid": "307000", "offset": "[0,2]" }, "geometry": { "type": "Point", "coordinates": [ -80.244141, 8.581021 ] } }
{ "type": "Feature", "tippecanoe": { "layer": "2B8C41D327F01565246322516", "minzoom": 2, "maxzoom": 10 }, "properties": { "color": "#4B4040", "title": "图基诺峰", "oid": "103:1537435925008", "icon": "moutain", "fontsize": 11, "halo": 0.2, "tyid": "307000", "offset": "[0,2]" }, "geometry": { "type": "Point", "coordinates": [ -76.904297, 20.055931 ] } }
{ "type": "Feature", "tippecanoe": { "layer": "2B8C41D327F01565246322516", "minzoom": 2, "maxzoom": 10 }, "properties": { "color": "#4B4040", "title": "蓝山", "oid": "103:1537435924906", "icon": "moutain", "fontsize": 11, "halo": 0.2, "tyid": "307000", "offset": "[0,2]" }, "geometry": { "type": "Point", "coordinates": [ -76.728516, 18.145852 ] } }
{ "type": "Feature", "tippecanoe": { "layer": "2B8C41D327F01565246322516", "minzoom": 2, "maxzoom": 10 }, "properties": { "color": "#4B4040", "title": "杜阿尔特峰", "oid": "103:1537435925137", "icon": "moutain", "fontsize": 11, "halo": 0.2, "tyid": "307000", "offset": "[0,2]" }, "geometry": { "type": "Point", "coordinates": [ -71.015625, 19.062118 ] } }
{ "type": "Feature", "tippecanoe": { "layer": "2B8C41D327F01565246322516", "minzoom": 2, "maxzoom": 10 }, "properties": { "color": "#4B4040", "title": "马库伊拉山脉", "oid": "103:1537435926415", "icon": "moutain", "fontsize": 11, "halo": 0.2, "tyid": "307000", "offset": "[0,2]" }, "geometry": { "type": "Point", "coordinates": [ -71.367188, 12.211180 ] } }
{ "type": "Feature", "tippecanoe": { "layer": "2B8C41D327F01565246322516", "minzoom": 2, "maxzoom": 10 }, "properties": { "color": "#4B4040", "title": "达连山脉", "oid": "103:1537435926299", "icon": "moutain", "fontsize": 11, "halo": 0.2, "tyid": "307000", "offset": "[0,2]" }, "geometry": { "type": "Point", "coordinates": [ -77.343750, 8.233237 ] } }
{ "type": "Feature", "tippecanoe": { "layer": "2B8C41D327F01565246322516", "minzoom": 2, "maxzoom": 10 }, "properties": { "color": "#4B4040", "title": "圣玛尔塔内华达山脉", "oid": "103:1537435925230", "icon": "moutain", "fontsize": 11, "halo": 0.2, "tyid": "307000", "offset": "[0,2]" }, "geometry": { "type": "Point", "coordinates": [ -73.740234, 10.919618 ] } }
{ "type": "Feature", "tippecanoe": { "layer": "2B8C41D327F01565246322516", "minzoom": 2, "maxzoom": 10 }, "properties": { "color": "#4B4040", "title": "哥伦布峰", "oid": "103:1537435925010", "icon": "moutain", "fontsize": 11, "halo": 0.2, "tyid": "307000", "offset": "[0,2]" }, "geometry": { "type": "Point", "coordinates": [ -73.740234, 10.919618 ] } }
{ "type": "Feature", "tippecanoe": { "layer": "2B8C41D327F01565246322516", "minzoom": 2, "maxzoom": 10 }, "properties": { "color": "#4B4040", "title": "瓜塔佩巨岩", "oid": "103:1537435926148", "icon": "moutain", "fontsize": 11, "halo": 0.2, "tyid": "307000", "offset": "[0,2]" }, "geometry": { "type": "Point", "coordinates": [ -75.234375, 6.227934 ] } }
{ "type": "Feature", "tippecanoe": { "layer": "2B8C41D327F01565246322516", "minzoom": 2, "maxzoom": 10 }, "properties": { "color": "#4B4040", "title": "圣卢卡斯山脉", "oid": "103:1537435927840", "icon": "moutain", "fontsize": 11, "halo": 0.2, "tyid": "307000", "offset": "[0,2]" }, "geometry": { "type": "Point", "coordinates": [ -74.267578, 7.710992 ] } }
{ "type": "Feature", "tippecanoe": { "layer": "2B8C41D327F01565246322516", "minzoom": 2, "maxzoom": 10 }, "properties": { "color": "#4B4040", "title": "内瓦多·德·乌伊拉火山", "oid": "103:1537435928520", "icon": "moutain", "fontsize": 11, "halo": 0.2, "tyid": "307000", "offset": "[0,2]" }, "geometry": { "type": "Point", "coordinates": [ -76.113281, 2.986927 ] } }
{ "type": "Feature", "tippecanoe": { "layer": "2B8C41D327F01565246322516", "minzoom": 2, "maxzoom": 10 }, "properties": { "color": "#4B4040", "title": "阿苏夫拉尔火山", "oid": "103:1537435926184", "icon": "moutain", "fontsize": 11, "halo": 0.2, "tyid": "307000", "offset": "[0,2]" }, "geometry": { "type": "Point", "coordinates": [ -77.695312, 1.142502 ] } }
{ "type": "Feature", "tippecanoe": { "layer": "2B8C41D327F01565246322516", "minzoom": 2, "maxzoom": 10 }, "properties": { "color": "#4B4040", "title": "加勒拉斯火山", "oid": "103:1537435925004", "icon": "moutain", "fontsize": 11, "halo": 0.2, "tyid": "307000", "offset": "[0,2]" }, "geometry": { "type": "Point", "coordinates": [ -77.431641, 1.230374 ] } }
{ "type": "Feature", "tippecanoe": { "layer": "2B8C41D327F01565246322516", "minzoom": 2, "maxzoom": 10 }, "properties": { "color": "#4B4040", "title": "卡扬贝火山", "oid": "103:1537435925085", "icon": "moutain", "fontsize": 11, "halo": 0.2, "tyid": "307000", "offset": "[0,2]" }, "geometry": { "type": "Point", "coordinates": [ -78.046875, 0.087891 ] } }
{ "type": "Feature", "tippecanoe": { "layer": "2B8C41D327F01565246322516", "minzoom": 2, "maxzoom": 10 }, "properties": { "color": "#4B4040", "title": "平切山脉", "oid": "103:1537435927794", "icon": "moutain", "fontsize": 11, "halo": 0.2, "tyid": "307000", "offset": "[0,2]" }, "geometry": { "type": "Point", "coordinates": [ -77.343750, 2.372369 ] } }
{ "type": "Feature", "tippecanoe": { "layer": "2B8C41D327F01565246322516", "minzoom": 2, "maxzoom": 10 }, "properties": { "color": "#4B4040", "title": "哥伦比亚山", "oid": "103:1537435927923", "icon": "moutain", "fontsize": 11, "halo": 0.2, "tyid": "307000", "offset": "[0,2]" }, "geometry": { "type": "Point", "coordinates": [ -76.552734, 1.757537 ] } }
{ "type": "Feature", "tippecanoe": { "layer": "2B8C41D327F01565246322516", "minzoom": 2, "maxzoom": 10 }, "properties": { "color": "#4B4040", "title": "锡斯内火山", "oid": "103:1537435926179", "icon": "moutain", "fontsize": 11, "halo": 0.2, "tyid": "307000", "offset": "[0,2]" }, "geometry": { "type": "Point", "coordinates": [ -75.498047, 4.915833 ] } }
{ "type": "Feature", "tippecanoe": { "layer": "2B8C41D327F01565246322516", "minzoom": 2, "maxzoom": 10 }, "properties": { "color": "#4B4040", "title": "内瓦多·德·鲁伊斯火山", "oid": "103:1537435928521", "icon": "moutain", "fontsize": 11, "halo": 0.2, "tyid": "307000", "offset": "[0,2]" }, "geometry": { "type": "Point", "coordinates": [ -75.410156, 4.915833 ] } }
{ "type": "Feature", "tippecanoe": { "layer": "2B8C41D327F01565246322516", "minzoom": 2, "maxzoom": 10 }, "properties": { "color": "#4B4040", "title": "金迪奥火山", "oid": "103:1537435926182", "icon": "moutain", "fontsize": 11, "halo": 0.2, "tyid": "307000", "offset": "[0,2]" }, "geometry": { "type": "Point", "coordinates": [ -75.410156, 4.740675 ] } }
{ "type": "Feature", "tippecanoe": { "layer": "2B8C41D327F01565246322516", "minzoom": 2, "maxzoom": 10 }, "properties": { "color": "#4B4040", "title": "马钦火山", "oid": "103:1537435926186", "icon": "moutain", "fontsize": 11, "halo": 0.2, "tyid": "307000", "offset": "[0,2]" }, "geometry": { "type": "Point", "coordinates": [ -75.410156, 4.565474 ] } }
{ "type": "Feature", "tippecanoe": { "layer": "2B8C41D327F01565246322516", "minzoom": 2, "maxzoom": 10 }, "properties": { "color": "#4B4040", "title": "马卡雷纳山脉", "oid": "103:1537435926427", "icon": "moutain", "fontsize": 11, "halo": 0.2, "tyid": "307000", "offset": "[0,2]" }, "geometry": { "type": "Point", "coordinates": [ -73.916016, 2.372369 ] } }
{ "type": "Feature", "tippecanoe": { "layer": "2B8C41D327F01565246322516", "minzoom": 2, "maxzoom": 10 }, "properties": { "color": "#4B4040", "title": "佩里哈山脉", "oid": "103:1537435927960", "icon": "moutain", "fontsize": 11, "halo": 0.2, "tyid": "307000", "offset": "[0,2]" }, "geometry": { "type": "Point", "coordinates": [ -73.037109, 10.055403 ] } }
{ "type": "Feature", "tippecanoe": { "layer": "2B8C41D327F01565246322516", "minzoom": 2, "maxzoom": 10 }, "properties": { "color": "#4B4040", "title": "埃尔莱翁山", "oid": "103:1537435928105", "icon": "moutain", "fontsize": 11, "halo": 0.2, "tyid": "307000", "offset": "[0,2]" }, "geometry": { "type": "Point", "coordinates": [ -71.103516, 8.581021 ] } }
{ "type": "Feature", "tippecanoe": { "layer": "2B8C41D327F01565246322516", "minzoom": 2, "maxzoom": 10 }, "properties": { "color": "#4B4040", "title": "埃斯佩霍山", "oid": "103:1537435928096", "icon": "moutain", "fontsize": 11, "halo": 0.2, "tyid": "307000", "offset": "[0,2]" }, "geometry": { "type": "Point", "coordinates": [ -71.103516, 8.581021 ] } }
{ "type": "Feature", "tippecanoe": { "layer": "2B8C41D327F01565246322516", "minzoom": 2, "maxzoom": 10 }, "properties": { "color": "#4B4040", "title": "玻利瓦尔峰", "oid": "103:1537435925226", "icon": "moutain", "fontsize": 11, "halo": 0.2, "tyid": "307000", "offset": "[0,2]" }, "geometry": { "type": "Point", "coordinates": [ -71.103516, 8.581021 ] } }
{ "type": "Feature", "tippecanoe": { "layer": "2B8C41D327F01565246322516", "minzoom": 2, "maxzoom": 10 }, "properties": { "color": "#4B4040", "title": "拉孔查山", "oid": "103:1537435928073", "icon": "moutain", "fontsize": 11, "halo": 0.2, "tyid": "307000", "offset": "[0,2]" }, "geometry": { "type": "Point", "coordinates": [ -71.103516, 8.581021 ] } }
{ "type": "Feature", "tippecanoe": { "layer": "2B8C41D327F01565246322516", "minzoom": 2, "maxzoom": 10 }, "properties": { "color": "#4B4040", "title": "邦普朗峰", "oid": "103:1537435925227", "icon": "moutain", "fontsize": 11, "halo": 0.2, "tyid": "307000", "offset": "[0,2]" }, "geometry": { "type": "Point", "coordinates": [ -71.103516, 8.581021 ] } }
{ "type": "Feature", "tippecanoe": { "layer": "2B8C41D327F01565246322516", "minzoom": 2, "maxzoom": 10 }, "properties": { "color": "#4B4040", "title": "埃拉吉拉山", "oid": "103:1537435928134", "icon": "moutain", "fontsize": 11, "halo": 0.2, "tyid": "307000", "offset": "[0,2]" }, "geometry": { "type": "Point", "coordinates": [ -70.839844, 8.928487 ] } }
{ "type": "Feature", "tippecanoe": { "layer": "2B8C41D327F01565246322516", "minzoom": 2, "maxzoom": 10 }, "properties": { "color": "#4B4040", "title": "梅里达山脉", "oid": "103:1537435926473", "icon": "moutain", "fontsize": 11, "halo": 0.2, "tyid": "307000", "offset": "[0,2]" }, "geometry": { "type": "Point", "coordinates": [ -71.015625, 8.667918 ] } }
{ "type": "Feature", "tippecanoe": { "layer": "2B8C41D327F01565246322516", "minzoom": 2, "maxzoom": 10 }, "properties": { "color": "#4B4040", "title": "梅里达内华达山脉", "oid": "103:1537435924791", "icon": "moutain", "fontsize": 11, "halo": 0.2, "tyid": "307000", "offset": "[0,2]" }, "geometry": { "type": "Point", "coordinates": [ -71.015625, 8.581021 ] } }
{ "type": "Feature", "tippecanoe": { "layer": "2B8C41D327F01565246322516", "minzoom": 2, "maxzoom": 10 }, "properties": { "color": "#4B4040", "title": "洪保德峰", "oid": "103:1537435925228", "icon": "moutain", "fontsize": 11, "halo": 0.2, "tyid": "307000", "offset": "[0,2]" }, "geometry": { "type": "Point", "coordinates": [ -71.015625, 8.581021 ] } }
{ "type": "Feature", "tippecanoe": { "layer": "2B8C41D327F01565246322516", "minzoom": 2, "maxzoom": 10 }, "properties": { "color": "#4B4040", "title": "白里塔库巴峰", "oid": "103:1537435926183", "icon": "moutain", "fontsize": 11, "halo": 0.2, "tyid": "307000", "offset": "[0,2]" }, "geometry": { "type": "Point", "coordinates": [ -72.333984, 6.577303 ] } }
{ "type": "Feature", "tippecanoe": { "layer": "2B8C41D327F01565246322516", "minzoom": 2, "maxzoom": 10 }, "properties": { "color": "#4B4040", "title": "科奎内华达山", "oid": "103:1537435926180", "icon": "moutain", "fontsize": 11, "halo": 0.2, "tyid": "307000", "offset": "[0,2]" }, "geometry": { "type": "Point", "coordinates": [ -72.333984, 6.489983 ] } }
{ "type": "Feature", "tippecanoe": { "layer": "2B8C41D327F01565246322516", "minzoom": 2, "maxzoom": 10 }, "properties": { "color": "#4B4040", "title": "埃尔托雷山", "oid": "103:1537435928051", "icon": "moutain", "fontsize": 11, "halo": 0.2, "tyid": "307000", "offset": "[0,2]" }, "geometry": { "type": "Point", "coordinates": [ -71.279297, 8.407168 ] } }
{ "type": "Feature", "tippecanoe": { "layer": "2B8C41D327F01565246322516", "minzoom": 2, "maxzoom": 10 }, "properties": { "color": "#4B4040", "title": "昌色斯峰", "oid": "103:1537435925352", "icon": "moutain", "fontsize": 11, "halo": 0.2, "tyid": "307000", "offset": "[0,2]" }, "geometry": { "type": "Point", "coordinates": [ -62.226562, 16.720385 ] } }
{ "type": "Feature", "tippecanoe": { "layer": "2B8C41D327F01565246322516", "minzoom": 2, "maxzoom": 10 }, "properties": { "color": "#4B4040", "title": "培雷火山", "oid": "103:1537435926154", "icon": "moutain", "fontsize": 11, "halo": 0.2, "tyid": "307000", "offset": "[0,2]" }, "geometry": { "type": "Point", "coordinates": [ -61.171875, 14.859850 ] } }
{ "type": "Feature", "tippecanoe": { "layer": "2B8C41D327F01565246322516", "minzoom": 2, "maxzoom": 10 }, "properties": { "color": "#4B4040", "title": "皮通山", "oid": "103:1537435924823", "icon": "moutain", "fontsize": 11, "halo": 0.2, "tyid": "307000", "offset": "[0,2]" }, "geometry": { "type": "Point", "coordinates": [ -61.083984, 13.838080 ] } }
{ "type": "Feature", "tippecanoe": { "layer": "2B8C41D327F01565246322516", "minzoom": 2, "maxzoom": 10 }, "properties": { "color": "#4B4040", "title": "委内瑞拉海岸山脉", "oid": "103:1537435928104", "icon": "moutain", "fontsize": 11, "halo": 0.2, "tyid": "307000", "offset": "[0,2]" }, "geometry": { "type": "Point", "coordinates": [ -65.039062, 10.055403 ] } }
{ "type": "Feature", "tippecanoe": { "layer": "2B8C41D327F01565246322516", "minzoom": 2, "maxzoom": 10 }, "properties": { "color": "#4B4040", "title": "内布利纳峰", "oid": "103:1537435924920", "icon": "moutain", "fontsize": 11, "halo": 0.2, "tyid": "307000", "offset": "[0,2]" }, "geometry": { "type": "Point", "coordinates": [ -66.093750, 0.878872 ] } }
{ "type": "Feature", "tippecanoe": { "layer": "2B8C41D327F01565246322516", "minzoom": 2, "maxzoom": 10 }, "properties": { "color": "#4B4040", "title": "三月三十一日峰", "oid": "103:1537435926544", "icon": "moutain", "fontsize": 11, "halo": 0.2, "tyid": "307000", "offset": "[0,2]" }, "geometry": { "type": "Point", "coordinates": [ -66.005859, 0.878872 ] } }
{ "type": "Feature", "tippecanoe": { "layer": "2B8C41D327F01565246322516", "minzoom": 2, "maxzoom": 10 }, "properties": { "color": "#4B4040", "title": "帕里马山脉", "oid": "103:1537435926306", "icon": "moutain", "fontsize": 11, "halo": 0.2, "tyid": "307000", "offset": "[0,2]" }, "geometry": { "type": "Point", "coordinates": [ -64.335938, 3.513421 ] } }
{ "type": "Feature", "tippecanoe": { "layer": "2B8C41D327F01565246322516", "minzoom": 2, "maxzoom": 10 }, "properties": { "color": "#4B4040", "title": "帕卡赖马山脉", "oid": "103:1537435928663", "icon": "moutain", "fontsize": 11, "halo": 0.2, "tyid": "307000", "offset": "[0,2]" }, "geometry": { "type": "Point", "coordinates": [ -61.083984, 5.003394 ] } }
{ "type": "Feature", "tippecanoe": { "layer": "2B8C41D327F01565246322516", "minzoom": 2, "maxzoom": 10 }, "properties": { "color": "#4B4040", "title": "罗赖马山", "oid": "103:1537435926016", "icon": "moutain", "fontsize": 11, "halo": 0.2, "tyid": "307000", "offset": "[0,2]" }, "geometry": { "type": "Point", "coordinates": [ -60.820312, 5.178482 ] } }
{ "type": "Feature", "tippecanoe": { "layer": "2B8C41D327F01565246322516", "minzoom": 2, "maxzoom": 10 }, "properties": { "color": "#4B4040", "title": "巴克赫伊斯山", "oid": "103:1537435924864", "icon": "moutain", "fontsize": 11, "halo": 0.2, "tyid": "307000", "offset": "[0,2]" }, "geometry": { "type": "Point", "coordinates": [ -56.777344, 4.390229 ] } }
{ "type": "Feature", "tippecanoe": { "layer": "2B8C41D327F01565246322516", "minzoom": 2, "maxzoom": 10 }, "properties": { "color": "#4B4040", "title": "土木库马奎山脉", "oid": "103:1537435928636", "icon": "moutain", "fontsize": 11, "halo": 0.2, "tyid": "307000", "offset": "[0,2]" }, "geometry": { "type": "Point", "coordinates": [ -55.019531, 2.372369 ] } }
{ "type": "Feature", "tippecanoe": { "layer": "2B8C41D327F01565246322516", "minzoom": 2, "maxzoom": 10 }, "properties": { "color": "#4B4040", "title": "斯奈菲尔火山", "oid": "103:1537435925550", "icon": "moutain", "fontsize": 11, "halo": 0.2, "tyid": "307000", "offset": "[0,2]" }, "geometry": { "type": "Point", "coordinates": [ -23.818359, 64.811557 ] } }
{ "type": "Feature", "tippecanoe": { "layer": "2B8C41D327F01565246322516", "minzoom": 2, "maxzoom": 10 }, "properties": { "color": "#4B4040", "title": "特勒德拉火山", "oid": "103:1537435925570", "icon": "moutain", "fontsize": 11, "halo": 0.2, "tyid": "307000", "offset": "[0,2]" }, "geometry": { "type": "Point", "coordinates": [ -17.314453, 64.923542 ] } }
{ "type": "Feature", "tippecanoe": { "layer": "2B8C41D327F01565246322516", "minzoom": 2, "maxzoom": 10 }, "properties": { "color": "#4B4040", "title": "巴达本加火山", "oid": "103:1537435925139", "icon": "moutain", "fontsize": 11, "halo": 0.2, "tyid": "307000", "offset": "[0,2]" }, "geometry": { "type": "Point", "coordinates": [ -17.578125, 64.661517 ] } }
{ "type": "Feature", "tippecanoe": { "layer": "2B8C41D327F01565246322516", "minzoom": 2, "maxzoom": 10 }, "properties": { "color": "#4B4040", "title": "格里姆火山", "oid": "103:1537435925984", "icon": "moutain", "fontsize": 11, "halo": 0.2, "tyid": "307000", "offset": "[0,2]" }, "geometry": { "type": "Point", "coordinates": [ -17.402344, 64.434892 ] } }
{ "type": "Feature", "tippecanoe": { "layer": "2B8C41D327F01565246322516", "minzoom": 2, "maxzoom": 10 }, "properties": { "color": "#4B4040", "title": "海克拉火山", "oid": "103:1537435925535", "icon": "moutain", "fontsize": 11, "halo": 0.2, "tyid": "307000", "offset": "[0,2]" }, "geometry": { "type": "Point", "coordinates": [ -19.775391, 64.014496 ] } }
{ "type": "Feature", "tippecanoe": { "layer": "2B8C41D327F01565246322516", "minzoom": 2, "maxzoom": 10 }, "properties": { "color": "#4B4040", "title": "卡特拉火山", "oid": "103:1537435925566", "icon": "moutain", "fontsize": 11, "halo": 0.2, "tyid": "307000", "offset": "[0,2]" }, "geometry": { "type": "Point", "coordinates": [ -19.072266, 63.665760 ] } }
{ "type": "Feature", "tippecanoe": { "layer": "2B8C41D327F01565246322516", "minzoom": 2, "maxzoom": 10 }, "properties": { "color": "#4B4040", "title": "拉基火山", "oid": "103:1537435925073", "icon": "moutain", "fontsize": 11, "halo": 0.2, "tyid": "307000", "offset": "[0,2]" }, "geometry": { "type": "Point", "coordinates": [ -18.281250, 64.091408 ] } }
{ "type": "Feature", "tippecanoe": { "layer": "2B8C41D327F01565246322516", "minzoom": 2, "maxzoom": 10 }, "properties": { "color": "#4B4040", "title": "克拉夫拉火山", "oid": "103:1537435924970", "icon": "moutain", "fontsize": 11, "halo": 0.2, "tyid": "307000", "offset": "[0,2]" }, "geometry": { "type": "Point", "coordinates": [ -16.787109, 65.766727 ] } }
{ "type": "Feature", "tippecanoe": { "layer": "2B8C41D327F01565246322516", "minzoom": 2, "maxzoom": 10 },