{ "type": "Feature", "tippecanoe": { "layer": "7F5D85A045F81585558552049", "minzoom": 2, "maxzoom": 8 }, "properties": { "title": "群岛王国", "color": "#202020", "oid": "103:1585278503834", "tyid": "304000", "fontsize": 12, "halo": 0.8 }, "geometry": { "type": "Point", "coordinates": [ -6.591797, 58.263287 ] } }
{ "type": "Feature", "tippecanoe": { "layer": "7F5D85A045F81585558552049", "minzoom": 2, "maxzoom": 8 }, "properties": { "title": "埃里克王国", "color": "#202020", "oid": "103:1585278503828", "tyid": "304000", "fontsize": 12, "halo": 0.8 }, "geometry": { "type": "Point", "coordinates": [ -7.470703, 54.775346 ] } }
{ "type": "Feature", "tippecanoe": { "layer": "7F5D85A045F81585558552049", "minzoom": 2, "maxzoom": 8 }, "properties": { "title": "纳瓦拉王国", "color": "#202020", "oid": "103:1585278503818", "tyid": "304000", "fontsize": 12, "halo": 0.8 }, "geometry": { "type": "Point", "coordinates": [ -2.109375, 42.940339 ] } }
{ "type": "Feature", "tippecanoe": { "layer": "7F5D85A045F81585558552049", "minzoom": 2, "maxzoom": 8 }, "properties": { "title": "奇穆王国", "color": "#202020", "oid": "103:1585278503794", "tyid": "304000", "fontsize": 12, "halo": 0.8 }, "geometry": { "type": "Point", "coordinates": [ -79.189453, -7.188101 ] } }
{ "type": "Feature", "tippecanoe": { "layer": "7F5D85A045F81585558552049", "minzoom": 2, "maxzoom": 8 }, "properties": { "title": "荷兰伯国", "color": "#202020", "oid": "103:1585278503833", "tyid": "304000", "fontsize": 12, "halo": 0.8 }, "geometry": { "type": "Point", "coordinates": [ 4.658203, 52.052490 ] } }
{ "type": "Feature", "tippecanoe": { "layer": "7F5D85A045F81585558552049", "minzoom": 2, "maxzoom": 8 }, "properties": { "title": "布拉班特公国", "color": "#202020", "oid": "103:1585278503822", "tyid": "304000", "fontsize": 12, "halo": 0.8 }, "geometry": { "type": "Point", "coordinates": [ 4.746094, 51.069017 ] } }
{ "type": "Feature", "tippecanoe": { "layer": "7F5D85A045F81585558552049", "minzoom": 2, "maxzoom": 8 }, "properties": { "title": "普罗旺斯伯国", "color": "#202020", "oid": "103:1585278503848", "tyid": "304000", "fontsize": 12, "halo": 0.8 }, "geometry": { "type": "Point", "coordinates": [ 6.064453, 43.516689 ] } }
{ "type": "Feature", "tippecanoe": { "layer": "7F5D85A045F81585558552049", "minzoom": 2, "maxzoom": 8 }, "properties": { "title": "热那亚共和国", "color": "#202020", "oid": "103:1585278503847", "tyid": "304000", "fontsize": 12, "halo": 0.8 }, "geometry": { "type": "Point", "coordinates": [ 7.822266, 44.087585 ] } }
{ "type": "Feature", "tippecanoe": { "layer": "7F5D85A045F81585558552049", "minzoom": 2, "maxzoom": 8 }, "properties": { "title": "比萨共和国", "color": "#202020", "oid": "103:1585278503831", "tyid": "304000", "fontsize": 12, "halo": 0.8 }, "geometry": { "type": "Point", "coordinates": [ 9.052734, 42.358544 ] } }
{ "type": "Feature", "tippecanoe": { "layer": "7F5D85A045F81585558552049", "minzoom": 2, "maxzoom": 8 }, "properties": { "title": "哈曼穆申亲王国", "color": "#202020", "oid": "103:1585278503943", "tyid": "304000", "fontsize": 12, "halo": 0.8 }, "geometry": { "type": "Point", "coordinates": [ 40.869141, 41.046217 ] } }
{ "type": "Feature", "tippecanoe": { "layer": "7F5D85A045F81585558552049", "minzoom": 2, "maxzoom": 8 }, "properties": { "title": "阿波利亚王国", "color": "#202020", "oid": "103:1585278503746", "tyid": "304000", "fontsize": 12, "halo": 0.8 }, "geometry": { "type": "Point", "coordinates": [ 8.789062, 39.909736 ] } }
{ "type": "Feature", "tippecanoe": { "layer": "7F5D85A045F81585558552049", "minzoom": 2, "maxzoom": 8 }, "properties": { "title": "雅典公国", "color": "#202020", "oid": "103:1535120129159", "tyid": "304000", "fontsize": 12, "halo": 0.8 }, "geometry": { "type": "Point", "coordinates": [ 23.027344, 38.410558 ] } }
{ "type": "Feature", "tippecanoe": { "layer": "7F5D85A045F81585558552049", "minzoom": 2, "maxzoom": 8 }, "properties": { "title": "爱琴群岛公国", "color": "#202020", "oid": "103:1585278503871", "tyid": "304000", "fontsize": 12, "halo": 0.8 }, "geometry": { "type": "Point", "coordinates": [ 25.400391, 37.090240 ] } }
{ "type": "Feature", "tippecanoe": { "layer": "7F5D85A045F81585558552049", "minzoom": 2, "maxzoom": 8 }, "properties": { "title": "塞浦路斯王国", "color": "#202020", "oid": "103:1535120129179", "tyid": "304000", "fontsize": 12, "halo": 0.8 }, "geometry": { "type": "Point", "coordinates": [ 33.134766, 35.101934 ] } }
{ "type": "Feature", "tippecanoe": { "layer": "7F5D85A045F81585558552049", "minzoom": 2, "maxzoom": 8 }, "properties": { "title": "迪夫里伊的门居切克贝伊国", "color": "#202020", "oid": "103:1585278503921", "tyid": "304000", "fontsize": 12, "halo": 0.8 }, "geometry": { "type": "Point", "coordinates": [ 37.968750, 39.436193 ] } }
{ "type": "Feature", "tippecanoe": { "layer": "7F5D85A045F81585558552049", "minzoom": 2, "maxzoom": 8 }, "properties": { "title": "安条克公国", "color": "#202020", "oid": "103:1535120129187", "tyid": "304000", "fontsize": 12, "halo": 0.8 }, "geometry": { "type": "Point", "coordinates": [ 36.210938, 36.315125 ] } }
{ "type": "Feature", "tippecanoe": { "layer": "7F5D85A045F81585558552049", "minzoom": 2, "maxzoom": 8 }, "properties": { "title": "尼扎里伊思马里国[叙利亚]", "color": "#202020", "oid": "103:1585278503762", "tyid": "304000", "fontsize": 12, "halo": 0.8 }, "geometry": { "type": "Point", "coordinates": [ 36.210938, 35.317366 ] } }
{ "type": "Feature", "tippecanoe": { "layer": "7F5D85A045F81585558552049", "minzoom": 2, "maxzoom": 8 }, "properties": { "title": "的黎波里伯国", "color": "#202020", "oid": "103:1585278503911", "tyid": "304000", "fontsize": 12, "halo": 0.8 }, "geometry": { "type": "Point", "coordinates": [ 36.210938, 34.669359 ] } }
{ "type": "Feature", "tippecanoe": { "layer": "7F5D85A045F81585558552049", "minzoom": 2, "maxzoom": 8 }, "properties": { "title": "耶路撒冷拉丁王国", "color": "#202020", "oid": "103:1585278503909", "tyid": "304000", "fontsize": 12, "halo": 0.8 }, "geometry": { "type": "Point", "coordinates": [ 35.244141, 32.768800 ] } }
{ "type": "Feature", "tippecanoe": { "layer": "7F5D85A045F81585558552049", "minzoom": 2, "maxzoom": 8 }, "properties": { "title": "特拉比松帝国", "color": "#202020", "oid": "103:1585278503917", "tyid": "304000", "fontsize": 12, "halo": 0.8 }, "geometry": { "type": "Point", "coordinates": [ 39.375000, 40.847060 ] } }
{ "type": "Feature", "tippecanoe": { "layer": "7F5D85A045F81585558552049", "minzoom": 2, "maxzoom": 8 }, "properties": { "title": "迪尔马克贝伊国", "color": "#202020", "oid": "103:1585278503942", "tyid": "304000", "fontsize": 12, "halo": 0.8 }, "geometry": { "type": "Point", "coordinates": [ 41.923828, 38.410558 ] } }
{ "type": "Feature", "tippecanoe": { "layer": "7F5D85A045F81585558552049", "minzoom": 2, "maxzoom": 8 }, "properties": { "title": "西姆西尔亲王国", "color": "#202020", "oid": "103:1585278503940", "tyid": "304000", "fontsize": 12, "halo": 0.8 }, "geometry": { "type": "Point", "coordinates": [ 46.142578, 43.261206 ] } }
{ "type": "Feature", "tippecanoe": { "layer": "7F5D85A045F81585558552049", "minzoom": 2, "maxzoom": 8 }, "properties": { "title": "高加索阿瓦尔汗国", "color": "#202020", "oid": "103:1585278503938", "tyid": "304000", "fontsize": 12, "halo": 0.8 }, "geometry": { "type": "Point", "coordinates": [ 46.669922, 42.358544 ] } }
{ "type": "Feature", "tippecanoe": { "layer": "7F5D85A045F81585558552049", "minzoom": 2, "maxzoom": 8 }, "properties": { "title": "列兹金人", "color": "#202020", "oid": "103:1585278503936", "tyid": "304000", "fontsize": 12, "halo": 0.8 }, "geometry": { "type": "Point", "coordinates": [ 47.636719, 41.705729 ] } }
{ "type": "Feature", "tippecanoe": { "layer": "7F5D85A045F81585558552049", "minzoom": 2, "maxzoom": 8 }, "properties": { "title": "希尔凡沙阿王朝", "color": "#202020", "oid": "103:1585278503934", "tyid": "304000", "fontsize": 12, "halo": 0.8 }, "geometry": { "type": "Point", "coordinates": [ 48.867188, 41.046217 ] } }
{ "type": "Feature", "tippecanoe": { "layer": "7F5D85A045F81585558552049", "minzoom": 2, "maxzoom": 8 }, "properties": { "title": "巽他王国", "color": "#202020", "oid": "103:1585278503878", "tyid": "304000", "fontsize": 12, "halo": 0.8 }, "geometry": { "type": "Point", "coordinates": [ 106.611328, -6.664608 ] } }
{ "type": "Feature", "tippecanoe": { "layer": "7F5D85A049081585558552052", "minzoom": 2, "maxzoom": 8 }, "properties": { "title": "玛雅文明[后古典时期]", "color": "#0056E7", "oid": "103:1585278503742", "tyid": "304000", "fontsize": 12, "halo": 1.8 }, "geometry": { "type": "Point", "coordinates": [ -89.472656, 18.562947 ] } }
{ "type": "Feature", "tippecanoe": { "layer": "7F5D85A049081585558552052", "minzoom": 2, "maxzoom": 8 }, "properties": { "title": "苏格兰王国", "color": "#0056E7", "oid": "103:1585278503827", "tyid": "304000", "fontsize": 12, "halo": 1.8 }, "geometry": { "type": "Point", "coordinates": [ -4.042969, 56.704506 ] } }
{ "type": "Feature", "tippecanoe": { "layer": "7F5D85A049081585558552052", "minzoom": 2, "maxzoom": 8 }, "properties": { "title": "康诺特诸王国", "color": "#0056E7", "oid": "103:1585278503830", "tyid": "304000", "fontsize": 12, "halo": 1.8 }, "geometry": { "type": "Point", "coordinates": [ -8.701172, 53.696706 ] } }
{ "type": "Feature", "tippecanoe": { "layer": "7F5D85A049081585558552052", "minzoom": 2, "maxzoom": 8 }, "properties": { "title": "威尔士公国", "color": "#0056E7", "oid": "103:1585278503798", "tyid": "304000", "fontsize": 12, "halo": 1.8 }, "geometry": { "type": "Point", "coordinates": [ -3.779297, 52.375599 ] } }
{ "type": "Feature", "tippecanoe": { "layer": "7F5D85A049081585558552052", "minzoom": 2, "maxzoom": 8 }, "properties": { "title": "布列塔尼公国", "color": "#0056E7", "oid": "103:1585278503854", "tyid": "304000", "fontsize": 12, "halo": 1.8 }, "geometry": { "type": "Point", "coordinates": [ -2.636719, 47.989922 ] } }
{ "type": "Feature", "tippecanoe": { "layer": "7F5D85A049081585558552052", "minzoom": 2, "maxzoom": 8 }, "properties": { "title": "卡斯蒂利亚联合王国", "color": "#0056E7", "oid": "103:1585278503817", "tyid": "304000", "fontsize": 12, "halo": 1.8 }, "geometry": { "type": "Point", "coordinates": [ -4.658203, 41.967659 ] } }
{ "type": "Feature", "tippecanoe": { "layer": "7F5D85A049081585558552052", "minzoom": 2, "maxzoom": 8 }, "properties": { "title": "葡萄牙王国", "color": "#0056E7", "oid": "103:1585278503816", "tyid": "304000", "fontsize": 12, "halo": 1.8 }, "geometry": { "type": "Point", "coordinates": [ -7.998047, 40.178873 ] } }
{ "type": "Feature", "tippecanoe": { "layer": "7F5D85A049081585558552052", "minzoom": 2, "maxzoom": 8 }, "properties": { "title": "塔克鲁尔王国", "color": "#0056E7", "oid": "103:1585278503883", "tyid": "304000", "fontsize": 12, "halo": 1.8 }, "geometry": { "type": "Point", "coordinates": [ -12.919922, 14.859850 ] } }
{ "type": "Feature", "tippecanoe": { "layer": "7F5D85A049081585558552052", "minzoom": 2, "maxzoom": 8 }, "properties": { "title": "博努国", "color": "#0056E7", "oid": "103:1585278503888", "tyid": "304000", "fontsize": 12, "halo": 1.8 }, "geometry": { "type": "Point", "coordinates": [ -2.812500, 8.407168 ] } }
{ "type": "Feature", "tippecanoe": { "layer": "7F5D85A049081585558552052", "minzoom": 2, "maxzoom": 8 }, "properties": { "title": "艾玛拉诸邦国", "color": "#0056E7", "oid": "103:1585278503795", "tyid": "304002", "fontsize": 12, "halo": 1.6 }, "geometry": { "type": "Point", "coordinates": [ -75.498047, -9.102097 ] } }
{ "type": "Feature", "tippecanoe": { "layer": "7F5D85A049081585558552052", "minzoom": 2, "maxzoom": 8 }, "properties": { "title": "库斯科王国", "color": "#0056E7", "oid": "103:1535120129194", "tyid": "304000", "fontsize": 12, "halo": 1.8 }, "geometry": { "type": "Point", "coordinates": [ -71.191406, -13.752725 ] } }
{ "type": "Feature", "tippecanoe": { "layer": "7F5D85A049081585558552052", "minzoom": 2, "maxzoom": 8 }, "properties": { "title": "丹麦王国[维京时期]", "color": "#0056E7", "oid": "103:1585278503835", "tyid": "304000", "fontsize": 12, "halo": 1.8 }, "geometry": { "type": "Point", "coordinates": [ 9.228516, 56.022948 ] } }
{ "type": "Feature", "tippecanoe": { "layer": "7F5D85A049081585558552052", "minzoom": 2, "maxzoom": 8 }, "properties": { "title": "佛兰德斯伯国", "color": "#0056E7", "oid": "103:1585278503820", "tyid": "304000", "fontsize": 12, "halo": 1.8 }, "geometry": { "type": "Point", "coordinates": [ 3.076172, 50.625073 ] } }
{ "type": "Feature", "tippecanoe": { "layer": "7F5D85A049081585558552052", "minzoom": 2, "maxzoom": 8 }, "properties": { "title": "布卢瓦伯国", "color": "#0056E7", "oid": "103:1585278503849", "tyid": "304000", "fontsize": 12, "halo": 1.8 }, "geometry": { "type": "Point", "coordinates": [ 4.130859, 48.690960 ] } }
{ "type": "Feature", "tippecanoe": { "layer": "7F5D85A049081585558552052", "minzoom": 2, "maxzoom": 8 }, "properties": { "title": "图卢兹伯国", "color": "#0056E7", "oid": "103:1585278503846", "tyid": "304000", "fontsize": 12, "halo": 1.8 }, "geometry": { "type": "Point", "coordinates": [ 2.021484, 43.707594 ] } }
{ "type": "Feature", "tippecanoe": { "layer": "7F5D85A049081585558552052", "minzoom": 2, "maxzoom": 8 }, "properties": { "title": "阿拉贡联合王国", "color": "#0056E7", "oid": "103:1585278503819", "tyid": "304000", "fontsize": 12, "halo": 1.8 }, "geometry": { "type": "Point", "coordinates": [ 0.263672, 41.771312 ] } }
{ "type": "Feature", "tippecanoe": { "layer": "7F5D85A049081585558552052", "minzoom": 2, "maxzoom": 8 }, "properties": { "title": "波西米亚王国", "color": "#0056E7", "oid": "103:1535120129169", "tyid": "304000", "fontsize": 12, "halo": 1.8 }, "geometry": { "type": "Point", "coordinates": [ 14.853516, 49.667628 ] } }
{ "type": "Feature", "tippecanoe": { "layer": "7F5D85A049081585558552052", "minzoom": 2, "maxzoom": 8 }, "properties": { "title": "教皇国", "color": "#0056E7", "oid": "103:1535120129183", "tyid": "304000", "fontsize": 12, "halo": 1.8 }, "geometry": { "type": "Point", "coordinates": [ 12.304688, 42.553080 ] } }
{ "type": "Feature", "tippecanoe": { "layer": "7F5D85A049081585558552052", "minzoom": 2, "maxzoom": 8 }, "properties": { "title": "威尼斯共和国", "color": "#0056E7", "oid": "103:1585278503864", "tyid": "304000", "fontsize": 12, "halo": 1.8 }, "geometry": { "type": "Point", "coordinates": [ 15.556641, 44.024422 ] } }
{ "type": "Feature", "tippecanoe": { "layer": "7F5D85A049081585558552052", "minzoom": 2, "maxzoom": 8 }, "properties": { "title": "塞尔维亚王国[中世纪]", "color": "#0056E7", "oid": "103:1585278503872", "tyid": "304000", "fontsize": 12, "halo": 1.8 }, "geometry": { "type": "Point", "coordinates": [ 19.423828, 43.068888 ] } }
{ "type": "Feature", "tippecanoe": { "layer": "7F5D85A049081585558552052", "minzoom": 2, "maxzoom": 8 }, "properties": { "title": "丹麦爱沙尼亚公国", "color": "#0056E7", "oid": "103:1585278503750", "tyid": "304000", "fontsize": 12, "halo": 1.8 }, "geometry": { "type": "Point", "coordinates": [ 25.664062, 59.265881 ] } }
{ "type": "Feature", "tippecanoe": { "layer": "7F5D85A049081585558552052", "minzoom": 2, "maxzoom": 8 }, "properties": { "title": "立陶宛大公国", "color": "#0056E7", "oid": "103:1535120129174", "tyid": "304000", "fontsize": 12, "halo": 1.8 }, "geometry": { "type": "Point", "coordinates": [ 24.609375, 54.775346 ] } }
{ "type": "Feature", "tippecanoe": { "layer": "7F5D85A049081585558552052", "minzoom": 2, "maxzoom": 8 }, "properties": { "title": "图罗夫公国", "color": "#0056E7", "oid": "103:1585278503810", "tyid": "304000", "fontsize": 12, "halo": 1.8 }, "geometry": { "type": "Point", "coordinates": [ 27.509766, 52.214339 ] } }
{ "type": "Feature", "tippecanoe": { "layer": "7F5D85A049081585558552052", "minzoom": 2, "maxzoom": 8 }, "properties": { "title": "波洛茨克公国", "color": "#0056E7", "oid": "103:1585278503808", "tyid": "304000", "fontsize": 12, "halo": 1.8 }, "geometry": { "type": "Point", "coordinates": [ 28.125000, 54.265224 ] } }
{ "type": "Feature", "tippecanoe": { "layer": "7F5D85A049081585558552052", "minzoom": 2, "maxzoom": 8 }, "properties": { "title": "斯摩棱斯克大公国", "color": "#0056E7", "oid": "103:1585278503806", "tyid": "304000", "fontsize": 12, "halo": 1.8 }, "geometry": { "type": "Point", "coordinates": [ 32.607422, 54.826008 ] } }
{ "type": "Feature", "tippecanoe": { "layer": "7F5D85A049081585558552052", "minzoom": 2, "maxzoom": 8 }, "properties": { "title": "切尔尼戈夫公国", "color": "#0056E7", "oid": "103:1585278503841", "tyid": "304000", "fontsize": 12, "halo": 1.8 }, "geometry": { "type": "Point", "coordinates": [ 35.507812, 53.330873 ] } }
{ "type": "Feature", "tippecanoe": { "layer": "7F5D85A049081585558552052", "minzoom": 2, "maxzoom": 8 }, "properties": { "title": "诺夫哥罗德-谢韦尔斯克公国", "color": "#0056E7", "oid": "103:1585278503805", "tyid": "304000", "fontsize": 12, "halo": 1.8 }, "geometry": { "type": "Point", "coordinates": [ 36.386719, 51.781436 ] } }
{ "type": "Feature", "tippecanoe": { "layer": "7F5D85A049081585558552052", "minzoom": 2, "maxzoom": 8 }, "properties": { "title": "切尔克斯人", "color": "#0056E7", "oid": "103:1585278503766", "tyid": "304001", "fontsize": 12, "halo": 1.6 }, "geometry": { "type": "Point", "coordinates": [ 39.375000, 44.653024 ] } }
{ "type": "Feature", "tippecanoe": { "layer": "7F5D85A049081585558552052", "minzoom": 2, "maxzoom": 8 }, "properties": { "title": "格鲁吉亚王国", "color": "#0056E7", "oid": "103:1585278503928", "tyid": "304000", "fontsize": 12, "halo": 1.8 }, "geometry": { "type": "Point", "coordinates": [ 43.242188, 41.376809 ] } }
{ "type": "Feature", "tippecanoe": { "layer": "7F5D85A049081585558552052", "minzoom": 2, "maxzoom": 8 }, "properties": { "title": "西西里王国", "color": "#0056E7", "oid": "103:1535120129181", "tyid": "304000", "fontsize": 12, "halo": 1.8 }, "geometry": { "type": "Point", "coordinates": [ 15.732422, 40.913513 ] } }
{ "type": "Feature", "tippecanoe": { "layer": "7F5D85A049081585558552052", "minzoom": 2, "maxzoom": 8 }, "properties": { "title": "瓦努贾米", "color": "#0056E7", "oid": "103:1585278503767", "tyid": "304001", "fontsize": 12, "halo": 1.6 }, "geometry": { "type": "Point", "coordinates": [ 11.513672, 32.842674 ] } }
{ "type": "Feature", "tippecanoe": { "layer": "7F5D85A049081585558552052", "minzoom": 2, "maxzoom": 8 }, "properties": { "title": "伊庇鲁斯专制国", "color": "#0056E7", "oid": "103:1585278503869", "tyid": "304000", "fontsize": 12, "halo": 1.8 }, "geometry": { "type": "Point", "coordinates": [ 22.236328, 39.504041 ] } }
{ "type": "Feature", "tippecanoe": { "layer": "7F5D85A049081585558552052", "minzoom": 2, "maxzoom": 8 }, "properties": { "title": "阿凯亚公国", "color": "#0056E7", "oid": "103:1585278503752", "tyid": "304000", "fontsize": 12, "halo": 1.8 }, "geometry": { "type": "Point", "coordinates": [ 22.236328, 37.509726 ] } }
{ "type": "Feature", "tippecanoe": { "layer": "7F5D85A049081585558552052", "minzoom": 2, "maxzoom": 8 }, "properties": { "title": "加奥帝国", "color": "#0056E7", "oid": "103:1585278503885", "tyid": "304000", "fontsize": 12, "halo": 1.8 }, "geometry": { "type": "Point", "coordinates": [ 0.878906, 15.707663 ] } }
{ "type": "Feature", "tippecanoe": { "layer": "7F5D85A049081585558552052", "minzoom": 2, "maxzoom": 8 }, "properties": { "title": "贝宁王国", "color": "#0056E7", "oid": "103:1585278503892", "tyid": "304000", "fontsize": 12, "halo": 1.8 }, "geometry": { "type": "Point", "coordinates": [ 5.449219, 5.878332 ] } }
{ "type": "Feature", "tippecanoe": { "layer": "7F5D85A049081585558552052", "minzoom": 2, "maxzoom": 8 }, "properties": { "title": "伊博人", "color": "#0056E7", "oid": "103:1585278503788", "tyid": "304001", "fontsize": 12, "halo": 1.6 }, "geometry": { "type": "Point", "coordinates": [ 9.140625, 6.140555 ] } }
{ "type": "Feature", "tippecanoe": { "layer": "7F5D85A049081585558552052", "minzoom": 2, "maxzoom": 8 }, "properties": { "title": "尼日王国", "color": "#0056E7", "oid": "103:1585278503759", "tyid": "304000", "fontsize": 12, "halo": 1.8 }, "geometry": { "type": "Point", "coordinates": [ 6.679688, 5.353521 ] } }
{ "type": "Feature", "tippecanoe": { "layer": "7F5D85A049081585558552052", "minzoom": 2, "maxzoom": 8 }, "properties": { "title": "东罗马帝国", "color": "#0056E7", "oid": "103:1585278503922", "tyid": "304000", "fontsize": 12, "halo": 1.8 }, "geometry": { "type": "Point", "coordinates": [ 28.828125, 39.977120 ] } }
{ "type": "Feature", "tippecanoe": { "layer": "7F5D85A049081585558552052", "minzoom": 2, "maxzoom": 8 }, "properties": { "title": "奇里乞亚亚美尼亚王国", "color": "#0056E7", "oid": "103:1535120129185", "tyid": "304000", "fontsize": 12, "halo": 1.8 }, "geometry": { "type": "Point", "coordinates": [ 35.683594, 37.300275 ] } }
{ "type": "Feature", "tippecanoe": { "layer": "7F5D85A049081585558552052", "minzoom": 2, "maxzoom": 8 }, "properties": { "title": "贝扎人", "color": "#0056E7", "oid": "103:1585278503900", "tyid": "304001", "fontsize": 12, "halo": 1.6 }, "geometry": { "type": "Point", "coordinates": [ 36.562500, 19.642588 ] } }
{ "type": "Feature", "tippecanoe": { "layer": "7F5D85A049081585558552052", "minzoom": 2, "maxzoom": 8 }, "properties": { "title": "麦加埃米尔国", "color": "#0056E7", "oid": "103:1585278503740", "tyid": "304000", "fontsize": 12, "halo": 1.8 }, "geometry": { "type": "Point", "coordinates": [ 40.078125, 21.861499 ] } }
{ "type": "Feature", "tippecanoe": { "layer": "7F5D85A049081585558552052", "minzoom": 2, "maxzoom": 8 }, "properties": { "title": "锡达马人", "color": "#0056E7", "oid": "103:1585278503946", "tyid": "304001", "fontsize": 12, "halo": 1.6 }, "geometry": { "type": "Point", "coordinates": [ 35.771484, 4.390229 ] } }
{ "type": "Feature", "tippecanoe": { "layer": "7F5D85A049081585558552052", "minzoom": 2, "maxzoom": 8 }, "properties": { "title": "谢瓦苏丹国", "color": "#0056E7", "oid": "103:1585278503901", "tyid": "304000", "fontsize": 12, "halo": 1.8 }, "geometry": { "type": "Point", "coordinates": [ 42.275391, 10.833306 ] } }
{ "type": "Feature", "tippecanoe": { "layer": "7F5D85A049081585558552052", "minzoom": 2, "maxzoom": 8 }, "properties": { "title": "哈扎拉比王朝", "color": "#0056E7", "oid": "103:1585278503933", "tyid": "304000", "fontsize": 12, "halo": 1.8 }, "geometry": { "type": "Point", "coordinates": [ 49.921875, 31.503629 ] } }
{ "type": "Feature", "tippecanoe": { "layer": "7F5D85A049081585558552052", "minzoom": 2, "maxzoom": 8 }, "properties": { "title": "内卜汗王朝", "color": "#0056E7", "oid": "103:1585278503945", "tyid": "304000", "fontsize": 12, "halo": 1.8 }, "geometry": { "type": "Point", "coordinates": [ 57.128906, 22.593726 ] } }
{ "type": "Feature", "tippecanoe": { "layer": "7F5D85A049081585558552052", "minzoom": 2, "maxzoom": 8 }, "properties": { "title": "瓦桑加利苏丹国", "color": "#0056E7", "oid": "103:1585278503904", "tyid": "304000", "fontsize": 12, "halo": 1.8 }, "geometry": { "type": "Point", "coordinates": [ 48.779297, 10.746969 ] } }
{ "type": "Feature", "tippecanoe": { "layer": "7F5D85A049081585558552052", "minzoom": 2, "maxzoom": 8 }, "properties": { "title": "阿居兰苏丹国", "color": "#0056E7", "oid": "103:1585278503903", "tyid": "304000", "fontsize": 12, "halo": 1.8 }, "geometry": { "type": "Point", "coordinates": [ 45.175781, 3.688855 ] } }
{ "type": "Feature", "tippecanoe": { "layer": "7F5D85A049081585558552052", "minzoom": 2, "maxzoom": 8 }, "properties": { "title": "拉达克王系", "color": "#0056E7", "oid": "103:1585278503774", "tyid": "304000", "fontsize": 12, "halo": 1.8 }, "geometry": { "type": "Point", "coordinates": [ 78.486328, 33.137551 ] } }
{ "type": "Feature", "tippecanoe": { "layer": "7F5D85A049081585558552052", "minzoom": 2, "maxzoom": 8 }, "properties": { "title": "苏姆拉王朝", "color": "#0056E7", "oid": "103:1585278503772", "tyid": "304000", "fontsize": 12, "halo": 1.8 }, "geometry": { "type": "Point", "coordinates": [ 68.554688, 26.588527 ] } }
{ "type": "Feature", "tippecanoe": { "layer": "7F5D85A049081585558552052", "minzoom": 2, "maxzoom": 8 }, "properties": { "title": "曷萨拉帝国", "color": "#0056E7", "oid": "103:1585278503756", "tyid": "304000", "fontsize": 12, "halo": 1.8 }, "geometry": { "type": "Point", "coordinates": [ 75.761719, 14.859850 ] } }
{ "type": "Feature", "tippecanoe": { "layer": "7F5D85A049081585558552052", "minzoom": 2, "maxzoom": 8 }, "properties": { "title": "朱罗-遮娄其王国", "color": "#0056E7", "oid": "103:1585278503757", "tyid": "304000", "fontsize": 12, "halo": 1.8 }, "geometry": { "type": "Point", "coordinates": [ 78.486328, 12.897489 ] } }
{ "type": "Feature", "tippecanoe": { "layer": "7F5D85A049081585558552052", "minzoom": 2, "maxzoom": 8 }, "properties": { "title": "潘地亚帝国", "color": "#0056E7", "oid": "103:1585278503758", "tyid": "304000", "fontsize": 12, "halo": 1.8 }, "geometry": { "type": "Point", "coordinates": [ 77.255859, 10.487812 ] } }
{ "type": "Feature", "tippecanoe": { "layer": "7F5D85A049081585558552052", "minzoom": 2, "maxzoom": 8 }, "properties": { "title": "卡卡提亚王朝", "color": "#0056E7", "oid": "103:1585278503875", "tyid": "304000", "fontsize": 12, "halo": 1.8 }, "geometry": { "type": "Point", "coordinates": [ 81.035156, 18.062312 ] } }
{ "type": "Feature", "tippecanoe": { "layer": "7F5D85A049081585558552052", "minzoom": 2, "maxzoom": 8 }, "properties": { "title": "东恒伽王朝", "color": "#0056E7", "oid": "103:1585278503874", "tyid": "304000", "fontsize": 12, "halo": 1.8 }, "geometry": { "type": "Point", "coordinates": [ 85.078125, 20.797201 ] } }
{ "type": "Feature", "tippecanoe": { "layer": "7F5D85A049081585558552052", "minzoom": 2, "maxzoom": 8 }, "properties": { "title": "若开诸国", "color": "#0056E7", "oid": "103:1585278503851", "tyid": "304002", "fontsize": 12, "halo": 1.6 }, "geometry": { "type": "Point", "coordinates": [ 92.900391, 21.453069 ] } }
{ "type": "Feature", "tippecanoe": { "layer": "7F5D85A049081585558552052", "minzoom": 2, "maxzoom": 8 }, "properties": { "title": "骇黎朋猜国", "color": "#0056E7", "oid": "103:1585278503744", "tyid": "304000", "fontsize": 12, "halo": 1.8 }, "geometry": { "type": "Point", "coordinates": [ 99.140625, 18.562947 ] } }
{ "type": "Feature", "tippecanoe": { "layer": "7F5D85A049081585558552052", "minzoom": 2, "maxzoom": 8 }, "properties": { "title": "大越国", "color": "#0056E7", "oid": "103:1585278503802", "tyid": "304000", "fontsize": 12, "halo": 1.8 }, "geometry": { "type": "Point", "coordinates": [ 105.380859, 21.125498 ] } }
{ "type": "Feature", "tippecanoe": { "layer": "7F5D85A049081585558552052", "minzoom": 2, "maxzoom": 8 }, "properties": { "title": "占婆国", "color": "#0056E7", "oid": "103:1585278503839", "tyid": "304000", "fontsize": 12, "halo": 1.8 }, "geometry": { "type": "Point", "coordinates": [ 108.369141, 14.604847 ] } }
{ "type": "Feature", "tippecanoe": { "layer": "7F5D85A049081585558552052", "minzoom": 2, "maxzoom": 8 }, "properties": { "title": "虾夷", "color": "#0056E7", "oid": "103:1585278503852", "tyid": "304002", "fontsize": 12, "halo": 1.6 }, "geometry": { "type": "Point", "coordinates": [ 142.558594, 43.389082 ] } }
{ "type": "Feature", "tippecanoe": { "layer": "7F5D85A049081585558552052", "minzoom": 2, "maxzoom": 8 }, "properties": { "title": "加鲁王国", "color": "#0056E7", "oid": "103:1585278503879", "tyid": "304000", "fontsize": 12, "halo": 1.8 }, "geometry": { "type": "Point", "coordinates": [ 108.193359, -7.013668 ] } }
{ "type": "Feature", "tippecanoe": { "layer": "7F5D85A049081585558552052", "minzoom": 2, "maxzoom": 8 }, "properties": { "title": "信诃沙里王国", "color": "#0056E7", "oid": "103:1585278503880", "tyid": "304000", "fontsize": 12, "halo": 1.8 }, "geometry": { "type": "Point", "coordinates": [ 111.621094, -7.536764 ] } }
{ "type": "Feature", "tippecanoe": { "layer": "7F5D85A072401585558552063", "minzoom": 2, "maxzoom": 8 }, "properties": { "title": "英格兰王国", "color": "#0056E7", "oid": "103:1585278503836", "tyid": "304000", "fontsize": 12, "halo": 1.8 }, "geometry": { "type": "Point", "coordinates": [ -1.142578, 52.106505 ] } }
{ "type": "Feature", "tippecanoe": { "layer": "7F5D85A072401585558552063", "minzoom": 2, "maxzoom": 8 }, "properties": { "title": "穆瓦希德哈里发国", "color": "#0056E7", "oid": "103:1585278503881", "tyid": "304000", "fontsize": 12, "halo": 1.8 }, "geometry": { "type": "Point", "coordinates": [ -2.988281, 33.137551 ] } }
{ "type": "Feature", "tippecanoe": { "layer": "7F5D85A072401585558552063", "minzoom": 2, "maxzoom": 8 }, "properties": { "title": "马里帝国", "color": "#0056E7", "oid": "103:1585278503884", "tyid": "304000", "fontsize": 12, "halo": 1.8 }, "geometry": { "type": "Point", "coordinates": [ -8.964844, 13.496473 ] } }
{ "type": "Feature", "tippecanoe": { "layer": "7F5D85A072401585558552063", "minzoom": 2, "maxzoom": 8 }, "properties": { "title": "莫西人诸国", "color": "#0056E7", "oid": "103:1585278503948", "tyid": "304000", "fontsize": 12, "halo": 1.8 }, "geometry": { "type": "Point", "coordinates": [ -1.494141, 13.239945 ] } }
{ "type": "Feature", "tippecanoe": { "layer": "7F5D85A072401585558552063", "minzoom": 2, "maxzoom": 8 }, "properties": { "title": "曼德人", "color": "#0056E7", "oid": "103:1585278503893", "tyid": "304001", "fontsize": 12, "halo": 1.6 }, "geometry": { "type": "Point", "coordinates": [ -1.845703, 10.401378 ] } }
{ "type": "Feature", "tippecanoe": { "layer": "7F5D85A072401585558552063", "minzoom": 2, "maxzoom": 8 }, "properties": { "title": "挪威王国[维京时期]", "color": "#0056E7", "oid": "103:1585278503800", "tyid": "304000", "fontsize": 12, "halo": 1.8 }, "geometry": { "type": "Point", "coordinates": [ 11.601562, 62.794935 ] } }
{ "type": "Feature", "tippecanoe": { "layer": "7F5D85A072401585558552063", "minzoom": 2, "maxzoom": 8 }, "properties": { "title": "瑞典王国[维京时期]", "color": "#0056E7", "oid": "103:1585278503837", "tyid": "304000", "fontsize": 12, "halo": 1.8 }, "geometry": { "type": "Point", "coordinates": [ 14.326172, 59.310768 ] } }
{ "type": "Feature", "tippecanoe": { "layer": "7F5D85A072401585558552063", "minzoom": 2, "maxzoom": 8 }, "properties": { "title": "法兰西王国", "color": "#0056E7", "oid": "103:1585278503823", "tyid": "304000", "fontsize": 12, "halo": 1.8 }, "geometry": { "type": "Point", "coordinates": [ 1.494141, 46.195042 ] } }
{ "type": "Feature", "tippecanoe": { "layer": "7F5D85A072401585558552063", "minzoom": 2, "maxzoom": 8 }, "properties": { "title": "神圣罗马帝国", "color": "#0056E7", "oid": "103:1585278503824", "tyid": "304000", "fontsize": 12, "halo": 1.8 }, "geometry": { "type": "Point", "coordinates": [ 9.843750, 48.458352 ] } }
{ "type": "Feature", "tippecanoe": { "layer": "7F5D85A072401585558552063", "minzoom": 2, "maxzoom": 8 }, "properties": { "title": "波兰王国", "color": "#0056E7", "oid": "103:1535120129172", "tyid": "304000", "fontsize": 12, "halo": 1.8 }, "geometry": { "type": "Point", "coordinates": [ 18.896484, 51.672555 ] } }
{ "type": "Feature", "tippecanoe": { "layer": "7F5D85A072401585558552063", "minzoom": 2, "maxzoom": 8 }, "properties": { "title": "匈牙利王国", "color": "#0056E7", "oid": "103:1585278503813", "tyid": "304000", "fontsize": 12, "halo": 1.8 }, "geometry": { "type": "Point", "coordinates": [ 20.302734, 46.558860 ] } }
{ "type": "Feature", "tippecanoe": { "layer": "7F5D85A072401585558552063", "minzoom": 2, "maxzoom": 8 }, "properties": { "title": "条顿骑士团国", "color": "#0056E7", "oid": "103:1585278503857", "tyid": "304000", "fontsize": 12, "halo": 1.8 }, "geometry": { "type": "Point", "coordinates": [ 25.751953, 57.515823 ] } }
{ "type": "Feature", "tippecanoe": { "layer": "7F5D85A072401585558552063", "minzoom": 2, "maxzoom": 8 }, "properties": { "title": "诺夫哥罗德共和国", "color": "#0056E7", "oid": "103:1585278503838", "tyid": "304000", "fontsize": 12, "halo": 1.8 }, "geometry": { "type": "Point", "coordinates": [ 37.792969, 62.144976 ] } }
{ "type": "Feature", "tippecanoe": { "layer": "7F5D85A072401585558552063", "minzoom": 2, "maxzoom": 8 }, "properties": { "title": "弗拉基米尔-苏兹达尔大公国", "color": "#0056E7", "oid": "103:1585278503804", "tyid": "304000", "fontsize": 12, "halo": 1.8 }, "geometry": { "type": "Point", "coordinates": [ 41.220703, 57.421294 ] } }
{ "type": "Feature", "tippecanoe": { "layer": "7F5D85A072401585558552063", "minzoom": 2, "maxzoom": 8 }, "properties": { "title": "加利西亚-沃里尼亚王国", "color": "#0056E7", "oid": "103:1585278503812", "tyid": "304000", "fontsize": 12, "halo": 1.8 }, "geometry": { "type": "Point", "coordinates": [ 25.927734, 48.922499 ] } }
{ "type": "Feature", "tippecanoe": { "layer": "7F5D85A072401585558552063", "minzoom": 2, "maxzoom": 8 }, "properties": { "title": "保加利亚第二王国", "color": "#0056E7", "oid": "103:1585278503868", "tyid": "304000", "fontsize": 12, "halo": 1.8 }, "geometry": { "type": "Point", "coordinates": [ 23.818359, 43.004647 ] } }
{ "type": "Feature", "tippecanoe": { "layer": "7F5D85A072401585558552063", "minzoom": 2, "maxzoom": 8 }, "properties": { "title": "哈夫斯王朝", "color": "#0056E7", "oid": "103:1585278503882", "tyid": "304000", "fontsize": 12, "halo": 1.8 }, "geometry": { "type": "Point", "coordinates": [ 7.207031, 35.101934 ] } }
{ "type": "Feature", "tippecanoe": { "layer": "7F5D85A072401585558552063", "minzoom": 2, "maxzoom": 8 }, "properties": { "title": "图阿雷格人", "color": "#0056E7", "oid": "103:1585278503769", "tyid": "304001", "fontsize": 12, "halo": 1.6 }, "geometry": { "type": "Point", "coordinates": [ 10.722656, 24.367114 ] } }
{ "type": "Feature", "tippecanoe": { "layer": "7F5D85A072401585558552063", "minzoom": 2, "maxzoom": 8 }, "properties": { "title": "豪萨人诸国", "color": "#0056E7", "oid": "103:1585278503886", "tyid": "304000", "fontsize": 12, "halo": 1.8 }, "geometry": { "type": "Point", "coordinates": [ 6.240234, 14.008696 ] } }
{ "type": "Feature", "tippecanoe": { "layer": "7F5D85A072401585558552063", "minzoom": 2, "maxzoom": 8 }, "properties": { "title": "约鲁巴人", "color": "#0056E7", "oid": "103:1585278503889", "tyid": "304001", "fontsize": 12, "halo": 1.6 }, "geometry": { "type": "Point", "coordinates": [ 1.142578, 7.362467 ] } }
{ "type": "Feature", "tippecanoe": { "layer": "7F5D85A072401585558552063", "minzoom": 2, "maxzoom": 8 }, "properties": { "title": "加涅姆帝国", "color": "#0056E7", "oid": "103:1585278503895", "tyid": "304000", "fontsize": 12, "halo": 1.8 }, "geometry": { "type": "Point", "coordinates": [ 16.083984, 14.859850 ] } }
{ "type": "Feature", "tippecanoe": { "layer": "7F5D85A072401585558552063", "minzoom": 2, "maxzoom": 8 }, "properties": { "title": "贝蒂-帕胡因人", "color": "#0056E7", "oid": "103:1585278503783", "tyid": "304001", "fontsize": 12, "halo": 1.6 }, "geometry": { "type": "Point", "coordinates": [ 13.798828, 1.230374 ] } }
{ "type": "Feature", "tippecanoe": { "layer": "7F5D85A072401585558552063", "minzoom": 2, "maxzoom": 8 }, "properties": { "title": "巴赫里马穆鲁克王朝", "color": "#0056E7", "oid": "103:1585278503906", "tyid": "304000", "fontsize": 12, "halo": 1.8 }, "geometry": { "type": "Point", "coordinates": [ 32.695312, 26.509905 ] } }
{ "type": "Feature", "tippecanoe": { "layer": "7F5D85A072401585558552063", "minzoom": 2, "maxzoom": 8 }, "properties": { "title": "鲁姆苏丹国", "color": "#0056E7", "oid": "103:1585278503918", "tyid": "304000", "fontsize": 12, "halo": 1.8 }, "geometry": { "type": "Point", "coordinates": [ 35.859375, 39.774769 ] } }
{ "type": "Feature", "tippecanoe": { "layer": "7F5D85A072401585558552063", "minzoom": 2, "maxzoom": 8 }, "properties": { "title": "达优王国", "color": "#0056E7", "oid": "103:1585278503896", "tyid": "304000", "fontsize": 12, "halo": 1.8 }, "geometry": { "type": "Point", "coordinates": [ 24.345703, 14.264383 ] } }
{ "type": "Feature", "tippecanoe": { "layer": "7F5D85A072401585558552063", "minzoom": 2, "maxzoom": 8 }, "properties": { "title": "马库里亚王国", "color": "#0056E7", "oid": "103:1585278503898", "tyid": "304000", "fontsize": 12, "halo": 1.8 }, "geometry": { "type": "Point", "coordinates": [ 32.871094, 20.715015 ] } }
{ "type": "Feature", "tippecanoe": { "layer": "7F5D85A072401585558552063", "minzoom": 2, "maxzoom": 8 }, "properties": { "title": "阿罗底亚王国", "color": "#0056E7", "oid": "103:1585278503760", "tyid": "304000", "fontsize": 12, "halo": 1.8 }, "geometry": { "type": "Point", "coordinates": [ 33.046875, 14.093957 ] } }
{ "type": "Feature", "tippecanoe": { "layer": "7F5D85A072401585558552063", "minzoom": 2, "maxzoom": 8 }, "properties": { "title": "卢欧诸部", "color": "#0056E7", "oid": "103:1585278503786", "tyid": "304001", "fontsize": 12, "halo": 1.6 }, "geometry": { "type": "Point", "coordinates": [ 31.640625, 5.878332 ] } }
{ "type": "Feature", "tippecanoe": { "layer": "7F5D85A072401585558552063", "minzoom": 2, "maxzoom": 8 }, "properties": { "title": "扎格维王朝", "color": "#0056E7", "oid": "103:1585278503899", "tyid": "304000", "fontsize": 12, "halo": 1.8 }, "geometry": { "type": "Point", "coordinates": [ 37.792969, 10.746969 ] } }
{ "type": "Feature", "tippecanoe": { "layer": "7F5D85A072401585558552063", "minzoom": 2, "maxzoom": 8 }, "properties": { "title": "雅库特人", "color": "#0056E7", "oid": "103:1585278503792", "tyid": "304000", "fontsize": 12, "halo": 1.8 }, "geometry": { "type": "Point", "coordinates": [ 65.566406, 59.756395 ] } }
{ "type": "Feature", "tippecanoe": { "layer": "7F5D85A072401585558552063", "minzoom": 2, "maxzoom": 8 }, "properties": { "title": "钦察汗国", "color": "#0056E7", "oid": "103:1585278503791", "tyid": "304000", "fontsize": 12, "halo": 1.8 }, "geometry": { "type": "Point", "coordinates": [ 58.359375, 51.998410 ] } }
{ "type": "Feature", "tippecanoe": { "layer": "7F5D85A072401585558552063", "minzoom": 2, "maxzoom": 8 }, "properties": { "title": "伊尔汗国", "color": "#0056E7", "oid": "103:1585278503926", "tyid": "304000", "fontsize": 12, "halo": 1.8 }, "geometry": { "type": "Point", "coordinates": [ 45.439453, 32.694866 ] } }
{ "type": "Feature", "tippecanoe": { "layer": "7F5D85A072401585558552063", "minzoom": 2, "maxzoom": 8 }, "properties": { "title": "贝都因人", "color": "#0056E7", "oid": "103:1585278503931", "tyid": "304000", "fontsize": 12, "halo": 1.8 }, "geometry": { "type": "Point", "coordinates": [ 45.527344, 24.447150 ] } }
{ "type": "Feature", "tippecanoe": { "layer": "7F5D85A072401585558552063", "minzoom": 2, "maxzoom": 8 }, "properties": { "title": "萨尔浒王朝", "color": "#0056E7", "oid": "103:1585278503925", "tyid": "304000", "fontsize": 12, "halo": 1.8 }, "geometry": { "type": "Point", "coordinates": [ 52.998047, 29.458731 ] } }
{ "type": "Feature", "tippecanoe": { "layer": "7F5D85A072401585558552063", "minzoom": 2, "maxzoom": 8 }, "properties": { "title": "帕拉玛拉王朝", "color": "#0056E7", "oid": "103:1585278503873", "tyid": "304000", "fontsize": 12, "halo": 1.8 }, "geometry": { "type": "Point", "coordinates": [ 75.585938, 24.527135 ] } }
{ "type": "Feature", "tippecanoe": { "layer": "7F5D85A072401585558552063", "minzoom": 2, "maxzoom": 8 }, "properties": { "title": "德里苏丹奴隶王朝", "color": "#0056E7", "oid": "103:1585278503753", "tyid": "304000", "fontsize": 12, "halo": 1.8 }, "geometry": { "type": "Point", "coordinates": [ 80.332031, 26.667096 ] } }
{ "type": "Feature", "tippecanoe": { "layer": "7F5D85A072401585558552063", "minzoom": 2, "maxzoom": 8 }, "properties": { "title": "耶达婆王朝", "color": "#0056E7", "oid": "103:1585278503754", "tyid": "304000", "fontsize": 12, "halo": 1.8 }, "geometry": { "type": "Point", "coordinates": [ 77.519531, 19.808054 ] } }
{ "type": "Feature", "tippecanoe": { "layer": "7F5D85A072401585558552063", "minzoom": 2, "maxzoom": 8 }, "properties": { "title": "蒙古帝国", "color": "#0056E7", "oid": "103:1585278503876", "tyid": "304000", "fontsize": 12, "halo": 1.8 }, "geometry": { "type": "Point", "coordinates": [ 90.087891, 46.860191 ] } }
{ "type": "Feature", "tippecanoe": { "layer": "7F5D85A072401585558552063", "minzoom": 2, "maxzoom": 8 }, "properties": { "title": "南宋", "color": "#0056E7", "oid": "103:1585278503796", "tyid": "304000", "fontsize": 12, "halo": 1.8 }, "geometry": { "type": "Point", "coordinates": [ 111.621094, 27.994401 ] } }
{ "type": "Feature", "tippecanoe": { "layer": "7F5D85A072401585558552063", "minzoom": 2, "maxzoom": 8 }, "properties": { "title": "蒲甘王国", "color": "#0056E7", "oid": "103:1585278503803", "tyid": "304000", "fontsize": 12, "halo": 1.8 }, "geometry": { "type": "Point", "coordinates": [ 96.064453, 20.632784 ] } }
{ "type": "Feature", "tippecanoe": { "layer": "7F5D85A072401585558552063", "minzoom": 2, "maxzoom": 8 }, "properties": { "title": "高棉帝国", "color": "#0056E7", "oid": "103:1585278503797", "tyid": "304000", "fontsize": 12, "halo": 1.8 }, "geometry": { "type": "Point", "coordinates": [ 103.183594, 14.349548 ] } }
{ "type": "Feature", "tippecanoe": { "layer": "7F5D85A072401585558552063", "minzoom": 2, "maxzoom": 8 }, "properties": { "title": "镰仓幕府", "color": "#0056E7", "oid": "103:1585278503747", "tyid": "304000", "fontsize": 12, "halo": 1.8 }, "geometry": { "type": "Point", "coordinates": [ 138.955078, 36.315125 ] } }
{ "type": "Feature", "tippecanoe": { "layer": "7F5D85A072401585558552063", "minzoom": 2, "maxzoom": 8 }, "properties": { "title": "班图人诸部", "color": "#0056E7", "oid": "103:1585278503781", "tyid": "304001", "fontsize": 12, "halo": 1.6 }, "geometry": { "type": "Point", "coordinates": [ 27.070312, -5.528511 ] } }
{ "type": "Feature", "tippecanoe": { "layer": "7F5D85A072401585558552063", "minzoom": 2, "maxzoom": 8 }, "properties": { "title": "科伊桑人", "color": "#0056E7", "oid": "103:1585278503777", "tyid": "304001", "fontsize": 12, "halo": 1.6 }, "geometry": { "type": "Point", "coordinates": [ 24.521484, -20.961440 ] } }
{ "type": "Feature", "tippecanoe": { "layer": "7F5D85A072401585558552063", "minzoom": 2, "maxzoom": 8 }, "properties": { "title": "基卢瓦苏丹国", "color": "#0056E7", "oid": "103:1585278503779", "tyid": "304001", "fontsize": 12, "halo": 1.6 }, "geometry": { "type": "Point", "coordinates": [ 39.375000, -12.726084 ] } }
{ "type": "Feature", "tippecanoe": { "layer": "7F5D85A072401585558552063", "minzoom": 2, "maxzoom": 8 }, "properties": { "title": "三佛齐王国", "color": "#0056E7", "oid": "103:1585278503749", "tyid": "304000", "fontsize": 12, "halo": 1.8 }, "geometry": { "type": "Point", "coordinates": [ 101.513672, -0.439449 ] } }
{ "type": "Feature", "tippecanoe": { "layer": "7F5D85A073201585558552064", "minzoom": 2, "maxzoom": 8 }, "properties": { "title": "玛雅文明[后古典时期]", "color": "#202020", "oid": "103:1585278503742", "tyid": "304000", "fontsize": 12, "halo": 0.8 }, "geometry": { "type": "Point", "coordinates": [ -89.472656, 18.562947 ] } }
{ "type": "Feature", "tippecanoe": { "layer": "7F5D85A073201585558552064", "minzoom": 2, "maxzoom": 8 }, "properties": { "title": "苏格兰王国", "color": "#202020", "oid": "103:1585278503827", "tyid": "304000", "fontsize": 12, "halo": 0.8 }, "geometry": { "type": "Point", "coordinates": [ -4.042969, 56.704506 ] } }
{ "type": "Feature", "tippecanoe": { "layer": "7F5D85A073201585558552064", "minzoom": 2, "maxzoom": 8 }, "properties": { "title": "康诺特诸王国", "color": "#202020", "oid": "103:1585278503830", "tyid": "304000", "fontsize": 12, "halo": 0.8 }, "geometry": { "type": "Point", "coordinates": [ -8.701172, 53.696706 ] } }
{ "type": "Feature", "tippecanoe": { "layer": "7F5D85A073201585558552064", "minzoom": 2, "maxzoom": 8 }, "properties": { "title": "威尔士公国", "color": "#202020", "oid": "103:1585278503798", "tyid": "304000", "fontsize": 12, "halo": 0.8 }, "geometry": { "type": "Point", "coordinates": [ -3.779297, 52.375599 ] } }
{ "type": "Feature", "tippecanoe": { "layer": "7F5D85A073201585558552064", "minzoom": 2, "maxzoom": 8 }, "properties": { "title": "布列塔尼公国", "color": "#202020", "oid": "103:1585278503854", "tyid": "304000", "fontsize": 12, "halo": 0.8 }, "geometry": { "type": "Point", "coordinates": [ -2.636719, 47.989922 ] } }
{ "type": "Feature", "tippecanoe": { "layer": "7F5D85A073201585558552064", "minzoom": 2, "maxzoom": 8 }, "properties": { "title": "卡斯蒂利亚联合王国", "color": "#202020", "oid": "103:1585278503817", "tyid": "304000", "fontsize": 12, "halo": 0.8 }, "geometry": { "type": "Point", "coordinates": [ -4.658203, 41.967659 ] } }
{ "type": "Feature", "tippecanoe": { "layer": "7F5D85A073201585558552064", "minzoom": 2, "maxzoom": 8 }, "properties": { "title": "葡萄牙王国", "color": "#202020", "oid": "103:1585278503816", "tyid": "304000", "fontsize": 12, "halo": 0.8 }, "geometry": { "type": "Point", "coordinates": [ -7.998047, 40.178873 ] } }
{ "type": "Feature", "tippecanoe": { "layer": "7F5D85A073201585558552064", "minzoom": 2, "maxzoom": 8 }, "properties": { "title": "塔克鲁尔王国", "color": "#202020", "oid": "103:1585278503883", "tyid": "304000", "fontsize": 12, "halo": 0.8 }, "geometry": { "type": "Point", "coordinates": [ -12.919922, 14.859850 ] } }
{ "type": "Feature", "tippecanoe": { "layer": "7F5D85A073201585558552064", "minzoom": 2, "maxzoom": 8 }, "properties": { "title": "博努国", "color": "#202020", "oid": "103:1585278503888", "tyid": "304000", "fontsize": 12, "halo": 0.8 }, "geometry": { "type": "Point", "coordinates": [ -2.812500, 8.407168 ] } }
{ "type": "Feature", "tippecanoe": { "layer": "7F5D85A073201585558552064", "minzoom": 2, "maxzoom": 8 }, "properties": { "title": "艾玛拉诸邦国", "color": "#262626", "oid": "103:1585278503795", "tyid": "304002", "fontsize": 12, "halo": 0.8 }, "geometry": { "type": "Point", "coordinates": [ -75.498047, -9.102097 ] } }
{ "type": "Feature", "tippecanoe": { "layer": "7F5D85A073201585558552064", "minzoom": 2, "maxzoom": 8 }, "properties": { "title": "库斯科王国", "color": "#202020", "oid": "103:1535120129194", "tyid": "304000", "fontsize": 12, "halo": 0.8 }, "geometry": { "type": "Point", "coordinates": [ -71.191406, -13.752725 ] } }
{ "type": "Feature", "tippecanoe": { "layer": "7F5D85A073201585558552064", "minzoom": 2, "maxzoom": 8 }, "properties": { "title": "丹麦王国[维京时期]", "color": "#202020", "oid": "103:1585278503835", "tyid": "304000", "fontsize": 12, "halo": 0.8 }, "geometry": { "type": "Point", "coordinates": [ 9.228516, 56.022948 ] } }
{ "type": "Feature", "tippecanoe": { "layer": "7F5D85A073201585558552064", "minzoom": 2, "maxzoom": 8 }, "properties": { "title": "佛兰德斯伯国", "color": "#202020", "oid": "103:1585278503820", "tyid": "304000", "fontsize": 12, "halo": 0.8 }, "geometry": { "type": "Point", "coordinates": [ 3.076172, 50.625073 ] } }
{ "type": "Feature", "tippecanoe": { "layer": "7F5D85A073201585558552064", "minzoom": 2, "maxzoom": 8 }, "properties": { "title": "布卢瓦伯国", "color": "#202020", "oid": "103:1585278503849", "tyid": "304000", "fontsize": 12, "halo": 0.8 }, "geometry": { "type": "Point", "coordinates": [ 4.130859, 48.690960 ] } }
{ "type": "Feature", "tippecanoe": { "layer": "7F5D85A073201585558552064", "minzoom": 2, "maxzoom": 8 }, "properties": { "title": "图卢兹伯国", "color": "#202020", "oid": "103:1585278503846", "tyid": "304000", "fontsize": 12, "halo": 0.8 }, "geometry": { "type": "Point", "coordinates": [ 2.021484, 43.707594 ] } }
{ "type": "Feature", "tippecanoe": { "layer": "7F5D85A073201585558552064", "minzoom": 2, "maxzoom": 8 }, "properties": { "title": "阿拉贡联合王国", "color": "#202020", "oid": "103:1585278503819", "tyid": "304000", "fontsize": 12, "halo": 0.8 }, "geometry": { "type": "Point", "coordinates": [ 0.263672, 41.771312 ] } }
{ "type": "Feature", "tippecanoe": { "layer": "7F5D85A073201585558552064", "minzoom": 2, "maxzoom": 8 }, "properties": { "title": "波西米亚王国", "color": "#202020", "oid": "103:1535120129169", "tyid": "304000", "fontsize": 12, "halo": 0.8 }, "geometry": { "type": "Point", "coordinates": [ 14.853516, 49.667628 ] } }
{ "type": "Feature", "tippecanoe": { "layer": "7F5D85A073201585558552064", "minzoom": 2, "maxzoom": 8 }, "properties": { "title": "教皇国", "color": "#202020", "oid": "103:1535120129183", "tyid": "304000", "fontsize": 12, "halo": 0.8 }, "geometry": { "type": "Point", "coordinates": [ 12.304688, 42.553080 ] } }
{ "type": "Feature", "tippecanoe": { "layer": "7F5D85A073201585558552064", "minzoom": 2, "maxzoom": 8 }, "properties": { "title": "威尼斯共和国", "color": "#202020", "oid": "103:1585278503864", "tyid": "304000", "fontsize": 12, "halo": 0.8 }, "geometry": { "type": "Point", "coordinates": [ 15.556641, 44.024422 ] } }
{ "type": "Feature", "tippecanoe": { "layer": "7F5D85A073201585558552064", "minzoom": 2, "maxzoom": 8 }, "properties": { "title": "塞尔维亚王国[中世纪]", "color": "#202020", "oid": "103:1585278503872", "tyid": "304000", "fontsize": 12, "halo": 0.8 }, "geometry": { "type": "Point", "coordinates": [ 19.423828, 43.068888 ] } }
{ "type": "Feature", "tippecanoe": { "layer": "7F5D85A073201585558552064", "minzoom": 2, "maxzoom": 8 }, "properties": { "title": "丹麦爱沙尼亚公国", "color": "#202020", "oid": "103:1585278503750", "tyid": "304000", "fontsize": 12, "halo": 0.8 }, "geometry": { "type": "Point", "coordinates": [ 25.664062, 59.265881 ] } }
{ "type": "Feature", "tippecanoe": { "layer": "7F5D85A073201585558552064", "minzoom": 2, "maxzoom": 8 }, "properties": { "title": "立陶宛大公国", "color": "#202020", "oid": "103:1535120129174", "tyid": "304000", "fontsize": 12, "halo": 0.8 }, "geometry": { "type": "Point", "coordinates": [ 24.609375, 54.775346 ] } }
{ "type": "Feature", "tippecanoe": { "layer": "7F5D85A073201585558552064", "minzoom": 2, "maxzoom": 8 }, "properties": { "title": "图罗夫公国", "color": "#202020", "oid": "103:1585278503810", "tyid": "304000", "fontsize": 12, "halo": 0.8 }, "geometry": { "type": "Point", "coordinates": [ 27.509766, 52.214339 ] } }
{ "type": "Feature", "tippecanoe": { "layer": "7F5D85A073201585558552064", "minzoom": 2, "maxzoom": 8 }, "properties": { "title": "波洛茨克公国", "color": "#202020", "oid": "103:1585278503808", "tyid": "304000", "fontsize": 12, "halo": 0.8 }, "geometry": { "type": "Point", "coordinates": [ 28.125000, 54.265224 ] } }
{ "type": "Feature", "tippecanoe": { "layer": "7F5D85A073201585558552064", "minzoom": 2, "maxzoom": 8 }, "properties": { "title": "斯摩棱斯克大公国", "color": "#202020", "oid": "103:1585278503806", "tyid": "304000", "fontsize": 12, "halo": 0.8 }, "geometry": { "type": "Point", "coordinates": [ 32.607422, 54.826008 ] } }
{ "type": "Feature", "tippecanoe": { "layer": "7F5D85A073201585558552064", "minzoom": 2, "maxzoom": 8 }, "properties": { "title": "切尔尼戈夫公国", "color": "#202020", "oid": "103:1585278503841", "tyid": "304000", "fontsize": 12, "halo": 0.8 }, "geometry": { "type": "Point", "coordinates": [ 35.507812, 53.330873 ] } }
{ "type": "Feature", "tippecanoe": { "layer": "7F5D85A073201585558552064", "minzoom": 2, "maxzoom": 8 }, "properties": { "title": "诺夫哥罗德-谢韦尔斯克公国", "color": "#202020", "oid": "103:1585278503805", "tyid": "304000", "fontsize": 12, "halo": 0.8 }, "geometry": { "type": "Point", "coordinates": [ 36.386719, 51.781436 ] } }
{ "type": "Feature", "tippecanoe": { "layer": "7F5D85A073201585558552064", "minzoom": 2, "maxzoom": 8 }, "properties": { "title": "切尔克斯人", "color": "#262626", "oid": "103:1585278503766", "tyid": "304001", "fontsize": 12, "halo": 0.8 }, "geometry": { "type": "Point", "coordinates": [ 39.375000, 44.653024 ] } }
{ "type": "Feature", "tippecanoe": { "layer": "7F5D85A073201585558552064", "minzoom": 2, "maxzoom": 8 }, "properties": { "title": "格鲁吉亚王国", "color": "#202020", "oid": "103:1585278503928", "tyid": "304000", "fontsize": 12, "halo": 0.8 }, "geometry": { "type": "Point", "coordinates": [ 43.242188, 41.376809 ] } }
{ "type": "Feature", "tippecanoe": { "layer": "7F5D85A073201585558552064", "minzoom": 2, "maxzoom": 8 }, "properties": { "title": "西西里王国", "color": "#202020", "oid": "103:1535120129181", "tyid": "304000", "fontsize": 12, "halo": 0.8 }, "geometry": { "type": "Point", "coordinates": [ 15.732422, 40.913513 ] } }
{ "type": "Feature", "tippecanoe": { "layer": "7F5D85A073201585558552064", "minzoom": 2, "maxzoom": 8 }, "properties": { "title": "瓦努贾米", "color": "#262626", "oid": "103:1585278503767", "tyid": "304001", "fontsize": 12, "halo": 0.8 }, "geometry": { "type": "Point", "coordinates": [ 11.513672, 32.842674 ] } }
{ "type": "Feature", "tippecanoe": { "layer": "7F5D85A073201585558552064", "minzoom": 2, "maxzoom": 8 }, "properties": { "title": "伊庇鲁斯专制国", "color": "#202020", "oid": "103:1585278503869", "tyid": "304000", "fontsize": 12, "halo": 0.8 }, "geometry": { "type": "Point", "coordinates": [ 22.236328, 39.504041 ] } }
{ "type": "Feature", "tippecanoe": { "layer": "7F5D85A073201585558552064", "minzoom": 2, "maxzoom": 8 }, "properties": { "title": "阿凯亚公国", "color": "#202020", "oid": "103:1585278503752", "tyid": "304000", "fontsize": 12, "halo": 0.8 }, "geometry": { "type": "Point", "coordinates": [ 22.236328, 37.509726 ] } }
{ "type": "Feature", "tippecanoe": { "layer": "7F5D85A073201585558552064", "minzoom": 2, "maxzoom": 8 }, "properties": { "title": "加奥帝国", "color": "#202020", "oid": "103:1585278503885", "tyid": "304000", "fontsize": 12, "halo": 0.8 }, "geometry": { "type": "Point", "coordinates": [ 0.878906, 15.707663 ] } }
{ "type": "Feature", "tippecanoe": { "layer": "7F5D85A073201585558552064", "minzoom": 2, "maxzoom": 8 }, "properties": { "title": "贝宁王国", "color": "#202020", "oid": "103:1585278503892", "tyid": "304000", "fontsize": 12, "halo": 0.8 }, "geometry": { "type": "Point", "coordinates": [ 5.449219, 5.878332 ] } }
{ "type": "Feature", "tippecanoe": { "layer": "7F5D85A073201585558552064", "minzoom": 2, "maxzoom": 8 }, "properties": { "title": "伊博人", "color": "#262626", "oid": "103:1585278503788", "tyid": "304001", "fontsize": 12, "halo": 0.8 }, "geometry": { "type": "Point", "coordinates": [ 9.140625, 6.140555 ] } }
{ "type": "Feature", "tippecanoe": { "layer": "7F5D85A073201585558552064", "minzoom": 2, "maxzoom": 8 }, "properties": { "title": "尼日王国", "color": "#202020", "oid": "103:1585278503759", "tyid": "304000", "fontsize": 12, "halo": 0.8 }, "geometry": { "type": "Point", "coordinates": [ 6.679688, 5.353521 ] } }
{ "type": "Feature", "tippecanoe": { "layer": "7F5D85A073201585558552064", "minzoom": 2, "maxzoom": 8 }, "properties": { "title": "东罗马帝国", "color": "#202020", "oid": "103:1585278503922", "tyid": "304000", "fontsize": 12, "halo": 0.8 }, "geometry": { "type": "Point", "coordinates": [ 28.828125, 39.977120 ] } }
{ "type": "Feature", "tippecanoe": { "layer": "7F5D85A073201585558552064", "minzoom": 2, "maxzoom": 8 }, "properties": { "title": "奇里乞亚亚美尼亚王国", "color": "#202020", "oid": "103:1535120129185", "tyid": "304000", "fontsize": 12, "halo": 0.8 }, "geometry": { "type": "Point", "coordinates": [ 35.683594, 37.300275 ] } }
{ "type": "Feature", "tippecanoe": { "layer": "7F5D85A073201585558552064", "minzoom": 2, "maxzoom": 8 }, "properties": { "title": "贝扎人", "color": "#262626", "oid": "103:1585278503900", "tyid": "304001", "fontsize": 12, "halo": 0.8 }, "geometry": { "type": "Point", "coordinates": [ 36.562500, 19.642588 ] } }
{ "type": "Feature", "tippecanoe": { "layer": "7F5D85A073201585558552064", "minzoom": 2, "maxzoom": 8 }, "properties": { "title": "麦加埃米尔国", "color": "#202020", "oid": "103:1585278503740", "tyid": "304000", "fontsize": 12, "halo": 0.8 }, "geometry": { "type": "Point", "coordinates": [ 40.078125, 21.861499 ] } }
{ "type": "Feature", "tippecanoe": { "layer": "7F5D85A073201585558552064", "minzoom": 2, "maxzoom": 8 }, "properties": { "title": "锡达马人", "color": "#262626", "oid": "103:1585278503946", "tyid": "304001", "fontsize": 12, "halo": 0.8 }, "geometry": { "type": "Point", "coordinates": [ 35.771484, 4.390229 ] } }
{ "type": "Feature", "tippecanoe": { "layer": "7F5D85A073201585558552064", "minzoom": 2, "maxzoom": 8 }, "properties": { "title": "谢瓦苏丹国", "color": "#202020", "oid": "103:1585278503901", "tyid": "304000", "fontsize": 12, "halo": 0.8 }, "geometry": { "type": "Point", "coordinates": [ 42.275391, 10.833306 ] } }
{ "type": "Feature", "tippecanoe": { "layer": "7F5D85A073201585558552064", "minzoom": 2, "maxzoom": 8 }, "properties": { "title": "哈扎拉比王朝", "color": "#202020", "oid": "103:1585278503933", "tyid": "304000", "fontsize": 12, "halo": 0.8 }, "geometry": { "type": "Point", "coordinates": [ 49.921875, 31.503629 ] } }
{ "type": "Feature", "tippecanoe": { "layer": "7F5D85A073201585558552064", "minzoom": 2, "maxzoom": 8 }, "properties": { "title": "内卜汗王朝", "color": "#202020", "oid": "103:1585278503945", "tyid": "304000", "fontsize": 12, "halo": 0.8 }, "geometry": { "type": "Point", "coordinates": [ 57.128906, 22.593726 ] } }
{ "type": "Feature", "tippecanoe": { "layer": "7F5D85A073201585558552064", "minzoom": 2, "maxzoom": 8 }, "properties": { "title": "瓦桑加利苏丹国", "color": "#202020", "oid": "103:1585278503904", "tyid": "304000", "fontsize": 12, "halo": 0.8 }, "geometry": { "type": "Point", "coordinates": [ 48.779297, 10.746969 ] } }
{ "type": "Feature", "tippecanoe": { "layer": "7F5D85A073201585558552064", "minzoom": 2, "maxzoom": 8 }, "properties": { "title": "阿居兰苏丹国", "color": "#202020", "oid": "103:1585278503903", "tyid": "304000", "fontsize": 12, "halo": 0.8 }, "geometry": { "type": "Point", "coordinates": [ 45.175781, 3.688855 ] } }
{ "type": "Feature", "tippecanoe": { "layer": "7F5D85A073201585558552064", "minzoom": 2, "maxzoom": 8 }, "properties": { "title": "拉达克王系", "color": "#202020", "oid": "103:1585278503774", "tyid": "304000", "fontsize": 12, "halo": 0.8 }, "geometry": { "type": "Point", "coordinates": [ 78.486328, 33.137551 ] } }
{ "type": "Feature", "tippecanoe": { "layer": "7F5D85A073201585558552064", "minzoom": 2, "maxzoom": 8 }, "properties": { "title": "苏姆拉王朝", "color": "#202020", "oid": "103:1585278503772", "tyid": "304000", "fontsize": 12, "halo": 0.8 }, "geometry": { "type": "Point", "coordinates": [ 68.554688, 26.588527 ] } }
{ "type": "Feature", "tippecanoe": { "layer": "7F5D85A073201585558552064", "minzoom": 2, "maxzoom": 8 }, "properties": { "title": "曷萨拉帝国", "color": "#202020", "oid": "103:1585278503756", "tyid": "304000", "fontsize": 12, "halo": 0.8 }, "geometry": { "type": "Point", "coordinates": [ 75.761719, 14.859850 ] } }
{ "type": "Feature", "tippecanoe": { "layer": "7F5D85A073201585558552064", "minzoom": 2, "maxzoom": 8 }, "properties": { "title": "朱罗-遮娄其王国", "color": "#202020", "oid": "103:1585278503757", "tyid": "304000", "fontsize": 12, "halo": 0.8 }, "geometry": { "type": "Point", "coordinates": [ 78.486328, 12.897489 ] } }
{ "type": "Feature", "tippecanoe": { "layer": "7F5D85A073201585558552064", "minzoom": 2, "maxzoom": 8 }, "properties": { "title": "潘地亚帝国", "color": "#202020", "oid": "103:1585278503758", "tyid": "304000", "fontsize": 12, "halo": 0.8 }, "geometry": { "type": "Point", "coordinates": [ 77.255859, 10.487812 ] } }
{ "type": "Feature", "tippecanoe": { "layer": "7F5D85A073201585558552064", "minzoom": 2, "maxzoom": 8 }, "properties": { "title": "卡卡提亚王朝", "color": "#202020", "oid": "103:1585278503875", "tyid": "304000", "fontsize": 12, "halo": 0.8 }, "geometry": { "type": "Point", "coordinates": [ 81.035156, 18.062312 ] } }
{ "type": "Feature", "tippecanoe": { "layer": "7F5D85A073201585558552064", "minzoom": 2, "maxzoom": 8 }, "properties": { "title": "东恒伽王朝", "color": "#202020", "oid": "103:1585278503874", "tyid": "304000", "fontsize": 12, "halo": 0.8 }, "geometry": { "type": "Point", "coordinates": [ 85.078125, 20.797201 ] } }
{ "type": "Feature", "tippecanoe": { "layer": "7F5D85A073201585558552064", "minzoom": 2, "maxzoom": 8 }, "properties": { "title": "若开诸国", "color": "#262626", "oid": "103:1585278503851", "tyid": "304002", "fontsize": 12, "halo": 0.8 }, "geometry": { "type": "Point", "coordinates": [ 92.900391, 21.453069 ] } }
{ "type": "Feature", "tippecanoe": { "layer": "7F5D85A073201585558552064", "minzoom": 2, "maxzoom": 8 }, "properties": { "title": "骇黎朋猜国", "color": "#202020", "oid": "103:1585278503744", "tyid": "304000", "fontsize": 12, "halo": 0.8 }, "geometry": { "type": "Point", "coordinates": [ 99.140625, 18.562947 ] } }
{ "type": "Feature", "tippecanoe": { "layer": "7F5D85A073201585558552064", "minzoom": 2, "maxzoom": 8 }, "properties": { "title": "大越国", "color": "#202020", "oid": "103:1585278503802", "tyid": "304000", "fontsize": 12, "halo": 0.8 }, "geometry": { "type": "Point", "coordinates": [ 105.380859, 21.125498 ] } }
{ "type": "Feature", "tippecanoe": { "layer": "7F5D85A073201585558552064", "minzoom": 2, "maxzoom": 8 }, "properties": { "title": "占婆国", "color": "#202020", "oid": "103:1585278503839", "tyid": "304000", "fontsize": 12, "halo": 0.8 }, "geometry": { "type": "Point", "coordinates": [ 108.369141, 14.604847 ] } }
{ "type": "Feature", "tippecanoe": { "layer": "7F5D85A073201585558552064", "minzoom": 2, "maxzoom": 8 }, "properties": { "title": "虾夷", "color": "#262626", "oid": "103:1585278503852", "tyid": "304002", "fontsize": 12, "halo": 0.8 }, "geometry": { "type": "Point", "coordinates": [ 142.558594, 43.389082 ] } }
{ "type": "Feature", "tippecanoe": { "layer": "7F5D85A073201585558552064", "minzoom": 2, "maxzoom": 8 }, "properties": { "title": "加鲁王国", "color": "#202020", "oid": "103:1585278503879", "tyid": "304000", "fontsize": 12, "halo": 0.8 }, "geometry": { "type": "Point", "coordinates": [ 108.193359, -7.013668 ] } }
{ "type": "Feature", "tippecanoe": { "layer": "7F5D85A073201585558552064", "minzoom": 2, "maxzoom": 8 }, "properties": { "title": "信诃沙里王国", "color": "#202020", "oid": "103:1585278503880", "tyid": "304000", "fontsize": 12, "halo": 0.8 }, "geometry": { "type": "Point", "coordinates": [ 111.621094, -7.536764 ] } }
{ "type": "Feature", "tippecanoe": { "layer": "7F5D85A078601585558552071", "minzoom": 2, "maxzoom": 8 }, "properties": { "title": "英格兰王国", "color": "#202020", "oid": "103:1585278503836", "tyid": "304000", "fontsize": 12, "halo": 0.8 }, "geometry": { "type": "Point", "coordinates": [ -1.142578, 52.106505 ] } }
{ "type": "Feature", "tippecanoe": { "layer": "7F5D85A078601585558552071", "minzoom": 2, "maxzoom": 8 }, "properties": { "title": "穆瓦希德哈里发国", "color": "#202020", "oid": "103:1585278503881", "tyid": "304000", "fontsize": 12, "halo": 0.8 }, "geometry": { "type": "Point", "coordinates": [ -2.988281, 33.137551 ] } }
{ "type": "Feature", "tippecanoe": { "layer": "7F5D85A078601585558552071", "minzoom": 2, "maxzoom": 8 }, "properties": { "title": "马里帝国", "color": "#202020", "oid": "103:1585278503884", "tyid": "304000", "fontsize": 12, "halo": 0.8 }, "geometry": { "type": "Point", "coordinates": [ -8.964844, 13.496473 ] } }
{ "type": "Feature", "tippecanoe": { "layer": "7F5D85A078601585558552071", "minzoom": 2, "maxzoom": 8 }, "properties": { "title": "莫西人诸国", "color": "#202020", "oid": "103:1585278503948", "tyid": "304000", "fontsize": 12, "halo": 0.8 }, "geometry": { "type": "Point", "coordinates": [ -1.494141, 13.239945 ] } }
{ "type": "Feature", "tippecanoe": { "layer": "7F5D85A078601585558552071", "minzoom": 2, "maxzoom": 8 }, "properties": { "title": "曼德人", "color": "#262626", "oid": "103:1585278503893", "tyid": "304001", "fontsize": 12, "halo": 0.8 }, "geometry": { "type": "Point", "coordinates": [ -1.845703, 10.401378 ] } }
{ "type": "Feature", "tippecanoe": { "layer": "7F5D85A078601585558552071", "minzoom": 2, "maxzoom": 8 }, "properties": { "title": "挪威王国[维京时期]", "color": "#202020", "oid": "103:1585278503800", "tyid": "304000", "fontsize": 12, "halo": 0.8 }, "geometry": { "type": "Point", "coordinates": [ 11.601562, 62.794935 ] } }
{ "type": "Feature", "tippecanoe": { "layer": "7F5D85A078601585558552071", "minzoom": 2, "maxzoom": 8 }, "properties": { "title": "瑞典王国[维京时期]", "color": "#202020", "oid": "103:1585278503837", "tyid": "304000", "fontsize": 12, "halo": 0.8 }, "geometry": { "type": "Point", "coordinates": [ 14.326172, 59.310768 ] } }
{ "type": "Feature", "tippecanoe": { "layer": "7F5D85A078601585558552071", "minzoom": 2, "maxzoom": 8 }, "properties": { "title": "法兰西王国", "color": "#202020", "oid": "103:1585278503823", "tyid": "304000", "fontsize": 12, "halo": 0.8 }, "geometry": { "type": "Point", "coordinates": [ 1.494141, 46.195042 ] } }
{ "type": "Feature", "tippecanoe": { "layer": "7F5D85A078601585558552071", "minzoom": 2, "maxzoom": 8 }, "properties": { "title": "神圣罗马帝国", "color": "#202020", "oid": "103:1585278503824", "tyid": "304000", "fontsize": 12, "halo": 0.8 }, "geometry": { "type": "Point", "coordinates": [ 9.843750, 48.458352 ] } }
{ "type": "Feature", "tippecanoe": { "layer": "7F5D85A078601585558552071", "minzoom": 2, "maxzoom": 8 }, "properties": { "title": "波兰王国", "color": "#202020", "oid": "103:1535120129172", "tyid": "304000", "fontsize": 12, "halo": 0.8 }, "geometry": { "type": "Point", "coordinates": [ 18.896484, 51.672555 ] } }
{ "type": "Feature", "tippecanoe": { "layer": "7F5D85A078601585558552071", "minzoom": 2, "maxzoom": 8 }, "properties": { "title": "匈牙利王国", "color": "#202020", "oid": "103:1585278503813", "tyid": "304000", "fontsize": 12, "halo": 0.8 }, "geometry": { "type": "Point", "coordinates": [ 20.302734, 46.558860 ] } }
{ "type": "Feature", "tippecanoe": { "layer": "7F5D85A078601585558552071", "minzoom": 2, "maxzoom": 8 }, "properties": { "title": "条顿骑士团国", "color": "#202020", "oid": "103:1585278503857", "tyid": "304000", "fontsize": 12, "halo": 0.8 }, "geometry": { "type": "Point", "coordinates": [ 25.751953, 57.515823 ] } }
{ "type": "Feature", "tippecanoe": { "layer": "7F5D85A078601585558552071", "minzoom": 2, "maxzoom": 8 }, "properties": { "title": "诺夫哥罗德共和国", "color": "#202020", "oid": "103:1585278503838", "tyid": "304000", "fontsize": 12, "halo": 0.8 }, "geometry": { "type": "Point", "coordinates": [ 37.792969, 62.144976 ] } }
{ "type": "Feature", "tippecanoe": { "layer": "7F5D85A078601585558552071", "minzoom": 2, "maxzoom": 8 }, "properties": { "title": "弗拉基米尔-苏兹达尔大公国", "color": "#202020", "oid": "103:1585278503804", "tyid": "304000", "fontsize": 12, "halo": 0.8 }, "geometry": { "type": "Point", "coordinates": [ 41.220703, 57.421294 ] } }
{ "type": "Feature", "tippecanoe": { "layer": "7F5D85A078601585558552071", "minzoom": 2, "maxzoom": 8 }, "properties": { "title": "加利西亚-沃里尼亚王国", "color": "#202020", "oid": "103:1585278503812", "tyid": "304000", "fontsize": 12, "halo": 0.8 }, "geometry": { "type": "Point", "coordinates": [ 25.927734, 48.922499 ] } }
{ "type": "Feature", "tippecanoe": { "layer": "7F5D85A078601585558552071", "minzoom": 2, "maxzoom": 8 }, "properties": { "title": "保加利亚第二王国", "color": "#202020", "oid": "103:1585278503868", "tyid": "304000", "fontsize": 12, "halo": 0.8 }, "geometry": { "type": "Point", "coordinates": [ 23.818359, 43.004647 ] } }
{ "type": "Feature", "tippecanoe": { "layer": "7F5D85A078601585558552071", "minzoom": 2, "maxzoom": 8 }, "properties": { "title": "哈夫斯王朝", "color": "#202020", "oid": "103:1585278503882", "tyid": "304000", "fontsize": 12, "halo": 0.8 }, "geometry": { "type": "Point", "coordinates": [ 7.207031, 35.101934 ] } }
{ "type": "Feature", "tippecanoe": { "layer": "7F5D85A078601585558552071", "minzoom": 2, "maxzoom": 8 }, "properties": { "title": "图阿雷格人", "color": "#262626", "oid": "103:1585278503769", "tyid": "304001", "fontsize": 12, "halo": 0.8 }, "geometry": { "type": "Point", "coordinates": [ 10.722656, 24.367114 ] } }
{ "type": "Feature", "tippecanoe": { "layer": "7F5D85A078601585558552071", "minzoom": 2, "maxzoom": 8 }, "properties": { "title": "豪萨人诸国", "color": "#202020", "oid": "103:1585278503886", "tyid": "304000", "fontsize": 12, "halo": 0.8 }, "geometry": { "type": "Point", "coordinates": [ 6.240234, 14.008696 ] } }
{ "type": "Feature", "tippecanoe": { "layer": "7F5D85A078601585558552071", "minzoom": 2, "maxzoom": 8 }, "properties": { "title": "约鲁巴人", "color": "#262626", "oid": "103:1585278503889", "tyid": "304001", "fontsize": 12, "halo": 0.8 }, "geometry": { "type": "Point", "coordinates": [ 1.142578, 7.362467 ] } }
{ "type": "Feature", "tippecanoe": { "layer": "7F5D85A078601585558552071", "minzoom": 2, "maxzoom": 8 }, "properties": { "title": "加涅姆帝国", "color": "#202020", "oid": "103:1585278503895", "tyid": "304000", "fontsize": 12, "halo": 0.8 }, "geometry": { "type": "Point", "coordinates": [ 16.083984, 14.859850 ] } }
{ "type": "Feature", "tippecanoe": { "layer": "7F5D85A078601585558552071", "minzoom": 2, "maxzoom": 8 }, "properties": { "title": "贝蒂-帕胡因人", "color": "#262626", "oid": "103:1585278503783", "tyid": "304001", "fontsize": 12, "halo": 0.8 }, "geometry": { "type": "Point", "coordinates": [ 13.798828, 1.230374 ] } }
{ "type": "Feature", "tippecanoe": { "layer": "7F5D85A078601585558552071", "minzoom": 2, "maxzoom": 8 }, "properties": { "title": "巴赫里马穆鲁克王朝", "color": "#202020", "oid": "103:1585278503906", "tyid": "304000", "fontsize": 12, "halo": 0.8 }, "geometry": { "type": "Point", "coordinates": [ 32.695312, 26.509905 ] } }
{ "type": "Feature", "tippecanoe": { "layer": "7F5D85A078601585558552071", "minzoom": 2, "maxzoom": 8 }, "properties": { "title": "鲁姆苏丹国", "color": "#202020", "oid": "103:1585278503918", "tyid": "304000", "fontsize": 12, "halo": 0.8 }, "geometry": { "type": "Point", "coordinates": [ 35.859375, 39.774769 ] } }
{ "type": "Feature", "tippecanoe": { "layer": "7F5D85A078601585558552071", "minzoom": 2, "maxzoom": 8 }, "properties": { "title": "达优王国", "color": "#202020", "oid": "103:1585278503896", "tyid": "304000", "fontsize": 12, "halo": 0.8 }, "geometry": { "type": "Point", "coordinates": [ 24.345703, 14.264383 ] } }
{ "type": "Feature", "tippecanoe": { "layer": "7F5D85A078601585558552071", "minzoom": 2, "maxzoom": 8 }, "properties": { "title": "马库里亚王国", "color": "#202020", "oid": "103:1585278503898", "tyid": "304000", "fontsize": 12, "halo": 0.8 }, "geometry": { "type": "Point", "coordinates": [ 32.871094, 20.715015 ] } }
{ "type": "Feature", "tippecanoe": { "layer": "7F5D85A078601585558552071", "minzoom": 2, "maxzoom": 8 }, "properties": { "title": "阿罗底亚王国", "color": "#202020", "oid": "103:1585278503760", "tyid": "304000", "fontsize": 12, "halo": 0.8 }, "geometry": { "type": "Point", "coordinates": [ 33.046875, 14.093957 ] } }
{ "type": "Feature", "tippecanoe": { "layer": "7F5D85A078601585558552071", "minzoom": 2, "maxzoom": 8 }, "properties": { "title": "卢欧诸部", "color": "#262626", "oid": "103:1585278503786", "tyid": "304001", "fontsize": 12, "halo": 0.8 }, "geometry": { "type": "Point", "coordinates": [ 31.640625, 5.878332 ] } }
{ "type": "Feature", "tippecanoe": { "layer": "7F5D85A078601585558552071", "minzoom": 2, "maxzoom": 8 }, "properties": { "title": "扎格维王朝", "color": "#202020", "oid": "103:1585278503899", "tyid": "304000", "fontsize": 12, "halo": 0.8 }, "geometry": { "type": "Point", "coordinates": [ 37.792969, 10.746969 ] } }
{ "type": "Feature", "tippecanoe": { "layer": "7F5D85A078601585558552071", "minzoom": 2, "maxzoom": 8 }, "properties": { "title": "雅库特人", "color": "#202020", "oid": "103:1585278503792", "tyid": "304000", "fontsize": 12, "halo": 0.8 }, "geometry": { "type": "Point", "coordinates": [ 65.566406, 59.756395 ] } }
{ "type": "Feature", "tippecanoe": { "layer": "7F5D85A078601585558552071", "minzoom": 2, "maxzoom": 8 }, "properties": { "title": "钦察汗国", "color": "#202020", "oid": "103:1585278503791", "tyid": "304000", "fontsize": 12, "halo": 0.8 }, "geometry": { "type": "Point", "coordinates": [ 58.359375, 51.998410 ] } }
{ "type": "Feature", "tippecanoe": { "layer": "7F5D85A078601585558552071", "minzoom": 2, "maxzoom": 8 }, "properties": { "title": "伊尔汗国", "color": "#202020", "oid": "103:1585278503926", "tyid": "304000", "fontsize": 12, "halo": 0.8 }, "geometry": { "type": "Point", "coordinates": [ 45.439453, 32.694866 ] } }
{ "type": "Feature", "tippecanoe": { "layer": "7F5D85A078601585558552071", "minzoom": 2, "maxzoom": 8 }, "properties": { "title": "贝都因人", "color": "#202020", "oid": "103:1585278503931", "tyid": "304000", "fontsize": 12, "halo": 0.8 }, "geometry": { "type": "Point", "coordinates": [ 45.527344, 24.447150 ] } }
{ "type": "Feature", "tippecanoe": { "layer": "7F5D85A078601585558552071", "minzoom": 2, "maxzoom": 8 }, "properties": { "title": "萨尔浒王朝", "color": "#202020", "oid": "103:1585278503925", "tyid": "304000", "fontsize": 12, "halo": 0.8 }, "geometry": { "type": "Point", "coordinates": [ 52.998047, 29.458731 ] } }
{ "type": "Feature", "tippecanoe": { "layer": "7F5D85A078601585558552071", "minzoom": 2, "maxzoom": 8 }, "properties": { "title": "帕拉玛拉王朝", "color": "#202020", "oid": "103:1585278503873", "tyid": "304000", "fontsize": 12, "halo": 0.8 }, "geometry": { "type": "Point", "coordinates": [ 75.585938, 24.527135 ] } }
{ "type": "Feature", "tippecanoe": { "layer": "7F5D85A078601585558552071", "minzoom": 2, "maxzoom": 8 }, "properties": { "title": "德里苏丹奴隶王朝", "color": "#202020", "oid": "103:1585278503753", "tyid": "304000", "fontsize": 12, "halo": 0.8 }, "geometry": { "type": "Point", "coordinates": [ 80.332031, 26.667096 ] } }
{ "type": "Feature", "tippecanoe": { "layer": "7F5D85A078601585558552071", "minzoom": 2, "maxzoom": 8 }, "properties": { "title": "耶达婆王朝", "color": "#202020", "oid": "103:1585278503754", "tyid": "304000", "fontsize": 12, "halo": 0.8 }, "geometry": { "type": "Point", "coordinates": [ 77.519531, 19.808054 ] } }
{ "type": "Feature", "tippecanoe": { "layer": "7F5D85A078601585558552071", "minzoom": 2, "maxzoom": 8 }, "properties": { "title": "蒙古帝国", "color": "#202020", "oid": "103:1585278503876", "tyid": "304000", "fontsize": 12, "halo": 0.8 }, "geometry": { "type": "Point", "coordinates": [ 90.087891, 46.860191 ] } }
{ "type": "Feature", "tippecanoe": { "layer": "7F5D85A078601585558552071", "minzoom": 2, "maxzoom": 8 }, "properties": { "title": "南宋", "color": "#202020", "oid": "103:1585278503796", "tyid": "304000", "fontsize": 12, "halo": 0.8 }, "geometry": { "type": "Point", "coordinates": [ 111.621094, 27.994401 ] } }
{ "type": "Feature", "tippecanoe": { "layer": "7F5D85A078601585558552071", "minzoom": 2, "maxzoom": 8 }, "properties": { "title": "蒲甘王国", "color": "#202020", "oid": "103:1585278503803", "tyid": "304000", "fontsize": 12, "halo": 0.8 }, "geometry": { "type": "Point", "coordinates": [ 96.064453, 20.632784 ] } }
{ "type": "Feature", "tippecanoe": { "layer": "7F5D85A078601585558552071", "minzoom": 2, "maxzoom": 8 }, "properties": { "title": "高棉帝国", "color": "#202020", "oid": "103:1585278503797", "tyid": "304000", "fontsize": 12, "halo": 0.8 }, "geometry": { "type": "Point", "coordinates": [ 103.183594, 14.349548 ] } }
{ "type": "Feature", "tippecanoe": { "layer": "7F5D85A078601585558552071", "minzoom": 2, "maxzoom": 8 }, "properties": { "title": "镰仓幕府", "color": "#202020", "oid": "103:1585278503747", "tyid": "304000", "fontsize": 12, "halo": 0.8 }, "geometry": { "type": "Point", "coordinates": [ 138.955078, 36.315125 ] } }
{ "type": "Feature", "tippecanoe": { "layer": "7F5D85A078601585558552071", "minzoom": 2, "maxzoom": 8 }, "properties": { "title": "班图人诸部", "color": "#262626", "oid": "103:1585278503781", "tyid": "304001", "fontsize": 12, "halo": 0.8 }, "geometry": { "type": "Point", "coordinates": [ 27.070312, -5.528511 ] } }
{ "type": "Feature", "tippecanoe": { "layer": "7F5D85A078601585558552071", "minzoom": 2, "maxzoom": 8 }, "properties": { "title": "科伊桑人", "color": "#262626", "oid": "103:1585278503777", "tyid": "304001", "fontsize": 12, "halo": 0.8 }, "geometry": { "type": "Point", "coordinates": [ 24.521484, -20.961440 ] } }
{ "type": "Feature", "tippecanoe": { "layer": "7F5D85A078601585558552071", "minzoom": 2, "maxzoom": 8 }, "properties": { "title": "基卢瓦苏丹国", "color": "#262626", "oid": "103:1585278503779", "tyid": "304001", "fontsize": 12, "halo": 0.8 }, "geometry": { "type": "Point", "coordinates": [ 39.375000, -12.726084 ] } }
{ "type": "Feature", "tippecanoe": { "layer": "7F5D85A078601585558552071", "minzoom": 2, "maxzoom": 8 }, "properties": { "title": "三佛齐王国", "color": "#202020", "oid": "103:1585278503749", "tyid": "304000", "fontsize": 12, "halo": 0.8 }, "geometry": { "type": "Point", "coordinates": [ 101.513672, -0.439449 ] } }
{ "type": "Feature", "tippecanoe": { "layer": "7F5D85A0BE801585558552058", "minzoom": 2, "maxzoom": 8 }, "properties": { "title": "群岛王国", "color": "#0056E7", "oid": "103:1585278503834", "tyid": "304000", "fontsize": 12, "halo": 1.8 }, "geometry": { "type": "Point", "coordinates": [ -6.591797, 58.263287 ] } }
{ "type": "Feature", "tippecanoe": { "layer": "7F5D85A0BE801585558552058", "minzoom": 2, "maxzoom": 8 }, "properties": { "title": "埃里克王国", "color": "#0056E7", "oid": "103:1585278503828", "tyid": "304000", "fontsize": 12, "halo": 1.8 }, "geometry": { "type": "Point", "coordinates": [ -7.470703, 54.775346 ] } }
{ "type": "Feature", "tippecanoe": { "layer": "7F5D85A0BE801585558552058", "minzoom": 2, "maxzoom": 8 }, "properties": { "title": "纳瓦拉王国", "color": "#0056E7", "oid": "103:1585278503818", "tyid": "304000", "fontsize": 12, "halo": 1.8 }, "geometry": { "type": "Point", "coordinates": [ -2.109375, 42.940339 ] } }
{ "type": "Feature", "tippecanoe": { "layer": "7F5D85A0BE801585558552058", "minzoom": 2, "maxzoom": 8 }, "properties": { "title": "奇穆王国", "color": "#0056E7", "oid": "103:1585278503794", "tyid": "304000", "fontsize": 12, "halo": 1.8 }, "geometry": { "type": "Point", "coordinates": [ -79.189453, -7.188101 ] } }
{ "type": "Feature", "tippecanoe": { "layer": "7F5D85A0BE801585558552058", "minzoom": 2, "maxzoom": 8 }, "properties": { "title": "荷兰伯国", "color": "#0056E7", "oid": "103:1585278503833", "tyid": "304000", "fontsize": 12, "halo": 1.8 }, "geometry": { "type": "Point", "coordinates": [ 4.658203, 52.052490 ] } }
{ "type": "Feature", "tippecanoe": { "layer": "7F5D85A0BE801585558552058", "minzoom": 2, "maxzoom": 8 }, "properties": { "title": "布拉班特公国", "color": "#0056E7", "oid": "103:1585278503822", "tyid": "304000", "fontsize": 12, "halo": 1.8 }, "geometry": { "type": "Point", "coordinates": [ 4.746094, 51.069017 ] } }
{ "type": "Feature", "tippecanoe": { "layer": "7F5D85A0BE801585558552058", "minzoom": 2, "maxzoom": 8 }, "properties": { "title": "普罗旺斯伯国", "color": "#0056E7", "oid": "103:1585278503848", "tyid": "304000", "fontsize": 12, "halo": 1.8 }, "geometry": { "type": "Point", "coordinates": [ 6.064453, 43.516689 ] } }
{ "type": "Feature", "tippecanoe": { "layer": "7F5D85A0BE801585558552058", "minzoom": 2, "maxzoom": 8 }, "properties": { "title": "热那亚共和国", "color": "#0056E7", "oid": "103:1585278503847", "tyid": "304000", "fontsize": 12, "halo": 1.8 }, "geometry": { "type": "Point", "coordinates": [ 7.822266, 44.087585 ] } }
{ "type": "Feature", "tippecanoe": { "layer": "7F5D85A0BE801585558552058", "minzoom": 2, "maxzoom": 8 }, "properties": { "title": "比萨共和国", "color": "#0056E7", "oid": "103:1585278503831", "tyid": "304000", "fontsize": 12, "halo": 1.8 }, "geometry": { "type": "Point", "coordinates": [ 9.052734, 42.358544 ] } }
{ "type": "Feature", "tippecanoe": { "layer": "7F5D85A0BE801585558552058", "minzoom": 2, "maxzoom": 8 }, "properties": { "title": "哈曼穆申亲王国", "color": "#0056E7", "oid": "103:1585278503943", "tyid": "304000", "fontsize": 12, "halo": 1.8 }, "geometry": { "type": "Point", "coordinates": [ 40.869141, 41.046217 ] } }
{ "type": "Feature", "tippecanoe": { "layer": "7F5D85A0BE801585558552058", "minzoom": 2, "maxzoom": 8 }, "properties": { "title": "阿波利亚王国", "color": "#0056E7", "oid": "103:1585278503746", "tyid": "304000", "fontsize": 12, "halo": 1.8 }, "geometry": { "type": "Point", "coordinates": [ 8.789062, 39.909736 ] } }
{ "type": "Feature", "tippecanoe": { "layer": "7F5D85A0BE801585558552058", "minzoom": 2, "maxzoom": 8 }, "properties": { "title": "雅典公国", "color": "#0056E7", "oid": "103:1535120129159", "tyid": "304000", "fontsize": 12, "halo": 1.8 }, "geometry": { "type": "Point", "coordinates": [ 23.027344, 38.410558 ] } }
{ "type": "Feature", "tippecanoe": { "layer": "7F5D85A0BE801585558552058", "minzoom": 2, "maxzoom": 8 }, "properties": { "title": "爱琴群岛公国", "color": "#0056E7", "oid": "103:1585278503871", "tyid": "304000", "fontsize": 12, "halo": 1.8 }, "geometry": { "type": "Point", "coordinates": [ 25.400391, 37.090240 ] } }
{ "type": "Feature", "tippecanoe": { "layer": "7F5D85A0BE801585558552058", "minzoom": 2, "maxzoom": 8 }, "properties": { "title": "塞浦路斯王国", "color": "#0056E7", "oid": "103:1535120129179", "tyid": "304000", "fontsize": 12, "halo": 1.8 }, "geometry": { "type": "Point", "coordinates": [ 33.134766, 35.101934 ] } }
{ "type": "Feature", "tippecanoe": { "layer": "7F5D85A0BE801585558552058", "minzoom": 2, "maxzoom": 8 }, "properties": { "title": "迪夫里伊的门居切克贝伊国", "color": "#0056E7", "oid": "103:1585278503921", "tyid": "304000", "fontsize": 12, "halo": 1.8 }, "geometry": { "type": "Point", "coordinates": [ 37.968750, 39.436193 ] } }
{ "type": "Feature", "tippecanoe": { "layer": "7F5D85A0BE801585558552058", "minzoom": 2, "maxzoom": 8 }, "properties": { "title": "安条克公国", "color": "#0056E7", "oid": "103:1535120129187", "tyid": "304000", "fontsize": 12, "halo": 1.8 }, "geometry": { "type": "Point", "coordinates": [ 36.210938, 36.315125 ] } }
{ "type": "Feature", "tippecanoe": { "layer": "7F5D85A0BE801585558552058", "minzoom": 2, "maxzoom": 8 }, "properties": { "title": "尼扎里伊思马里国[叙利亚]", "color": "#0056E7", "oid": "103:1585278503762", "tyid": "304000", "fontsize": 12, "halo": 1.8 }, "geometry": { "type": "Point", "coordinates": [ 36.210938, 35.317366 ] } }
{ "type": "Feature", "tippecanoe": { "layer": "7F5D85A0BE801585558552058", "minzoom": 2, "maxzoom": 8 }, "properties": { "title": "的黎波里伯国", "color": "#0056E7", "oid": "103:1585278503911", "tyid": "304000", "fontsize": 12, "halo": 1.8 }, "geometry": { "type": "Point", "coordinates": [ 36.210938, 34.669359 ] } }
{ "type": "Feature", "tippecanoe": { "layer": "7F5D85A0BE801585558552058", "minzoom": 2, "maxzoom": 8 }, "properties": { "title": "耶路撒冷拉丁王国", "color": "#0056E7", "oid": "103:1585278503909", "tyid": "304000", "fontsize": 12, "halo": 1.8 }, "geometry": { "type": "Point", "coordinates": [ 35.244141, 32.768800 ] } }
{ "type": "Feature", "tippecanoe": { "layer": "7F5D85A0BE801585558552058", "minzoom": 2, "maxzoom": 8 }, "properties": { "title": "特拉比松帝国", "color": "#0056E7", "oid": "103:1585278503917", "tyid": "304000", "fontsize": 12, "halo": 1.8 }, "geometry": { "type": "Point", "coordinates": [ 39.375000, 40.847060 ] } }
{ "type": "Feature", "tippecanoe": { "layer": "7F5D85A0BE801585558552058", "minzoom": 2, "maxzoom": 8 }, "properties": { "title": "迪尔马克贝伊国", "color": "#0056E7", "oid": "103:1585278503942", "tyid": "304000", "fontsize": 12, "halo": 1.8 }, "geometry": { "type": "Point", "coordinates": [ 41.923828, 38.410558 ] } }
{ "type": "Feature", "tippecanoe": { "layer": "7F5D85A0BE801585558552058", "minzoom": 2, "maxzoom": 8 }, "properties": { "title": "西姆西尔亲王国", "color": "#0056E7", "oid": "103:1585278503940", "tyid": "304000", "fontsize": 12, "halo": 1.8 }, "geometry": { "type": "Point", "coordinates": [ 46.142578, 43.261206 ] } }
{ "type": "Feature", "tippecanoe": { "layer": "7F5D85A0BE801585558552058", "minzoom": 2, "maxzoom": 8 }, "properties": { "title": "高加索阿瓦尔汗国", "color": "#0056E7", "oid": "103:1585278503938", "tyid": "304000", "fontsize": 12, "halo": 1.8 }, "geometry": { "type": "Point", "coordinates": [ 46.669922, 42.358544 ] } }
{ "type": "Feature", "tippecanoe": { "layer": "7F5D85A0BE801585558552058", "minzoom": 2, "maxzoom": 8 }, "properties": { "title": "列兹金人", "color": "#0056E7", "oid": "103:1585278503936", "tyid": "304000", "fontsize": 12, "halo": 1.8 }, "geometry": { "type": "Point", "coordinates": [ 47.636719, 41.705729 ] } }
{ "type": "Feature", "tippecanoe": { "layer": "7F5D85A0BE801585558552058", "minzoom": 2, "maxzoom": 8 }, "properties": { "title": "希尔凡沙阿王朝", "color": "#0056E7", "oid": "103:1585278503934", "tyid": "304000", "fontsize": 12, "halo": 1.8 }, "geometry": { "type": "Point", "coordinates": [ 48.867188, 41.046217 ] } }
{ "type": "Feature", "tippecanoe": { "layer": "7F5D85A0BE801585558552058", "minzoom": 2, "maxzoom": 8 }, "properties": { "title": "巽他王国", "color": "#0056E7", "oid": "103:1585278503878", "tyid": "304000", "fontsize": 12, "halo": 1.8 }, "geometry": { "type": "Point", "coordinates": [ 106.611328, -6.664608 ] } }
{ "type": "Feature", "tippecanoe": { "layer": "7F5D868596A01585558552035", "minzoom": 2, "maxzoom": 8 }, "properties": { "tyid": "306000", "offset": "[0,2]", "color": "#A44900", "oid": "103:1537436004309", "icon": "door", "fontsize": 12, "title": "馀杭水门", "halo": 0.2 }, "geometry": { "type": "Point", "coordinates": [ 120.146484, 30.297018 ] } }
{ "type": "Feature", "tippecanoe": { "layer": "7F5D868596A01585558552035", "minzoom": 2, "maxzoom": 8 }, "properties": { "tyid": "306000", "offset": "[0,2]", "color": "#A44900", "oid": "103:1537436004307", "icon": "door", "fontsize": 12, "title": "天宗水门", "halo": 0.2 }, "geometry": { "type": "Point", "coordinates": [ 120.146484, 30.297018 ] } }
{ "type": "Feature", "tippecanoe": { "layer": "7F5D868596A01585558552035", "minzoom": 2, "maxzoom": 8 }, "properties": { "tyid": "306000", "offset": "[0,2]", "color": "#A44900", "oid": "103:1537436004310", "icon": "door", "fontsize": 12, "title": "馀杭门", "halo": 0.2 }, "geometry": { "type": "Point", "coordinates": [ 120.146484, 30.297018 ] } }
{ "type": "Feature", "tippecanoe": { "layer": "7F5D868596A01585558552035", "minzoom": 2, "maxzoom": 8 }, "properties": { "tyid": "306000", "offset": "[0,2]", "color": "#A44900", "oid": "103:1537436004312", "icon": "door", "fontsize": 12, "title": "钱塘门", "halo": 0.2 }, "geometry": { "type": "Point", "coordinates": [ 120.146484, 30.297018 ] } }
{ "type": "Feature", "tippecanoe": { "layer": "7F5D868596A01585558552035", "minzoom": 2, "maxzoom": 8 }, "properties": { "tyid": "306000", "offset": "[0,2]", "color": "#A44900", "oid": "103:1537436004305", "icon": "door", "fontsize": 12, "title": "艮山门", "halo": 0.2 }, "geometry": { "type": "Point", "coordinates": [ 120.146484, 30.297018 ] } }
{ "type": "Feature", "tippecanoe": { "layer": "7F5D868596A01585558552035", "minzoom": 2, "maxzoom": 8 }, "properties": { "tyid": "306000", "offset": "[0,2]", "color": "#A44900", "oid": "103:1537436004303", "icon": "door", "fontsize": 12, "title": "东青门", "halo": 0.2 }, "geometry": { "type": "Point", "coordinates": [ 120.146484, 30.297018 ] } }
{ "type": "Feature", "tippecanoe": { "layer": "7F5D868596A01585558552035", "minzoom": 2, "maxzoom": 8 }, "properties": { "tyid": "306000", "offset": "[0,2]", "color": "#A44900", "oid": "103:1537436004314", "icon": "door", "fontsize": 12, "title": "丰豫门", "halo": 0.2 }, "geometry": { "type": "Point", "coordinates": [ 120.146484, 30.297018 ] } }
{ "type": "Feature", "tippecanoe": { "layer": "7F5D868596A01585558552035", "minzoom": 2, "maxzoom": 8 }, "properties": { "tyid": "306000", "offset": "[0,2]", "color": "#A44900", "oid": "103:1537436004316", "icon": "door", "fontsize": 12, "title": "北门", "halo": 0.2 }, "geometry": { "type": "Point", "coordinates": [ 120.146484, 30.297018 ] } }
{ "type": "Feature", "tippecanoe": { "layer": "7F5D868596A01585558552035", "minzoom": 2, "maxzoom": 8 }, "properties": { "tyid": "306000", "offset": "[0,2]", "color": "#A44900", "oid": "103:1543409311095", "icon": "door", "fontsize": 12, "title": "水门", "halo": 0.2 }, "geometry": { "type": "Point", "coordinates": [ 120.146484, 30.297018 ] } }
{ "type": "Feature", "tippecanoe": { "layer": "7F5D868596A01585558552035", "minzoom": 2, "maxzoom": 8 }, "properties": { "tyid": "306000", "offset": "[0,2]", "color": "#A44900", "oid": "103:1537436004284", "icon": "door", "fontsize": 12, "title": "南门", "halo": 0.2 }, "geometry": { "type": "Point", "coordinates": [ 120.146484, 30.297018 ] } }
{ "type": "Feature", "tippecanoe": { "layer": "7F5D868596A01585558552035", "minzoom": 2, "maxzoom": 8 }, "properties": { "tyid": "306000", "offset": "[0,2]", "color": "#A44900", "oid": "103:1537436004282", "icon": "door", "fontsize": 12, "title": "清波门", "halo": 0.2 }, "geometry": { "type": "Point", "coordinates": [ 120.146484, 30.297018 ] } }
{ "type": "Feature", "tippecanoe": { "layer": "7F5D868596A01585558552035", "minzoom": 2, "maxzoom": 8 }, "properties": { "tyid": "306000", "offset": "[0,2]", "color": "#A44900", "oid": "103:1537436004286", "icon": "door", "fontsize": 12, "title": "钱湖门", "halo": 0.2 }, "geometry": { "type": "Point", "coordinates": [ 120.146484, 30.297018 ] } }
{ "type": "Feature", "tippecanoe": { "layer": "7F5D868596A01585558552035", "minzoom": 2, "maxzoom": 8 }, "properties": { "tyid": "306001", "offset": "[0,2]", "color": "#A44900", "oid": "103:1537436004328", "icon": "door", "fontsize": 12, "title": "府后门", "halo": 0.2 }, "geometry": { "type": "Point", "coordinates": [ 120.146484, 30.297018 ] } }
{ "type": "Feature", "tippecanoe": { "layer": "7F5D868596A01585558552035", "minzoom": 2, "maxzoom": 8 }, "properties": { "tyid": "306001", "offset": "[0,2]", "color": "#A44900", "oid": "103:1537436004319", "icon": "door", "fontsize": 12, "title": "和宁门", "halo": 0.2 }, "geometry": { "type": "Point", "coordinates": [ 120.146484, 30.297018 ] } }
{ "type": "Feature", "tippecanoe": { "layer": "7F5D868596A01585558552035", "minzoom": 2, "maxzoom": 8 }, "properties": { "tyid": "306000", "offset": "[0,2]", "color": "#A44900", "oid": "103:1537436004294", "icon": "door", "fontsize": 12, "title": "侯潮门", "halo": 0.2 }, "geometry": { "type": "Point", "coordinates": [ 120.146484, 30.297018 ] } }
{ "type": "Feature", "tippecanoe": { "layer": "7F5D868596A01585558552035", "minzoom": 2, "maxzoom": 8 }, "properties": { "tyid": "306001", "offset": "[0,2]", "color": "#A44900", "oid": "103:1537436004321", "icon": "door", "fontsize": 12, "title": "东华门", "halo": 0.2 }, "geometry": { "type": "Point", "coordinates": [ 120.146484, 30.297018 ] } }
{ "type": "Feature", "tippecanoe": { "layer": "7F5D868596A01585558552035", "minzoom": 2, "maxzoom": 8 }, "properties": { "tyid": "306001", "offset": "[0,2]", "color": "#A44900", "oid": "103:1537436004326", "icon": "door", "fontsize": 12, "title": "丽正门", "halo": 0.2 }, "geometry": { "type": "Point", "coordinates": [ 120.146484, 30.297018 ] } }
{ "type": "Feature", "tippecanoe": { "layer": "7F5D868596A01585558552035", "minzoom": 2, "maxzoom": 8 }, "properties": { "tyid": "306001", "offset": "[0,2]", "color": "#A44900", "oid": "103:1537436004324", "icon": "door", "fontsize": 12, "title": "东便门", "halo": 0.2 }, "geometry": { "type": "Point", "coordinates": [ 120.146484, 30.297018 ] } }
{ "type": "Feature", "tippecanoe": { "layer": "7F5D868596A01585558552035", "minzoom": 2, "maxzoom": 8 }, "properties": { "tyid": "306001", "offset": "[0,2]", "color": "#A44900", "oid": "103:1543409311100", "icon": "door", "fontsize": 12, "title": "水门", "halo": 0.2 }, "geometry": { "type": "Point", "coordinates": [ 120.146484, 30.297018 ] } }
{ "type": "Feature", "tippecanoe": { "layer": "7F5D868596A01585558552035", "minzoom": 2, "maxzoom": 8 }, "properties": { "tyid": "306000", "offset": "[0,2]", "color": "#A44900", "oid": "103:1537436004302", "icon": "door", "fontsize": 12, "title": "崇新门", "halo": 0.2 }, "geometry": { "type": "Point", "coordinates": [ 120.146484, 30.297018 ] } }
{ "type": "Feature", "tippecanoe": { "layer": "7F5D868596A01585558552035", "minzoom": 2, "maxzoom": 8 }, "properties": { "tyid": "306000", "offset": "[0,2]", "color": "#A44900", "oid": "103:1537436004300", "icon": "door", "fontsize": 12, "title": "新门", "halo": 0.2 }, "geometry": { "type": "Point", "coordinates": [ 120.146484, 30.297018 ] } }
{ "type": "Feature", "tippecanoe": { "layer": "7F5D868596A01585558552035", "minzoom": 2, "maxzoom": 8 }, "properties": { "tyid": "306000", "offset": "[0,2]", "color": "#A44900", "oid": "103:1537436004298", "icon": "door", "fontsize": 12, "title": "保安门", "halo": 0.2 }, "geometry": { "type": "Point", "coordinates": [ 120.146484, 30.297018 ] } }
{ "type": "Feature", "tippecanoe": { "layer": "7F5D868596A01585558552035", "minzoom": 2, "maxzoom": 8 }, "properties": { "tyid": "306000", "offset": "[0,2]", "color": "#A44900", "oid": "103:1537436004296", "icon": "door", "fontsize": 12, "title": "保安水门", "halo": 0.2 }, "geometry": { "type": "Point", "coordinates": [ 120.146484, 30.297018 ] } }
{ "type": "Feature", "tippecanoe": { "layer": "7F5D868596A01585558552035", "minzoom": 2, "maxzoom": 8 }, "properties": { "tyid": "306000", "offset": "[0,2]", "color": "#A44900", "oid": "103:1537436004293", "icon": "door", "fontsize": 12, "title": "便门", "halo": 0.2 }, "geometry": { "type": "Point", "coordinates": [ 120.146484, 30.297018 ] } }
{ "type": "Feature", "tippecanoe": { "layer": "7F5D868596A01585558552035", "minzoom": 2, "maxzoom": 8 }, "properties": { "tyid": "306000", "offset": "[0,2]", "color": "#A44900", "oid": "103:1537436004289", "icon": "door", "fontsize": 12, "title": "南水门", "halo": 0.2 }, "geometry": { "type": "Point", "coordinates": [ 120.146484, 30.297018 ] } }
{ "type": "Feature", "tippecanoe": { "layer": "7F5D868596A01585558552035", "minzoom": 2, "maxzoom": 8 }, "properties": { "tyid": "306000", "offset": "[0,2]", "color": "#A44900", "oid": "103:1537436004291", "icon": "door", "fontsize": 12, "title": "北水门", "halo": 0.2 }, "geometry": { "type": "Point", "coordinates": [ 120.146484, 30.297018 ] } }
{ "type": "Feature", "tippecanoe": { "layer": "7F5D868596A01585558552035", "minzoom": 2, "maxzoom": 8 }, "properties": { "tyid": "306000", "offset": "[0,2]", "color": "#A44900", "oid": "103:1537436004287", "icon": "door", "fontsize": 12, "title": "嘉会门", "halo": 0.2 }, "geometry": { "type": "Point", "coordinates": [ 120.146484, 30.221102 ] } }
{ "type": "Feature", "tippecanoe": { "layer": "7F5D86859A581585558552032", "minzoom": 2, "maxzoom": 8 }, "properties": { "title": "千里长沙", "color": "#4D4848", "oid": "103:1585278503951", "tyid": "304006", "fontsize": 12, "halo": 0.3 }, "geometry": { "type": "Point", "coordinates": [ 111.972656, 16.383391 ] } }
{ "type": "Feature", "tippecanoe": { "layer": "7F5D86859A581585558552032", "minzoom": 2, "maxzoom": 8 }, "properties": { "title": "澎湖", "color": "#4D4848", "oid": "103:1585278503952", "tyid": "304006", "fontsize": 12, "halo": 0.3 }, "geometry": { "type": "Point", "coordinates": [ 119.531250, 23.644524 ] } }
{ "type": "Feature", "tippecanoe": { "layer": "7F5D86859A581585558552032", "minzoom": 2, "maxzoom": 8 }, "properties": { "title": "红头屿", "color": "#4D4848", "oid": "103:1585278503954", "tyid": "304006", "fontsize": 12, "halo": 0.3 }, "geometry": { "type": "Point", "coordinates": [ 121.464844, 22.105999 ] } }
{ "type": "Feature", "tippecanoe": { "layer": "7F5D86859A581585558552032", "minzoom": 2, "maxzoom": 8 }, "properties": { "title": "万里石塘", "color": "#4D4848", "oid": "103:1585278503949", "tyid": "304006", "fontsize": 12, "halo": 0.3 }, "geometry": { "type": "Point", "coordinates": [ 114.257812, 9.795678 ] } }
{ "type": "Feature", "tippecanoe": { "layer": "7F5D8685BA901585558552020", "minzoom": 2, "maxzoom": 8 }, "properties": { "opacity": 1, "oid": "103:1582721307215", "tyid": "410000", "width": 3, "centroid": "{\"type\":\"Point\",\"coordinates\":[102.890655519,50.32448578]}", "color": "#A11300" }, "geometry": { "type": "MultiLineString", "coordinates": [ [ [ 108.017578, 21.616579 ], [ 106.611328, 22.024546 ], [ 106.523438, 22.512557 ], [ 106.699219, 22.836946 ], [ 105.820312, 22.998852 ], [ 105.205078, 23.402765 ], [ 103.886719, 22.512557 ], [ 103.535156, 22.836946 ], [ 103.183594, 22.105999 ], [ 102.480469, 22.512557 ], [ 101.777344, 21.861499 ], [ 101.689453, 21.207459 ], [ 101.162109, 21.207459 ], [ 100.986328, 21.779905 ], [ 100.195312, 21.534847 ], [ 99.843750, 22.105999 ], [ 99.140625, 22.187405 ], [ 99.228516, 22.917923 ], [ 98.437500, 23.079732 ], [ 98.701172, 23.402765 ], [ 98.349609, 23.966176 ], [ 98.525391, 24.206890 ], [ 97.294922, 23.805450 ], [ 97.470703, 25.324167 ], [ 98.261719, 26.431228 ], [ 98.701172, 26.667096 ], [ 98.613281, 27.605671 ], [ 98.261719, 27.605671 ], [ 98.085938, 28.226970 ], [ 97.558594, 28.536275 ], [ 97.031250, 27.761330 ], [ 96.240234, 28.304381 ], [ 95.625000, 28.304381 ], [ 94.218750, 27.605671 ], [ 93.691406, 27.059126 ], [ 92.988281, 26.902477 ], [ 92.021484, 26.902477 ], [ 92.109375, 27.371767 ], [ 91.494141, 27.605671 ], [ 91.494141, 27.916767 ], [ 90.791016, 28.071980 ] ], [ [ 130.605469, 42.293564 ], [ 130.166016, 42.940339 ], [ 129.814453, 43.004647 ], [ 129.638672, 42.488302 ], [ 129.287109, 42.423457 ], [ 128.847656, 42.032974 ], [ 127.968750, 42.032974 ], [ 128.232422, 41.574361 ], [ 128.056641, 41.442726 ], [ 127.177734, 41.508577 ], [ 126.826172, 41.836828 ], [ 125.947266, 40.913513 ], [ 124.804688, 40.513799 ], [ 124.277344, 40.044438 ] ], [ [ 135.263672, 54.775346 ], [ 132.978516, 54.162434 ], [ 130.517578, 54.110943 ], [ 131.835938, 54.927142 ], [ 131.044922, 55.677584 ], [ 129.462891, 55.776573 ], [ 128.759766, 55.528631 ], [ 127.705078, 55.727110 ], [ 126.123047, 55.627996 ], [ 125.859375, 55.825973 ], [ 124.804688, 55.924586 ], [ 123.134766, 54.775346 ], [ 121.376953, 54.265224 ], [ 121.025391, 54.521081 ], [ 120.234375, 54.162434 ], [ 119.267578, 54.007769 ], [ 119.003906, 53.383328 ], [ 119.179688, 53.120405 ], [ 120.058594, 53.488046 ], [ 121.201172, 53.540307 ], [ 121.376953, 53.383328 ], [ 120.761719, 53.278353 ], [ 119.970703, 52.802761 ], [ 120.058594, 52.589701 ], [ 120.673828, 52.536273 ], [ 120.673828, 51.998410 ], [ 120.058594, 51.672555 ], [ 119.091797, 50.401515 ], [ 119.355469, 50.401515 ], [ 119.267578, 50.120578 ], [ 118.037109, 49.610710 ], [ 116.191406, 50.064192 ], [ 115.312500, 49.951220 ], [ 114.960938, 50.233152 ], [ 114.257812, 50.289339 ], [ 112.675781, 49.496675 ], [ 110.654297, 49.152970 ], [ 108.457031, 49.382373 ], [ 107.929688, 49.724479 ], [ 107.929688, 49.951220 ], [ 107.050781, 50.064192 ], [ 106.523438, 50.345460 ], [ 105.292969, 50.513427 ], [ 103.974609, 50.176898 ], [ 103.271484, 50.233152 ], [ 102.216797, 50.625073 ], [ 102.041016, 51.399206 ], [ 98.964844, 52.106505 ], [ 98.613281, 52.482780 ], [ 98.876953, 52.908902 ], [ 99.140625, 52.961875 ], [ 98.789062, 53.173119 ], [ 98.173828, 53.120405 ], [ 96.767578, 53.800651 ], [ 96.416016, 53.592505 ], [ 94.658203, 53.435719 ], [ 94.394531, 52.961875 ], [ 94.130859, 52.908902 ], [ 93.515625, 52.214339 ], [ 92.812500, 51.890054 ], [ 91.054688, 51.890054 ], [ 90.175781, 52.696361 ], [ 87.802734, 53.383328 ], [ 86.396484, 53.173119 ], [ 86.132812, 52.908902 ], [ 83.056641, 51.618017 ], [ 82.617188, 51.179343 ], [ 83.056641, 50.958427 ], [ 83.232422, 50.513427 ], [ 82.529297, 49.724479 ], [ 82.529297, 49.325122 ], [ 81.298828, 48.690960 ], [ 81.035156, 48.166085 ], [ 79.628906, 47.694974 ], [ 79.453125, 46.800059 ], [ 78.750000, 46.800059 ], [ 78.750000, 46.619261 ], [ 78.574219, 46.800059 ], [ 78.222656, 46.498392 ], [ 77.783203, 46.679594 ], [ 74.531250, 46.800059 ], [ 73.564453, 46.134170 ], [ 73.388672, 45.706179 ], [ 72.070312, 44.964798 ], [ 70.488281, 44.402392 ], [ 69.521484, 43.452919 ], [ 70.927734, 42.293564 ], [ 73.212891, 42.163403 ], [ 73.916016, 41.836828 ], [ 74.003906, 41.574361 ], [ 73.300781, 41.508577 ], [ 73.828125, 41.046217 ], [ 73.212891, 40.847060 ], [ 72.949219, 40.446947 ], [ 73.125000, 40.044438 ], [ 72.773438, 39.842286 ], [ 72.861328, 39.368279 ], [ 72.421875, 39.436193 ], [ 72.070312, 39.095963 ], [ 72.246094, 38.548165 ], [ 71.894531, 38.272689 ], [ 72.158203, 37.649034 ], [ 71.718750, 36.738884 ], [ 73.476562, 37.509726 ], [ 73.740234, 37.439974 ], [ 73.740234, 37.160317 ], [ 74.531250, 37.090240 ], [ 75.673828, 36.385913 ], [ 75.761719, 36.031332 ], [ 74.882812, 35.817813 ], [ 75.322266, 35.173808 ], [ 75.146484, 34.669359 ], [ 76.113281, 33.578015 ], [ 77.080078, 32.990236 ], [ 77.080078, 32.472695 ], [ 77.871094, 31.802893 ], [ 78.662109, 31.728167 ], [ 79.013672, 31.052934 ], [ 79.892578, 30.826781 ], [ 80.683594, 30.145127 ], [ 82.001953, 30.145127 ], [ 83.583984, 29.228890 ], [ 83.935547, 29.305561 ], [ 84.462891, 28.536275 ], [ 85.605469, 28.226970 ], [ 85.869141, 27.916767 ], [ 87.714844, 27.839076 ], [ 88.681641, 28.071980 ], [ 88.945312, 27.215556 ], [ 89.560547, 28.226970 ], [ 90.791016, 28.071980 ] ] ] } }
{ "type": "Feature", "tippecanoe": { "layer": "7F5D8685BA901585558552020", "minzoom": 2, "maxzoom": 8 }, "properties": { "opacity": 1, "oid": "103:1582721307213", "tyid": "410000", "width": 3, "centroid": "{\"type\":\"Point\",\"coordinates\":[118.9965612163,11.9748626986]}", "color": "#A11300" }, "geometry": { "type": "MultiLineString", "coordinates": [ [ [ 122.695312, 24.447150 ], [ 122.431641, 23.402765 ] ], [ [ 120.849609, 20.550509 ], [ 121.728516, 21.616579 ] ], [ [ 119.355469, 17.727759 ], [ 119.794922, 18.895893 ] ], [ [ 118.916016, 14.689881 ], [ 118.916016, 16.045813 ] ], [ [ 118.476562, 10.833306 ], [ 119.003906, 12.039321 ] ], [ [ 115.312500, 7.013668 ], [ 116.191406, 8.059230 ] ], [ [ 111.708984, 3.425692 ], [ 112.939453, 3.864255 ] ], [ [ 108.281250, 5.965754 ], [ 108.193359, 7.362467 ] ], [ [ 110.039062, 11.264612 ], [ 110.214844, 12.468760 ] ], [ [ 109.775391, 15.029686 ], [ 109.248047, 16.214675 ] ] ] } }
{ "type": "Feature", "tippecanoe": { "layer": "7F5D871621981585558552018", "minzoom": 2, "maxzoom": 8 },