{ "type": "Feature", "tippecanoe": { "layer": "2AFCA08CE1981583915384954", "minzoom": 2, "maxzoom": 8 }, "properties": { "halo": 1.8, "title": "康诺特诸王国", "fontsize": 12, "tyid": "304000", "oid": "103:1537435933450", "color": "#0056E7" }, "geometry": { "type": "Point", "coordinates": [ -9.228516, 53.800651 ] } }
{ "type": "Feature", "tippecanoe": { "layer": "2AFCA08CE1981583915384954", "minzoom": 2, "maxzoom": 8 }, "properties": { "halo": 1.8, "title": "索蒙德王国", "fontsize": 12, "tyid": "304000", "oid": "103:1537435933448", "color": "#0056E7" }, "geometry": { "type": "Point", "coordinates": [ -8.876953, 52.961875 ] } }
{ "type": "Feature", "tippecanoe": { "layer": "2AFCA08CE1981583915384954", "minzoom": 2, "maxzoom": 8 }, "properties": { "halo": 1.8, "title": "埃里克王国", "fontsize": 12, "tyid": "304000", "oid": "103:1537435933452", "color": "#0056E7" }, "geometry": { "type": "Point", "coordinates": [ -7.470703, 54.775346 ] } }
{ "type": "Feature", "tippecanoe": { "layer": "2AFCA08CE1981583915384954", "minzoom": 2, "maxzoom": 8 }, "properties": { "halo": 1.8, "title": "纳瓦拉王国", "fontsize": 12, "tyid": "304000", "oid": "103:1535120124417", "color": "#0056E7" }, "geometry": { "type": "Point", "coordinates": [ -1.406250, 42.553080 ] } }
{ "type": "Feature", "tippecanoe": { "layer": "2AFCA08CE1981583915384954", "minzoom": 2, "maxzoom": 8 }, "properties": { "halo": 1.6, "title": "艾宰穆尔国", "fontsize": 12, "tyid": "304001", "oid": "103:1537435933407", "color": "#0056E7" }, "geometry": { "type": "Point", "coordinates": [ -8.349609, 33.137551 ] } }
{ "type": "Feature", "tippecanoe": { "layer": "2AFCA08CE1981583915384954", "minzoom": 2, "maxzoom": 8 }, "properties": { "halo": 1.6, "title": "辛塔塔人部落", "fontsize": 12, "tyid": "304001", "oid": "103:1537435933425", "color": "#0056E7" }, "geometry": { "type": "Point", "coordinates": [ -7.998047, 31.728167 ] } }
{ "type": "Feature", "tippecanoe": { "layer": "2AFCA08CE1981583915384954", "minzoom": 2, "maxzoom": 8 }, "properties": { "halo": 1.8, "title": "奇穆王国", "fontsize": 12, "tyid": "304000", "oid": "103:1535120124583", "color": "#0056E7" }, "geometry": { "type": "Point", "coordinates": [ -79.189453, -7.188101 ] } }
{ "type": "Feature", "tippecanoe": { "layer": "2AFCA08CE1981583915384954", "minzoom": 2, "maxzoom": 8 }, "properties": { "halo": 1.6, "title": "切尔克斯人", "fontsize": 12, "tyid": "304001", "oid": "103:1535120124296", "color": "#0056E7" }, "geometry": { "type": "Point", "coordinates": [ 41.132812, 43.580391 ] } }
{ "type": "Feature", "tippecanoe": { "layer": "2AFCA08CE1981583915384954", "minzoom": 2, "maxzoom": 8 }, "properties": { "halo": 1.6, "title": "奥塞梯人", "fontsize": 12, "tyid": "304001", "oid": "103:1537435933357", "color": "#0056E7" }, "geometry": { "type": "Point", "coordinates": [ 43.769531, 43.068888 ] } }
{ "type": "Feature", "tippecanoe": { "layer": "2AFCA08CE1981583915384954", "minzoom": 2, "maxzoom": 8 }, "properties": { "halo": 1.8, "title": "阿凯亚公国", "fontsize": 12, "tyid": "304000", "oid": "103:1576922420496", "color": "#0056E7" }, "geometry": { "type": "Point", "coordinates": [ 21.796875, 37.996163 ] } }
{ "type": "Feature", "tippecanoe": { "layer": "2AFCA08CE1981583915384954", "minzoom": 2, "maxzoom": 8 }, "properties": { "halo": 1.8, "title": "东罗马帝国", "fontsize": 12, "tyid": "304000", "oid": "103:1537435933443", "color": "#0056E7" }, "geometry": { "type": "Point", "coordinates": [ 23.378906, 40.513799 ] } }
{ "type": "Feature", "tippecanoe": { "layer": "2AFCA08CE1981583915384954", "minzoom": 2, "maxzoom": 8 }, "properties": { "halo": 1.8, "title": "雅典公国", "fontsize": 12, "tyid": "304000", "oid": "103:1535120124459", "color": "#0056E7" }, "geometry": { "type": "Point", "coordinates": [ 22.939453, 38.479395 ] } }
{ "type": "Feature", "tippecanoe": { "layer": "2AFCA08CE1981583915384954", "minzoom": 2, "maxzoom": 8 }, "properties": { "halo": 1.8, "title": "撒鲁罕贝伊国", "fontsize": 12, "tyid": "304000", "oid": "103:1537435933399", "color": "#0056E7" }, "geometry": { "type": "Point", "coordinates": [ 28.037109, 38.685510 ] } }
{ "type": "Feature", "tippecanoe": { "layer": "2AFCA08CE1981583915384954", "minzoom": 2, "maxzoom": 8 }, "properties": { "halo": 1.8, "title": "罗德骑士团控制区", "fontsize": 12, "tyid": "304000", "oid": "103:1537435933445", "color": "#0056E7" }, "geometry": { "type": "Point", "coordinates": [ 27.861328, 36.244273 ] } }
{ "type": "Feature", "tippecanoe": { "layer": "2AFCA08CE1981583915384954", "minzoom": 2, "maxzoom": 8 }, "properties": { "halo": 1.8, "title": "门泰谢贝伊国", "fontsize": 12, "tyid": "304000", "oid": "103:1535120124332", "color": "#0056E7" }, "geometry": { "type": "Point", "coordinates": [ 28.212891, 37.230328 ] } }
{ "type": "Feature", "tippecanoe": { "layer": "2AFCA08CE1981583915384954", "minzoom": 2, "maxzoom": 8 }, "properties": { "halo": 1.8, "title": "塞浦路斯王国", "fontsize": 12, "tyid": "304000", "oid": "103:1535120124573", "color": "#0056E7" }, "geometry": { "type": "Point", "coordinates": [ 33.134766, 35.101934 ] } }
{ "type": "Feature", "tippecanoe": { "layer": "2AFCA08CE1981583915384954", "minzoom": 2, "maxzoom": 8 }, "properties": { "halo": 1.8, "title": "开罗的阿拔斯哈里发国", "fontsize": 12, "tyid": "304000", "oid": "103:1576922420478", "color": "#0056E7" }, "geometry": { "type": "Point", "coordinates": [ 31.201172, 30.069094 ] } }
{ "type": "Feature", "tippecanoe": { "layer": "2AFCA08CE1981583915384954", "minzoom": 2, "maxzoom": 8 }, "properties": { "halo": 1.8, "title": "奇里乞亚亚美尼亚王国", "fontsize": 12, "tyid": "304000", "oid": "103:1576922420480", "color": "#0056E7" }, "geometry": { "type": "Point", "coordinates": [ 35.771484, 37.579413 ] } }
{ "type": "Feature", "tippecanoe": { "layer": "2AFCA08CE1981583915384954", "minzoom": 2, "maxzoom": 8 }, "properties": { "halo": 1.8, "title": "杰尼奇诸贝伊国", "fontsize": 12, "tyid": "304000", "oid": "103:1537435933388", "color": "#0056E7" }, "geometry": { "type": "Point", "coordinates": [ 37.265625, 40.979898 ] } }
{ "type": "Feature", "tippecanoe": { "layer": "2AFCA08CE1981583915384954", "minzoom": 2, "maxzoom": 8 }, "properties": { "halo": 1.8, "title": "特拉比松帝国", "fontsize": 12, "tyid": "304000", "oid": "103:1535120124322", "color": "#0056E7" }, "geometry": { "type": "Point", "coordinates": [ 39.199219, 40.713956 ] } }
{ "type": "Feature", "tippecanoe": { "layer": "2AFCA08CE1981583915384954", "minzoom": 2, "maxzoom": 8 }, "properties": { "halo": 1.8, "title": "马尔丁的阿尔图格贝伊国", "fontsize": 12, "tyid": "304000", "oid": "103:1537435933427", "color": "#0056E7" }, "geometry": { "type": "Point", "coordinates": [ 40.693359, 37.439974 ] } }
{ "type": "Feature", "tippecanoe": { "layer": "2AFCA08CE1981583915384954", "minzoom": 2, "maxzoom": 8 }, "properties": { "halo": 1.8, "title": "迪尔马克贝伊国", "fontsize": 12, "tyid": "304000", "oid": "103:1535120124387", "color": "#0056E7" }, "geometry": { "type": "Point", "coordinates": [ 42.099609, 38.410558 ] } }
{ "type": "Feature", "tippecanoe": { "layer": "2AFCA08CE1981583915384954", "minzoom": 2, "maxzoom": 8 }, "properties": { "halo": 1.8, "title": "马库里亚王国", "fontsize": 12, "tyid": "304000", "oid": "103:1535120124355", "color": "#0056E7" }, "geometry": { "type": "Point", "coordinates": [ 30.410156, 19.228177 ] } }
{ "type": "Feature", "tippecanoe": { "layer": "2AFCA08CE1981583915384954", "minzoom": 2, "maxzoom": 8 }, "properties": { "halo": 1.8, "title": "西姆西尔亲王国", "fontsize": 12, "tyid": "304000", "oid": "103:1535120124575", "color": "#0056E7" }, "geometry": { "type": "Point", "coordinates": [ 46.142578, 43.261206 ] } }
{ "type": "Feature", "tippecanoe": { "layer": "2AFCA08CE1981583915384954", "minzoom": 2, "maxzoom": 8 }, "properties": { "halo": 1.8, "title": "高加索阿瓦尔汗国", "fontsize": 12, "tyid": "304000", "oid": "103:1535120124257", "color": "#0056E7" }, "geometry": { "type": "Point", "coordinates": [ 46.845703, 42.423457 ] } }
{ "type": "Feature", "tippecanoe": { "layer": "2AFCA08CE1981583915384954", "minzoom": 2, "maxzoom": 8 }, "properties": { "halo": 1.6, "title": "列兹金人", "fontsize": 12, "tyid": "304001", "oid": "103:1535120124294", "color": "#0056E7" }, "geometry": { "type": "Point", "coordinates": [ 47.724609, 41.705729 ] } }
{ "type": "Feature", "tippecanoe": { "layer": "2AFCA08CE1981583915384954", "minzoom": 2, "maxzoom": 8 }, "properties": { "halo": 1.8, "title": "埃沙文德王朝", "fontsize": 12, "tyid": "304000", "oid": "103:1535120124229", "color": "#0056E7" }, "geometry": { "type": "Point", "coordinates": [ 49.130859, 37.230328 ] } }
{ "type": "Feature", "tippecanoe": { "layer": "2AFCA08CE1981583915384954", "minzoom": 2, "maxzoom": 8 }, "properties": { "halo": 1.8, "title": "卡基亚王朝", "fontsize": 12, "tyid": "304000", "oid": "103:1535120124231", "color": "#0056E7" }, "geometry": { "type": "Point", "coordinates": [ 49.833984, 37.090240 ] } }
{ "type": "Feature", "tippecanoe": { "layer": "2AFCA08CE1981583915384954", "minzoom": 2, "maxzoom": 8 }, "properties": { "halo": 1.8, "title": "帕杜斯帕王朝", "fontsize": 12, "tyid": "304000", "oid": "103:1535120124227", "color": "#0056E7" }, "geometry": { "type": "Point", "coordinates": [ 51.416016, 36.456636 ] } }
{ "type": "Feature", "tippecanoe": { "layer": "2AFCA08CE1981583915384954", "minzoom": 2, "maxzoom": 8 }, "properties": { "halo": 1.8, "title": "贾尔万王朝", "fontsize": 12, "tyid": "304000", "oid": "103:1535120124270", "color": "#0056E7" }, "geometry": { "type": "Point", "coordinates": [ 49.833984, 26.588527 ] } }
{ "type": "Feature", "tippecanoe": { "layer": "2AFCA08CE1981583915384954", "minzoom": 2, "maxzoom": 8 }, "properties": { "halo": 1.8, "title": "忽里模子王国", "fontsize": 12, "tyid": "304000", "oid": "103:1535120124268", "color": "#0056E7" }, "geometry": { "type": "Point", "coordinates": [ 55.810547, 26.824071 ] } }
{ "type": "Feature", "tippecanoe": { "layer": "2AFCA08CE1981583915384954", "minzoom": 2, "maxzoom": 8 }, "properties": { "halo": 1.8, "title": "东恒伽王朝", "fontsize": 12, "tyid": "304000", "oid": "103:1535120124162", "color": "#0056E7" }, "geometry": { "type": "Point", "coordinates": [ 86.132812, 20.550509 ] } }
{ "type": "Feature", "tippecanoe": { "layer": "2AFCA08D10481583915384939", "minzoom": 2, "maxzoom": 8 }, "properties": { "halo": 0.8, "title": "康诺特诸王国", "fontsize": 12, "tyid": "304000", "oid": "103:1537435933450", "color": "#202020" }, "geometry": { "type": "Point", "coordinates": [ -9.228516, 53.800651 ] } }
{ "type": "Feature", "tippecanoe": { "layer": "2AFCA08D10481583915384939", "minzoom": 2, "maxzoom": 8 }, "properties": { "halo": 0.8, "title": "索蒙德王国", "fontsize": 12, "tyid": "304000", "oid": "103:1537435933448", "color": "#202020" }, "geometry": { "type": "Point", "coordinates": [ -8.876953, 52.961875 ] } }
{ "type": "Feature", "tippecanoe": { "layer": "2AFCA08D10481583915384939", "minzoom": 2, "maxzoom": 8 }, "properties": { "halo": 0.8, "title": "埃里克王国", "fontsize": 12, "tyid": "304000", "oid": "103:1537435933452", "color": "#202020" }, "geometry": { "type": "Point", "coordinates": [ -7.470703, 54.775346 ] } }
{ "type": "Feature", "tippecanoe": { "layer": "2AFCA08D10481583915384939", "minzoom": 2, "maxzoom": 8 }, "properties": { "halo": 0.8, "title": "纳瓦拉王国", "fontsize": 12, "tyid": "304000", "oid": "103:1535120124417", "color": "#202020" }, "geometry": { "type": "Point", "coordinates": [ -1.406250, 42.553080 ] } }
{ "type": "Feature", "tippecanoe": { "layer": "2AFCA08D10481583915384939", "minzoom": 2, "maxzoom": 8 }, "properties": { "halo": 0.8, "title": "艾宰穆尔国", "fontsize": 12, "tyid": "304001", "oid": "103:1537435933407", "color": "#262626" }, "geometry": { "type": "Point", "coordinates": [ -8.349609, 33.137551 ] } }
{ "type": "Feature", "tippecanoe": { "layer": "2AFCA08D10481583915384939", "minzoom": 2, "maxzoom": 8 }, "properties": { "halo": 0.8, "title": "辛塔塔人部落", "fontsize": 12, "tyid": "304001", "oid": "103:1537435933425", "color": "#262626" }, "geometry": { "type": "Point", "coordinates": [ -7.998047, 31.728167 ] } }
{ "type": "Feature", "tippecanoe": { "layer": "2AFCA08D10481583915384939", "minzoom": 2, "maxzoom": 8 }, "properties": { "halo": 0.8, "title": "奇穆王国", "fontsize": 12, "tyid": "304000", "oid": "103:1535120124583", "color": "#202020" }, "geometry": { "type": "Point", "coordinates": [ -79.189453, -7.188101 ] } }
{ "type": "Feature", "tippecanoe": { "layer": "2AFCA08D10481583915384939", "minzoom": 2, "maxzoom": 8 }, "properties": { "halo": 0.8, "title": "切尔克斯人", "fontsize": 12, "tyid": "304001", "oid": "103:1535120124296", "color": "#262626" }, "geometry": { "type": "Point", "coordinates": [ 41.132812, 43.580391 ] } }
{ "type": "Feature", "tippecanoe": { "layer": "2AFCA08D10481583915384939", "minzoom": 2, "maxzoom": 8 }, "properties": { "halo": 0.8, "title": "奥塞梯人", "fontsize": 12, "tyid": "304001", "oid": "103:1537435933357", "color": "#262626" }, "geometry": { "type": "Point", "coordinates": [ 43.769531, 43.068888 ] } }
{ "type": "Feature", "tippecanoe": { "layer": "2AFCA08D10481583915384939", "minzoom": 2, "maxzoom": 8 }, "properties": { "halo": 0.8, "title": "阿凯亚公国", "fontsize": 12, "tyid": "304000", "oid": "103:1576922420496", "color": "#202020" }, "geometry": { "type": "Point", "coordinates": [ 21.796875, 37.996163 ] } }
{ "type": "Feature", "tippecanoe": { "layer": "2AFCA08D10481583915384939", "minzoom": 2, "maxzoom": 8 }, "properties": { "halo": 0.8, "title": "东罗马帝国", "fontsize": 12, "tyid": "304000", "oid": "103:1537435933443", "color": "#202020" }, "geometry": { "type": "Point", "coordinates": [ 23.378906, 40.513799 ] } }
{ "type": "Feature", "tippecanoe": { "layer": "2AFCA08D10481583915384939", "minzoom": 2, "maxzoom": 8 }, "properties": { "halo": 0.8, "title": "雅典公国", "fontsize": 12, "tyid": "304000", "oid": "103:1535120124459", "color": "#202020" }, "geometry": { "type": "Point", "coordinates": [ 22.939453, 38.479395 ] } }
{ "type": "Feature", "tippecanoe": { "layer": "2AFCA08D10481583915384939", "minzoom": 2, "maxzoom": 8 }, "properties": { "halo": 0.8, "title": "撒鲁罕贝伊国", "fontsize": 12, "tyid": "304000", "oid": "103:1537435933399", "color": "#202020" }, "geometry": { "type": "Point", "coordinates": [ 28.037109, 38.685510 ] } }
{ "type": "Feature", "tippecanoe": { "layer": "2AFCA08D10481583915384939", "minzoom": 2, "maxzoom": 8 }, "properties": { "halo": 0.8, "title": "罗德骑士团控制区", "fontsize": 12, "tyid": "304000", "oid": "103:1537435933445", "color": "#202020" }, "geometry": { "type": "Point", "coordinates": [ 27.861328, 36.244273 ] } }
{ "type": "Feature", "tippecanoe": { "layer": "2AFCA08D10481583915384939", "minzoom": 2, "maxzoom": 8 }, "properties": { "halo": 0.8, "title": "门泰谢贝伊国", "fontsize": 12, "tyid": "304000", "oid": "103:1535120124332", "color": "#202020" }, "geometry": { "type": "Point", "coordinates": [ 28.212891, 37.230328 ] } }
{ "type": "Feature", "tippecanoe": { "layer": "2AFCA08D10481583915384939", "minzoom": 2, "maxzoom": 8 }, "properties": { "halo": 0.8, "title": "塞浦路斯王国", "fontsize": 12, "tyid": "304000", "oid": "103:1535120124573", "color": "#202020" }, "geometry": { "type": "Point", "coordinates": [ 33.134766, 35.101934 ] } }
{ "type": "Feature", "tippecanoe": { "layer": "2AFCA08D10481583915384939", "minzoom": 2, "maxzoom": 8 }, "properties": { "halo": 0.8, "title": "开罗的阿拔斯哈里发国", "fontsize": 12, "tyid": "304000", "oid": "103:1576922420478", "color": "#202020" }, "geometry": { "type": "Point", "coordinates": [ 31.201172, 30.069094 ] } }
{ "type": "Feature", "tippecanoe": { "layer": "2AFCA08D10481583915384939", "minzoom": 2, "maxzoom": 8 }, "properties": { "halo": 0.8, "title": "奇里乞亚亚美尼亚王国", "fontsize": 12, "tyid": "304000", "oid": "103:1576922420480", "color": "#202020" }, "geometry": { "type": "Point", "coordinates": [ 35.771484, 37.579413 ] } }
{ "type": "Feature", "tippecanoe": { "layer": "2AFCA08D10481583915384939", "minzoom": 2, "maxzoom": 8 }, "properties": { "halo": 0.8, "title": "杰尼奇诸贝伊国", "fontsize": 12, "tyid": "304000", "oid": "103:1537435933388", "color": "#202020" }, "geometry": { "type": "Point", "coordinates": [ 37.265625, 40.979898 ] } }
{ "type": "Feature", "tippecanoe": { "layer": "2AFCA08D10481583915384939", "minzoom": 2, "maxzoom": 8 }, "properties": { "halo": 0.8, "title": "特拉比松帝国", "fontsize": 12, "tyid": "304000", "oid": "103:1535120124322", "color": "#202020" }, "geometry": { "type": "Point", "coordinates": [ 39.199219, 40.713956 ] } }
{ "type": "Feature", "tippecanoe": { "layer": "2AFCA08D10481583915384939", "minzoom": 2, "maxzoom": 8 }, "properties": { "halo": 0.8, "title": "马尔丁的阿尔图格贝伊国", "fontsize": 12, "tyid": "304000", "oid": "103:1537435933427", "color": "#202020" }, "geometry": { "type": "Point", "coordinates": [ 40.693359, 37.439974 ] } }
{ "type": "Feature", "tippecanoe": { "layer": "2AFCA08D10481583915384939", "minzoom": 2, "maxzoom": 8 }, "properties": { "halo": 0.8, "title": "迪尔马克贝伊国", "fontsize": 12, "tyid": "304000", "oid": "103:1535120124387", "color": "#202020" }, "geometry": { "type": "Point", "coordinates": [ 42.099609, 38.410558 ] } }
{ "type": "Feature", "tippecanoe": { "layer": "2AFCA08D10481583915384939", "minzoom": 2, "maxzoom": 8 }, "properties": { "halo": 0.8, "title": "马库里亚王国", "fontsize": 12, "tyid": "304000", "oid": "103:1535120124355", "color": "#202020" }, "geometry": { "type": "Point", "coordinates": [ 30.410156, 19.228177 ] } }
{ "type": "Feature", "tippecanoe": { "layer": "2AFCA08D10481583915384939", "minzoom": 2, "maxzoom": 8 }, "properties": { "halo": 0.8, "title": "西姆西尔亲王国", "fontsize": 12, "tyid": "304000", "oid": "103:1535120124575", "color": "#202020" }, "geometry": { "type": "Point", "coordinates": [ 46.142578, 43.261206 ] } }
{ "type": "Feature", "tippecanoe": { "layer": "2AFCA08D10481583915384939", "minzoom": 2, "maxzoom": 8 }, "properties": { "halo": 0.8, "title": "高加索阿瓦尔汗国", "fontsize": 12, "tyid": "304000", "oid": "103:1535120124257", "color": "#202020" }, "geometry": { "type": "Point", "coordinates": [ 46.845703, 42.423457 ] } }
{ "type": "Feature", "tippecanoe": { "layer": "2AFCA08D10481583915384939", "minzoom": 2, "maxzoom": 8 }, "properties": { "halo": 0.8, "title": "列兹金人", "fontsize": 12, "tyid": "304001", "oid": "103:1535120124294", "color": "#262626" }, "geometry": { "type": "Point", "coordinates": [ 47.724609, 41.705729 ] } }
{ "type": "Feature", "tippecanoe": { "layer": "2AFCA08D10481583915384939", "minzoom": 2, "maxzoom": 8 }, "properties": { "halo": 0.8, "title": "埃沙文德王朝", "fontsize": 12, "tyid": "304000", "oid": "103:1535120124229", "color": "#202020" }, "geometry": { "type": "Point", "coordinates": [ 49.130859, 37.230328 ] } }
{ "type": "Feature", "tippecanoe": { "layer": "2AFCA08D10481583915384939", "minzoom": 2, "maxzoom": 8 }, "properties": { "halo": 0.8, "title": "卡基亚王朝", "fontsize": 12, "tyid": "304000", "oid": "103:1535120124231", "color": "#202020" }, "geometry": { "type": "Point", "coordinates": [ 49.833984, 37.090240 ] } }
{ "type": "Feature", "tippecanoe": { "layer": "2AFCA08D10481583915384939", "minzoom": 2, "maxzoom": 8 }, "properties": { "halo": 0.8, "title": "帕杜斯帕王朝", "fontsize": 12, "tyid": "304000", "oid": "103:1535120124227", "color": "#202020" }, "geometry": { "type": "Point", "coordinates": [ 51.416016, 36.456636 ] } }
{ "type": "Feature", "tippecanoe": { "layer": "2AFCA08D10481583915384939", "minzoom": 2, "maxzoom": 8 }, "properties": { "halo": 0.8, "title": "贾尔万王朝", "fontsize": 12, "tyid": "304000", "oid": "103:1535120124270", "color": "#202020" }, "geometry": { "type": "Point", "coordinates": [ 49.833984, 26.588527 ] } }
{ "type": "Feature", "tippecanoe": { "layer": "2AFCA08D10481583915384939", "minzoom": 2, "maxzoom": 8 }, "properties": { "halo": 0.8, "title": "忽里模子王国", "fontsize": 12, "tyid": "304000", "oid": "103:1535120124268", "color": "#202020" }, "geometry": { "type": "Point", "coordinates": [ 55.810547, 26.824071 ] } }
{ "type": "Feature", "tippecanoe": { "layer": "2AFCA08D10481583915384939", "minzoom": 2, "maxzoom": 8 }, "properties": { "halo": 0.8, "title": "东恒伽王朝", "fontsize": 12, "tyid": "304000", "oid": "103:1535120124162", "color": "#202020" }, "geometry": { "type": "Point", "coordinates": [ 86.132812, 20.550509 ] } }
{ "type": "Feature", "tippecanoe": { "layer": "2AFCA08D17B81583915384936", "minzoom": 2, "maxzoom": 8 }, "properties": { "halo": 0.8, "title": "塔拉斯坎帝国", "fontsize": 12, "tyid": "304000", "oid": "103:1537435933429", "color": "#202020" }, "geometry": { "type": "Point", "coordinates": [ -101.250000, 19.145168 ] } }
{ "type": "Feature", "tippecanoe": { "layer": "2AFCA08D17B81583915384936", "minzoom": 2, "maxzoom": 8 }, "properties": { "halo": 0.8, "title": "玛雅文明[后古典时期]", "fontsize": 12, "tyid": "304000", "oid": "103:1576922420500", "color": "#202020" }, "geometry": { "type": "Point", "coordinates": [ -89.472656, 18.562947 ] } }
{ "type": "Feature", "tippecanoe": { "layer": "2AFCA08D17B81583915384936", "minzoom": 2, "maxzoom": 8 }, "properties": { "halo": 0.8, "title": "苏格兰王国", "fontsize": 12, "tyid": "304000", "oid": "103:1535120124468", "color": "#202020" }, "geometry": { "type": "Point", "coordinates": [ -4.394531, 56.752723 ] } }
{ "type": "Feature", "tippecanoe": { "layer": "2AFCA08D17B81583915384936", "minzoom": 2, "maxzoom": 8 }, "properties": { "halo": 0.8, "title": "德斯蒙德王国", "fontsize": 12, "tyid": "304000", "oid": "103:1535120124471", "color": "#202020" }, "geometry": { "type": "Point", "coordinates": [ -8.789062, 52.214339 ] } }
{ "type": "Feature", "tippecanoe": { "layer": "2AFCA08D17B81583915384936", "minzoom": 2, "maxzoom": 8 }, "properties": { "halo": 0.8, "title": "葡萄牙王国", "fontsize": 12, "tyid": "304000", "oid": "103:1535120124419", "color": "#202020" }, "geometry": { "type": "Point", "coordinates": [ -7.998047, 39.774769 ] } }
{ "type": "Feature", "tippecanoe": { "layer": "2AFCA08D17B81583915384936", "minzoom": 2, "maxzoom": 8 }, "properties": { "halo": 0.8, "title": "格拉纳达埃米尔国", "fontsize": 12, "tyid": "304000", "oid": "103:1576922420492", "color": "#202020" }, "geometry": { "type": "Point", "coordinates": [ -3.339844, 37.300275 ] } }
{ "type": "Feature", "tippecanoe": { "layer": "2AFCA08D17B81583915384936", "minzoom": 2, "maxzoom": 8 }, "properties": { "halo": 0.8, "title": "吉奥拉帝国", "fontsize": 12, "tyid": "304000", "oid": "103:1537435933411", "color": "#202020" }, "geometry": { "type": "Point", "coordinates": [ -15.732422, 15.114553 ] } }
{ "type": "Feature", "tippecanoe": { "layer": "2AFCA08D17B81583915384936", "minzoom": 2, "maxzoom": 8 }, "properties": { "halo": 0.8, "title": "莫西人诸国", "fontsize": 12, "tyid": "304000", "oid": "103:1582720954541", "color": "#202020" }, "geometry": { "type": "Point", "coordinates": [ -1.494141, 13.239945 ] } }
{ "type": "Feature", "tippecanoe": { "layer": "2AFCA08D17B81583915384936", "minzoom": 2, "maxzoom": 8 }, "properties": { "halo": 0.8, "title": "博努国", "fontsize": 12, "tyid": "304000", "oid": "103:1537435933650", "color": "#202020" }, "geometry": { "type": "Point", "coordinates": [ -2.812500, 8.407168 ] } }
{ "type": "Feature", "tippecanoe": { "layer": "2AFCA08D17B81583915384936", "minzoom": 2, "maxzoom": 8 }, "properties": { "halo": 0.8, "title": "艾玛拉诸邦国", "fontsize": 12, "tyid": "304002", "oid": "103:1535120124584", "color": "#262626" }, "geometry": { "type": "Point", "coordinates": [ -75.498047, -9.102097 ] } }
{ "type": "Feature", "tippecanoe": { "layer": "2AFCA08D17B81583915384936", "minzoom": 2, "maxzoom": 8 }, "properties": { "halo": 0.8, "title": "库斯科王国", "fontsize": 12, "tyid": "304000", "oid": "103:1535120124391", "color": "#202020" }, "geometry": { "type": "Point", "coordinates": [ -71.191406, -13.752725 ] } }
{ "type": "Feature", "tippecanoe": { "layer": "2AFCA08D17B81583915384936", "minzoom": 2, "maxzoom": 8 }, "properties": { "halo": 0.8, "title": "丹麦王国[维京时期]", "fontsize": 12, "tyid": "304000", "oid": "103:1577244876214", "color": "#202020" }, "geometry": { "type": "Point", "coordinates": [ 9.228516, 56.121060 ] } }
{ "type": "Feature", "tippecanoe": { "layer": "2AFCA08D17B81583915384936", "minzoom": 2, "maxzoom": 8 }, "properties": { "halo": 0.8, "title": "阿基坦公国", "fontsize": 12, "tyid": "304000", "oid": "103:1576922420483", "color": "#202020" }, "geometry": { "type": "Point", "coordinates": [ 0.263672, 44.902578 ] } }
{ "type": "Feature", "tippecanoe": { "layer": "2AFCA08D17B81583915384936", "minzoom": 2, "maxzoom": 8 }, "properties": { "halo": 0.8, "title": "阿拉贡联合王国", "fontsize": 12, "tyid": "304000", "oid": "103:1535120124404", "color": "#202020" }, "geometry": { "type": "Point", "coordinates": [ 0.087891, 41.178654 ] } }
{ "type": "Feature", "tippecanoe": { "layer": "2AFCA08D17B81583915384936", "minzoom": 2, "maxzoom": 8 }, "properties": { "halo": 0.8, "title": "威尼斯共和国", "fontsize": 12, "tyid": "304000", "oid": "103:1535120124487", "color": "#202020" }, "geometry": { "type": "Point", "coordinates": [ 12.304688, 45.644768 ] } }
{ "type": "Feature", "tippecanoe": { "layer": "2AFCA08D17B81583915384936", "minzoom": 2, "maxzoom": 8 }, "properties": { "halo": 0.8, "title": "教皇国", "fontsize": 12, "tyid": "304000", "oid": "103:1535120124395", "color": "#202020" }, "geometry": { "type": "Point", "coordinates": [ 12.392578, 43.133061 ] } }
{ "type": "Feature", "tippecanoe": { "layer": "2AFCA08D17B81583915384936", "minzoom": 2, "maxzoom": 8 }, "properties": { "halo": 0.8, "title": "波斯尼亚班内特国", "fontsize": 12, "tyid": "304000", "oid": "103:1537435933438", "color": "#202020" }, "geometry": { "type": "Point", "coordinates": [ 17.841797, 44.087585 ] } }
{ "type": "Feature", "tippecanoe": { "layer": "2AFCA08D17B81583915384936", "minzoom": 2, "maxzoom": 8 }, "properties": { "halo": 0.8, "title": "摩尔达维亚公国", "fontsize": 12, "tyid": "304000", "oid": "103:1535120124429", "color": "#202020" }, "geometry": { "type": "Point", "coordinates": [ 27.597656, 46.920255 ] } }
{ "type": "Feature", "tippecanoe": { "layer": "2AFCA08D17B81583915384936", "minzoom": 2, "maxzoom": 8 }, "properties": { "halo": 0.8, "title": "瓦拉几亚公国", "fontsize": 12, "tyid": "304000", "oid": "103:1535120124444", "color": "#202020" }, "geometry": { "type": "Point", "coordinates": [ 25.136719, 44.590467 ] } }
{ "type": "Feature", "tippecanoe": { "layer": "2AFCA08D17B81583915384936", "minzoom": 2, "maxzoom": 8 }, "properties": { "halo": 0.8, "title": "保加利亚第二王国", "fontsize": 12, "tyid": "304000", "oid": "103:1537435933440", "color": "#202020" }, "geometry": { "type": "Point", "coordinates": [ 25.664062, 42.747012 ] } }
{ "type": "Feature", "tippecanoe": { "layer": "2AFCA08D17B81583915384936", "minzoom": 2, "maxzoom": 8 }, "properties": { "halo": 0.8, "title": "桑达尔贝伊国", "fontsize": 12, "tyid": "304000", "oid": "103:1537435933391", "color": "#202020" }, "geometry": { "type": "Point", "coordinates": [ 34.189453, 41.310824 ] } }
{ "type": "Feature", "tippecanoe": { "layer": "2AFCA08D17B81583915384936", "minzoom": 2, "maxzoom": 8 }, "properties": { "halo": 0.8, "title": "格鲁吉亚王国", "fontsize": 12, "tyid": "304000", "oid": "103:1535120124264", "color": "#202020" }, "geometry": { "type": "Point", "coordinates": [ 43.593750, 41.640078 ] } }
{ "type": "Feature", "tippecanoe": { "layer": "2AFCA08D17B81583915384936", "minzoom": 2, "maxzoom": 8 }, "properties": { "halo": 0.8, "title": "那不勒斯王国", "fontsize": 12, "tyid": "304000", "oid": "103:1535120124394", "color": "#202020" }, "geometry": { "type": "Point", "coordinates": [ 15.468750, 40.847060 ] } }
{ "type": "Feature", "tippecanoe": { "layer": "2AFCA08D17B81583915384936", "minzoom": 2, "maxzoom": 8 }, "properties": { "halo": 0.8, "title": "博尔古王国", "fontsize": 12, "tyid": "304000", "oid": "103:1535120124368", "color": "#202020" }, "geometry": { "type": "Point", "coordinates": [ 3.251953, 10.919618 ] } }
{ "type": "Feature", "tippecanoe": { "layer": "2AFCA08D17B81583915384936", "minzoom": 2, "maxzoom": 8 }, "properties": { "halo": 0.8, "title": "贝宁王国", "fontsize": 12, "tyid": "304000", "oid": "103:1537435933655", "color": "#202020" }, "geometry": { "type": "Point", "coordinates": [ 5.449219, 5.878332 ] } }
{ "type": "Feature", "tippecanoe": { "layer": "2AFCA08D17B81583915384936", "minzoom": 2, "maxzoom": 8 }, "properties": { "halo": 0.8, "title": "努佩人", "fontsize": 12, "tyid": "304001", "oid": "103:1535120124366", "color": "#262626" }, "geometry": { "type": "Point", "coordinates": [ 5.976562, 9.622414 ] } }
{ "type": "Feature", "tippecanoe": { "layer": "2AFCA08D17B81583915384936", "minzoom": 2, "maxzoom": 8 }, "properties": { "halo": 0.8, "title": "伊格拉王国", "fontsize": 12, "tyid": "304001", "oid": "103:1576922420569", "color": "#262626" }, "geometry": { "type": "Point", "coordinates": [ 7.558594, 7.449624 ] } }
{ "type": "Feature", "tippecanoe": { "layer": "2AFCA08D17B81583915384936", "minzoom": 2, "maxzoom": 8 }, "properties": { "halo": 0.8, "title": "伊博人", "fontsize": 12, "tyid": "304001", "oid": "103:1537435933647", "color": "#262626" }, "geometry": { "type": "Point", "coordinates": [ 9.140625, 6.140555 ] } }
{ "type": "Feature", "tippecanoe": { "layer": "2AFCA08D17B81583915384936", "minzoom": 2, "maxzoom": 8 }, "properties": { "halo": 0.8, "title": "尼日王国", "fontsize": 12, "tyid": "304000", "oid": "103:1576922420503", "color": "#202020" }, "geometry": { "type": "Point", "coordinates": [ 6.679688, 5.353521 ] } }
{ "type": "Feature", "tippecanoe": { "layer": "2AFCA08D17B81583915384936", "minzoom": 2, "maxzoom": 8 }, "properties": { "halo": 0.8, "title": "艾登贝伊国", "fontsize": 12, "tyid": "304000", "oid": "103:1537435933394", "color": "#202020" }, "geometry": { "type": "Point", "coordinates": [ 27.861328, 37.926868 ] } }
{ "type": "Feature", "tippecanoe": { "layer": "2AFCA08D17B81583915384936", "minzoom": 2, "maxzoom": 8 }, "properties": { "halo": 0.8, "title": "克尔米安贝伊国", "fontsize": 12, "tyid": "304000", "oid": "103:1537435933402", "color": "#202020" }, "geometry": { "type": "Point", "coordinates": [ 30.322266, 39.027719 ] } }
{ "type": "Feature", "tippecanoe": { "layer": "2AFCA08D17B81583915384936", "minzoom": 2, "maxzoom": 8 }, "properties": { "halo": 0.8, "title": "哈米多贝伊国", "fontsize": 12, "tyid": "304000", "oid": "103:1537435933405", "color": "#202020" }, "geometry": { "type": "Point", "coordinates": [ 30.585938, 38.065392 ] } }
{ "type": "Feature", "tippecanoe": { "layer": "2AFCA08D17B81583915384936", "minzoom": 2, "maxzoom": 8 }, "properties": { "halo": 0.8, "title": "泰凯贝伊国", "fontsize": 12, "tyid": "304000", "oid": "103:1535120124304", "color": "#202020" }, "geometry": { "type": "Point", "coordinates": [ 30.146484, 37.020098 ] } }
{ "type": "Feature", "tippecanoe": { "layer": "2AFCA08D17B81583915384936", "minzoom": 2, "maxzoom": 8 }, "properties": { "halo": 0.8, "title": "奥斯曼帝国", "fontsize": 12, "tyid": "304000", "oid": "103:1535120124298", "color": "#202020" }, "geometry": { "type": "Point", "coordinates": [ 31.904297, 40.513799 ] } }
{ "type": "Feature", "tippecanoe": { "layer": "2AFCA08D17B81583915384936", "minzoom": 2, "maxzoom": 8 }, "properties": { "halo": 0.8, "title": "卡拉曼贝伊国", "fontsize": 12, "tyid": "304000", "oid": "103:1537435933382", "color": "#202020" }, "geometry": { "type": "Point", "coordinates": [ 33.222656, 38.065392 ] } }
{ "type": "Feature", "tippecanoe": { "layer": "2AFCA08D17B81583915384936", "minzoom": 2, "maxzoom": 8 }, "properties": { "halo": 0.8, "title": "拉马赞贝伊国", "fontsize": 12, "tyid": "304000", "oid": "103:1537435933376", "color": "#202020" }, "geometry": { "type": "Point", "coordinates": [ 35.419922, 37.230328 ] } }
{ "type": "Feature", "tippecanoe": { "layer": "2AFCA08D17B81583915384936", "minzoom": 2, "maxzoom": 8 }, "properties": { "halo": 0.8, "title": "埃雷特诺贝伊国", "fontsize": 12, "tyid": "304000", "oid": "103:1537435933386", "color": "#202020" }, "geometry": { "type": "Point", "coordinates": [ 37.177734, 39.707187 ] } }
{ "type": "Feature", "tippecanoe": { "layer": "2AFCA08D17B81583915384936", "minzoom": 2, "maxzoom": 8 }, "properties": { "halo": 0.8, "title": "杜卡迪尔贝伊国", "fontsize": 12, "tyid": "304000", "oid": "103:1535120124306", "color": "#202020" }, "geometry": { "type": "Point", "coordinates": [ 37.617188, 37.996163 ] } }
{ "type": "Feature", "tippecanoe": { "layer": "2AFCA08D17B81583915384936", "minzoom": 2, "maxzoom": 8 }, "properties": { "halo": 0.8, "title": "达莫特王国", "fontsize": 12, "tyid": "304000", "oid": "103:1535120124505", "color": "#202020" }, "geometry": { "type": "Point", "coordinates": [ 33.310547, 6.751896 ] } }
{ "type": "Feature", "tippecanoe": { "layer": "2AFCA08D17B81583915384936", "minzoom": 2, "maxzoom": 8 }, "properties": { "halo": 0.8, "title": "贝扎人", "fontsize": 12, "tyid": "304001", "oid": "103:1535120124277", "color": "#262626" }, "geometry": { "type": "Point", "coordinates": [ 36.914062, 18.229351 ] } }
{ "type": "Feature", "tippecanoe": { "layer": "2AFCA08D17B81583915384936", "minzoom": 2, "maxzoom": 8 }, "properties": { "halo": 0.8, "title": "锡达马人", "fontsize": 12, "tyid": "304001", "oid": "103:1537435933469", "color": "#262626" }, "geometry": { "type": "Point", "coordinates": [ 35.771484, 4.390229 ] } }
{ "type": "Feature", "tippecanoe": { "layer": "2AFCA08D17B81583915384936", "minzoom": 2, "maxzoom": 8 }, "properties": { "halo": 0.8, "title": "伊法特苏丹国", "fontsize": 12, "tyid": "304000", "oid": "103:1535120124384", "color": "#202020" }, "geometry": { "type": "Point", "coordinates": [ 40.869141, 9.709057 ] } }
{ "type": "Feature", "tippecanoe": { "layer": "2AFCA08D17B81583915384936", "minzoom": 2, "maxzoom": 8 }, "properties": { "halo": 0.8, "title": "巴什基尔人", "fontsize": 12, "tyid": "304000", "oid": "103:1535120124539", "color": "#202020" }, "geometry": { "type": "Point", "coordinates": [ 56.953125, 52.908902 ] } }
{ "type": "Feature", "tippecanoe": { "layer": "2AFCA08D17B81583915384936", "minzoom": 2, "maxzoom": 8 }, "properties": { "halo": 0.8, "title": "苏非王朝", "fontsize": 12, "tyid": "304000", "oid": "103:1535120124239", "color": "#202020" }, "geometry": { "type": "Point", "coordinates": [ 59.326172, 43.261206 ] } }
{ "type": "Feature", "tippecanoe": { "layer": "2AFCA08D17B81583915384936", "minzoom": 2, "maxzoom": 8 }, "properties": { "halo": 0.8, "title": "希尔凡沙阿王朝", "fontsize": 12, "tyid": "304000", "oid": "103:1535120124215", "color": "#202020" }, "geometry": { "type": "Point", "coordinates": [ 47.900391, 40.446947 ] } }
{ "type": "Feature", "tippecanoe": { "layer": "2AFCA08D17B81583915384936", "minzoom": 2, "maxzoom": 8 }, "properties": { "halo": 0.8, "title": "脱合帖木儿王朝", "fontsize": 12, "tyid": "304000", "oid": "103:1535120124222", "color": "#202020" }, "geometry": { "type": "Point", "coordinates": [ 54.755859, 37.300275 ] } }
{ "type": "Feature", "tippecanoe": { "layer": "2AFCA08D17B81583915384936", "minzoom": 2, "maxzoom": 8 }, "properties": { "halo": 0.8, "title": "马拉什王朝", "fontsize": 12, "tyid": "304000", "oid": "103:1535120124224", "color": "#202020" }, "geometry": { "type": "Point", "coordinates": [ 52.998047, 36.385913 ] } }
{ "type": "Feature", "tippecanoe": { "layer": "2AFCA08D17B81583915384936", "minzoom": 2, "maxzoom": 8 }, "properties": { "halo": 0.8, "title": "萨巴达尔王朝", "fontsize": 12, "tyid": "304000", "oid": "103:1537435933328", "color": "#202020" }, "geometry": { "type": "Point", "coordinates": [ 55.898438, 36.031332 ] } }
{ "type": "Feature", "tippecanoe": { "layer": "2AFCA08D17B81583915384936", "minzoom": 2, "maxzoom": 8 }, "properties": { "halo": 0.8, "title": "哈扎拉比王朝", "fontsize": 12, "tyid": "304000", "oid": "103:1535120124249", "color": "#202020" }, "geometry": { "type": "Point", "coordinates": [ 49.130859, 31.203405 ] } }
{ "type": "Feature", "tippecanoe": { "layer": "2AFCA08D17B81583915384936", "minzoom": 2, "maxzoom": 8 }, "properties": { "halo": 0.8, "title": "优斯弗德王朝", "fontsize": 12, "tyid": "304000", "oid": "103:1537435933368", "color": "#202020" }, "geometry": { "type": "Point", "coordinates": [ 48.779297, 26.667096 ] } }
{ "type": "Feature", "tippecanoe": { "layer": "2AFCA08D17B81583915384936", "minzoom": 2, "maxzoom": 8 }, "properties": { "halo": 0.8, "title": "内卜汗王朝", "fontsize": 12, "tyid": "304000", "oid": "103:1537435933672", "color": "#202020" }, "geometry": { "type": "Point", "coordinates": [ 57.128906, 22.593726 ] } }
{ "type": "Feature", "tippecanoe": { "layer": "2AFCA08D17B81583915384936", "minzoom": 2, "maxzoom": 8 }, "properties": { "halo": 0.8, "title": "俾路支人", "fontsize": 12, "tyid": "304001", "oid": "103:1535120124237", "color": "#262626" }, "geometry": { "type": "Point", "coordinates": [ 64.511719, 27.059126 ] } }
{ "type": "Feature", "tippecanoe": { "layer": "2AFCA08D17B81583915384936", "minzoom": 2, "maxzoom": 8 }, "properties": { "halo": 0.8, "title": "瓦桑加利苏丹国", "fontsize": 12, "tyid": "304000", "oid": "103:1535120124571", "color": "#202020" }, "geometry": { "type": "Point", "coordinates": [ 48.779297, 10.746969 ] } }
{ "type": "Feature", "tippecanoe": { "layer": "2AFCA08D17B81583915384936", "minzoom": 2, "maxzoom": 8 }, "properties": { "halo": 0.8, "title": "阿居兰苏丹国", "fontsize": 12, "tyid": "304000", "oid": "103:1535120124567", "color": "#202020" }, "geometry": { "type": "Point", "coordinates": [ 45.175781, 3.688855 ] } }
{ "type": "Feature", "tippecanoe": { "layer": "2AFCA08D17B81583915384936", "minzoom": 2, "maxzoom": 8 }, "properties": { "halo": 0.8, "title": "马拉王朝[尼泊尔]", "fontsize": 12, "tyid": "304000", "oid": "103:1576922420485", "color": "#202020" }, "geometry": { "type": "Point", "coordinates": [ 83.847656, 28.071980 ] } }
{ "type": "Feature", "tippecanoe": { "layer": "2AFCA08D17B81583915384936", "minzoom": 2, "maxzoom": 8 }, "properties": { "halo": 0.8, "title": "阿洪姆王国", "fontsize": 12, "tyid": "304000", "oid": "103:1535120124494", "color": "#202020" }, "geometry": { "type": "Point", "coordinates": [ 89.736328, 26.115986 ] } }
{ "type": "Feature", "tippecanoe": { "layer": "2AFCA08D17B81583915384936", "minzoom": 2, "maxzoom": 8 }, "properties": { "halo": 0.8, "title": "里蒂王朝", "fontsize": 12, "tyid": "304000", "oid": "103:1576922420489", "color": "#202020" }, "geometry": { "type": "Point", "coordinates": [ 80.859375, 17.308688 ] } }
{ "type": "Feature", "tippecanoe": { "layer": "2AFCA08D17B81583915384936", "minzoom": 2, "maxzoom": 8 }, "properties": { "halo": 0.8, "title": "甘波罗王国", "fontsize": 12, "tyid": "304000", "oid": "103:1535120124173", "color": "#202020" }, "geometry": { "type": "Point", "coordinates": [ 80.683594, 7.623887 ] } }
{ "type": "Feature", "tippecanoe": { "layer": "2AFCA08D17B81583915384936", "minzoom": 2, "maxzoom": 8 }, "properties": { "halo": 0.8, "title": "楚提亚王国", "fontsize": 12, "tyid": "304000", "oid": "103:1576922420486", "color": "#202020" }, "geometry": { "type": "Point", "coordinates": [ 95.361328, 27.449790 ] } }
{ "type": "Feature", "tippecanoe": { "layer": "2AFCA08D17B81583915384936", "minzoom": 2, "maxzoom": 8 }, "properties": { "halo": 0.8, "title": "掸族诸国", "fontsize": 12, "tyid": "304001", "oid": "103:1535120124181", "color": "#262626" }, "geometry": { "type": "Point", "coordinates": [ 97.558594, 23.079732 ] } }
{ "type": "Feature", "tippecanoe": { "layer": "2AFCA08D17B81583915384936", "minzoom": 2, "maxzoom": 8 }, "properties": { "halo": 0.8, "title": "若开诸国", "fontsize": 12, "tyid": "304000", "oid": "103:1537435933306", "color": "#202020" }, "geometry": { "type": "Point", "coordinates": [ 93.603516, 20.303418 ] } }
{ "type": "Feature", "tippecanoe": { "layer": "2AFCA08D17B81583915384936", "minzoom": 2, "maxzoom": 8 }, "properties": { "halo": 0.8, "title": "阿瓦王国", "fontsize": 12, "tyid": "304000", "oid": "103:1535120124179", "color": "#202020" }, "geometry": { "type": "Point", "coordinates": [ 95.449219, 21.289374 ] } }
{ "type": "Feature", "tippecanoe": { "layer": "2AFCA08D17B81583915384936", "minzoom": 2, "maxzoom": 8 }, "properties": { "halo": 0.8, "title": "勃固王朝", "fontsize": 12, "tyid": "304000", "oid": "103:1576922420490", "color": "#202020" }, "geometry": { "type": "Point", "coordinates": [ 95.361328, 17.140790 ] } }
{ "type": "Feature", "tippecanoe": { "layer": "2AFCA08D17B81583915384936", "minzoom": 2, "maxzoom": 8 }, "properties": { "halo": 0.8, "title": "兰纳国", "fontsize": 12, "tyid": "304000", "oid": "103:1576922420491", "color": "#202020" }, "geometry": { "type": "Point", "coordinates": [ 98.964844, 19.559790 ] } }
{ "type": "Feature", "tippecanoe": { "layer": "2AFCA08D17B81583915384936", "minzoom": 2, "maxzoom": 8 }, "properties": { "halo": 0.8, "title": "素可泰王国", "fontsize": 12, "tyid": "304000", "oid": "103:1535120124199", "color": "#202020" }, "geometry": { "type": "Point", "coordinates": [ 100.107422, 18.145852 ] } }
{ "type": "Feature", "tippecanoe": { "layer": "2AFCA08D17B81583915384936", "minzoom": 2, "maxzoom": 8 }, "properties": { "halo": 0.8, "title": "大越国", "fontsize": 12, "tyid": "304000", "oid": "103:1537435933310", "color": "#202020" }, "geometry": { "type": "Point", "coordinates": [ 105.292969, 21.371244 ] } }
{ "type": "Feature", "tippecanoe": { "layer": "2AFCA08D17B81583915384936", "minzoom": 2, "maxzoom": 8 }, "properties": { "halo": 0.8, "title": "占婆国", "fontsize": 12, "tyid": "304000", "oid": "103:1537435933312", "color": "#202020" }, "geometry": { "type": "Point", "coordinates": [ 108.017578, 11.523088 ] } }
{ "type": "Feature", "tippecanoe": { "layer": "2AFCA08D17B81583915384936", "minzoom": 2, "maxzoom": 8 }, "properties": { "halo": 0.8, "title": "虾夷", "fontsize": 12, "tyid": "304001", "oid": "103:1535120124497", "color": "#262626" }, "geometry": { "type": "Point", "coordinates": [ 142.558594, 43.389082 ] } }
{ "type": "Feature", "tippecanoe": { "layer": "2AFCA08D17B81583915384936", "minzoom": 2, "maxzoom": 8 }, "properties": { "halo": 0.8, "title": "北朝[日本]", "fontsize": 12, "tyid": "304000", "oid": "103:1577244876278", "color": "#202020" }, "geometry": { "type": "Point", "coordinates": [ 139.218750, 36.668419 ] } }
{ "type": "Feature", "tippecanoe": { "layer": "2AFCA08D17B81583915384936", "minzoom": 2, "maxzoom": 8 }, "properties": { "halo": 0.8, "title": "南朝[日本]", "fontsize": 12, "tyid": "304000", "oid": "103:1577244876277", "color": "#202020" }, "geometry": { "type": "Point", "coordinates": [ 135.791016, 35.173808 ] } }
{ "type": "Feature", "tippecanoe": { "layer": "2AFCA08D17B81583915384936", "minzoom": 2, "maxzoom": 8 }, "properties": { "halo": 0.8, "title": "姆佩姆巴卡西王国", "fontsize": 12, "tyid": "304002", "oid": "103:1537435933423", "color": "#262626" }, "geometry": { "type": "Point", "coordinates": [ 13.271484, -5.441022 ] } }
{ "type": "Feature", "tippecanoe": { "layer": "2AFCA08D17B81583915384936", "minzoom": 2, "maxzoom": 8 }, "properties": { "halo": 0.8, "title": "巽他王国", "fontsize": 12, "tyid": "304000", "oid": "103:1535120124212", "color": "#202020" }, "geometry": { "type": "Point", "coordinates": [ 106.611328, -6.664608 ] } }
{ "type": "Feature", "tippecanoe": { "layer": "2AFCA08D17B81583915384936", "minzoom": 2, "maxzoom": 8 }, "properties": { "halo": 0.8, "title": "加鲁王国", "fontsize": 12, "tyid": "304000", "oid": "103:1535120124213", "color": "#202020" }, "geometry": { "type": "Point", "coordinates": [ 108.193359, -7.013668 ] } }
{ "type": "Feature", "tippecanoe": { "layer": "2AFCA08D17B81583915384936", "minzoom": 2, "maxzoom": 8 }, "properties": { "halo": 0.8, "title": "满者伯夷国", "fontsize": 12, "tyid": "304000", "oid": "103:1576922420474", "color": "#202020" }, "geometry": { "type": "Point", "coordinates": [ 111.621094, -7.536764 ] } }
{ "type": "Feature", "tippecanoe": { "layer": "2AFCA08E00481583915384965", "minzoom": 2, "maxzoom": 8 }, "properties": { "halo": 1.8, "title": "塔拉斯坎帝国", "fontsize": 12, "tyid": "304000", "oid": "103:1537435933429", "color": "#0056E7" }, "geometry": { "type": "Point", "coordinates": [ -101.250000, 19.145168 ] } }
{ "type": "Feature", "tippecanoe": { "layer": "2AFCA08E00481583915384965", "minzoom": 2, "maxzoom": 8 }, "properties": { "halo": 1.8, "title": "玛雅文明[后古典时期]", "fontsize": 12, "tyid": "304000", "oid": "103:1576922420500", "color": "#0056E7" }, "geometry": { "type": "Point", "coordinates": [ -89.472656, 18.562947 ] } }
{ "type": "Feature", "tippecanoe": { "layer": "2AFCA08E00481583915384965", "minzoom": 2, "maxzoom": 8 }, "properties": { "halo": 1.8, "title": "苏格兰王国", "fontsize": 12, "tyid": "304000", "oid": "103:1535120124468", "color": "#0056E7" }, "geometry": { "type": "Point", "coordinates": [ -4.394531, 56.752723 ] } }
{ "type": "Feature", "tippecanoe": { "layer": "2AFCA08E00481583915384965", "minzoom": 2, "maxzoom": 8 }, "properties": { "halo": 1.8, "title": "德斯蒙德王国", "fontsize": 12, "tyid": "304000", "oid": "103:1535120124471", "color": "#0056E7" }, "geometry": { "type": "Point", "coordinates": [ -8.789062, 52.214339 ] } }
{ "type": "Feature", "tippecanoe": { "layer": "2AFCA08E00481583915384965", "minzoom": 2, "maxzoom": 8 }, "properties": { "halo": 1.8, "title": "葡萄牙王国", "fontsize": 12, "tyid": "304000", "oid": "103:1535120124419", "color": "#0056E7" }, "geometry": { "type": "Point", "coordinates": [ -7.998047, 39.774769 ] } }
{ "type": "Feature", "tippecanoe": { "layer": "2AFCA08E00481583915384965", "minzoom": 2, "maxzoom": 8 }, "properties": { "halo": 1.8, "title": "格拉纳达埃米尔国", "fontsize": 12, "tyid": "304000", "oid": "103:1576922420492", "color": "#0056E7" }, "geometry": { "type": "Point", "coordinates": [ -3.339844, 37.300275 ] } }
{ "type": "Feature", "tippecanoe": { "layer": "2AFCA08E00481583915384965", "minzoom": 2, "maxzoom": 8 }, "properties": { "halo": 1.8, "title": "吉奥拉帝国", "fontsize": 12, "tyid": "304000", "oid": "103:1537435933411", "color": "#0056E7" }, "geometry": { "type": "Point", "coordinates": [ -15.732422, 15.114553 ] } }
{ "type": "Feature", "tippecanoe": { "layer": "2AFCA08E00481583915384965", "minzoom": 2, "maxzoom": 8 }, "properties": { "halo": 1.8, "title": "莫西人诸国", "fontsize": 12, "tyid": "304000", "oid": "103:1582720954541", "color": "#0056E7" }, "geometry": { "type": "Point", "coordinates": [ -1.494141, 13.239945 ] } }
{ "type": "Feature", "tippecanoe": { "layer": "2AFCA08E00481583915384965", "minzoom": 2, "maxzoom": 8 }, "properties": { "halo": 1.8, "title": "博努国", "fontsize": 12, "tyid": "304000", "oid": "103:1537435933650", "color": "#0056E7" }, "geometry": { "type": "Point", "coordinates": [ -2.812500, 8.407168 ] } }
{ "type": "Feature", "tippecanoe": { "layer": "2AFCA08E00481583915384965", "minzoom": 2, "maxzoom": 8 }, "properties": { "halo": 1.6, "title": "艾玛拉诸邦国", "fontsize": 12, "tyid": "304002", "oid": "103:1535120124584", "color": "#0056E7" }, "geometry": { "type": "Point", "coordinates": [ -75.498047, -9.102097 ] } }
{ "type": "Feature", "tippecanoe": { "layer": "2AFCA08E00481583915384965", "minzoom": 2, "maxzoom": 8 }, "properties": { "halo": 1.8, "title": "库斯科王国", "fontsize": 12, "tyid": "304000", "oid": "103:1535120124391", "color": "#0056E7" }, "geometry": { "type": "Point", "coordinates": [ -71.191406, -13.752725 ] } }
{ "type": "Feature", "tippecanoe": { "layer": "2AFCA08E00481583915384965", "minzoom": 2, "maxzoom": 8 }, "properties": { "halo": 1.8, "title": "丹麦王国[维京时期]", "fontsize": 12, "tyid": "304000", "oid": "103:1577244876214", "color": "#0056E7" }, "geometry": { "type": "Point", "coordinates": [ 9.228516, 56.121060 ] } }
{ "type": "Feature", "tippecanoe": { "layer": "2AFCA08E00481583915384965", "minzoom": 2, "maxzoom": 8 }, "properties": { "halo": 1.8, "title": "阿基坦公国", "fontsize": 12, "tyid": "304000", "oid": "103:1576922420483", "color": "#0056E7" }, "geometry": { "type": "Point", "coordinates": [ 0.263672, 44.902578 ] } }
{ "type": "Feature", "tippecanoe": { "layer": "2AFCA08E00481583915384965", "minzoom": 2, "maxzoom": 8 }, "properties": { "halo": 1.8, "title": "阿拉贡联合王国", "fontsize": 12, "tyid": "304000", "oid": "103:1535120124404", "color": "#0056E7" }, "geometry": { "type": "Point", "coordinates": [ 0.087891, 41.178654 ] } }
{ "type": "Feature", "tippecanoe": { "layer": "2AFCA08E00481583915384965", "minzoom": 2, "maxzoom": 8 }, "properties": { "halo": 1.8, "title": "威尼斯共和国", "fontsize": 12, "tyid": "304000", "oid": "103:1535120124487", "color": "#0056E7" }, "geometry": { "type": "Point", "coordinates": [ 12.304688, 45.644768 ] } }
{ "type": "Feature", "tippecanoe": { "layer": "2AFCA08E00481583915384965", "minzoom": 2, "maxzoom": 8 }, "properties": { "halo": 1.8, "title": "教皇国", "fontsize": 12, "tyid": "304000", "oid": "103:1535120124395", "color": "#0056E7" }, "geometry": { "type": "Point", "coordinates": [ 12.392578, 43.133061 ] } }
{ "type": "Feature", "tippecanoe": { "layer": "2AFCA08E00481583915384965", "minzoom": 2, "maxzoom": 8 }, "properties": { "halo": 1.8, "title": "波斯尼亚班内特国", "fontsize": 12, "tyid": "304000", "oid": "103:1537435933438", "color": "#0056E7" }, "geometry": { "type": "Point", "coordinates": [ 17.841797, 44.087585 ] } }
{ "type": "Feature", "tippecanoe": { "layer": "2AFCA08E00481583915384965", "minzoom": 2, "maxzoom": 8 }, "properties": { "halo": 1.8, "title": "摩尔达维亚公国", "fontsize": 12, "tyid": "304000", "oid": "103:1535120124429", "color": "#0056E7" }, "geometry": { "type": "Point", "coordinates": [ 27.597656, 46.920255 ] } }
{ "type": "Feature", "tippecanoe": { "layer": "2AFCA08E00481583915384965", "minzoom": 2, "maxzoom": 8 }, "properties": { "halo": 1.8, "title": "瓦拉几亚公国", "fontsize": 12, "tyid": "304000", "oid": "103:1535120124444", "color": "#0056E7" }, "geometry": { "type": "Point", "coordinates": [ 25.136719, 44.590467 ] } }
{ "type": "Feature", "tippecanoe": { "layer": "2AFCA08E00481583915384965", "minzoom": 2, "maxzoom": 8 }, "properties": { "halo": 1.8, "title": "保加利亚第二王国", "fontsize": 12, "tyid": "304000", "oid": "103:1537435933440", "color": "#0056E7" }, "geometry": { "type": "Point", "coordinates": [ 25.664062, 42.747012 ] } }
{ "type": "Feature", "tippecanoe": { "layer": "2AFCA08E00481583915384965", "minzoom": 2, "maxzoom": 8 }, "properties": { "halo": 1.8, "title": "桑达尔贝伊国", "fontsize": 12, "tyid": "304000", "oid": "103:1537435933391", "color": "#0056E7" }, "geometry": { "type": "Point", "coordinates": [ 34.189453, 41.310824 ] } }
{ "type": "Feature", "tippecanoe": { "layer": "2AFCA08E00481583915384965", "minzoom": 2, "maxzoom": 8 }, "properties": { "halo": 1.8, "title": "格鲁吉亚王国", "fontsize": 12, "tyid": "304000", "oid": "103:1535120124264", "color": "#0056E7" }, "geometry": { "type": "Point", "coordinates": [ 43.593750, 41.640078 ] } }
{ "type": "Feature", "tippecanoe": { "layer": "2AFCA08E00481583915384965", "minzoom": 2, "maxzoom": 8 }, "properties": { "halo": 1.8, "title": "那不勒斯王国", "fontsize": 12, "tyid": "304000", "oid": "103:1535120124394", "color": "#0056E7" }, "geometry": { "type": "Point", "coordinates": [ 15.468750, 40.847060 ] } }
{ "type": "Feature", "tippecanoe": { "layer": "2AFCA08E00481583915384965", "minzoom": 2, "maxzoom": 8 }, "properties": { "halo": 1.8, "title": "博尔古王国", "fontsize": 12, "tyid": "304000", "oid": "103:1535120124368", "color": "#0056E7" }, "geometry": { "type": "Point", "coordinates": [ 3.251953, 10.919618 ] } }
{ "type": "Feature", "tippecanoe": { "layer": "2AFCA08E00481583915384965", "minzoom": 2, "maxzoom": 8 }, "properties": { "halo": 1.8, "title": "贝宁王国", "fontsize": 12, "tyid": "304000", "oid": "103:1537435933655", "color": "#0056E7" }, "geometry": { "type": "Point", "coordinates": [ 5.449219, 5.878332 ] } }
{ "type": "Feature", "tippecanoe": { "layer": "2AFCA08E00481583915384965", "minzoom": 2, "maxzoom": 8 }, "properties": { "halo": 1.6, "title": "努佩人", "fontsize": 12, "tyid": "304001", "oid": "103:1535120124366", "color": "#0056E7" }, "geometry": { "type": "Point", "coordinates": [ 5.976562, 9.622414 ] } }
{ "type": "Feature", "tippecanoe": { "layer": "2AFCA08E00481583915384965", "minzoom": 2, "maxzoom": 8 }, "properties": { "halo": 1.6, "title": "伊格拉王国", "fontsize": 12, "tyid": "304001", "oid": "103:1576922420569", "color": "#0056E7" }, "geometry": { "type": "Point", "coordinates": [ 7.558594, 7.449624 ] } }
{ "type": "Feature", "tippecanoe": { "layer": "2AFCA08E00481583915384965", "minzoom": 2, "maxzoom": 8 }, "properties": { "halo": 1.6, "title": "伊博人", "fontsize": 12, "tyid": "304001", "oid": "103:1537435933647", "color": "#0056E7" }, "geometry": { "type": "Point", "coordinates": [ 9.140625, 6.140555 ] } }
{ "type": "Feature", "tippecanoe": { "layer": "2AFCA08E00481583915384965", "minzoom": 2, "maxzoom": 8 }, "properties": { "halo": 1.8, "title": "尼日王国", "fontsize": 12, "tyid": "304000", "oid": "103:1576922420503", "color": "#0056E7" }, "geometry": { "type": "Point", "coordinates": [ 6.679688, 5.353521 ] } }
{ "type": "Feature", "tippecanoe": { "layer": "2AFCA08E00481583915384965", "minzoom": 2, "maxzoom": 8 }, "properties": { "halo": 1.8, "title": "艾登贝伊国", "fontsize": 12, "tyid": "304000", "oid": "103:1537435933394", "color": "#0056E7" }, "geometry": { "type": "Point", "coordinates": [ 27.861328, 37.926868 ] } }
{ "type": "Feature", "tippecanoe": { "layer": "2AFCA08E00481583915384965", "minzoom": 2, "maxzoom": 8 }, "properties": { "halo": 1.8, "title": "克尔米安贝伊国", "fontsize": 12, "tyid": "304000", "oid": "103:1537435933402", "color": "#0056E7" }, "geometry": { "type": "Point", "coordinates": [ 30.322266, 39.027719 ] } }
{ "type": "Feature", "tippecanoe": { "layer": "2AFCA08E00481583915384965", "minzoom": 2, "maxzoom": 8 }, "properties": { "halo": 1.8, "title": "哈米多贝伊国", "fontsize": 12, "tyid": "304000", "oid": "103:1537435933405", "color": "#0056E7" }, "geometry": { "type": "Point", "coordinates": [ 30.585938, 38.065392 ] } }
{ "type": "Feature", "tippecanoe": { "layer": "2AFCA08E00481583915384965", "minzoom": 2, "maxzoom": 8 }, "properties": { "halo": 1.8, "title": "泰凯贝伊国", "fontsize": 12, "tyid": "304000", "oid": "103:1535120124304", "color": "#0056E7" }, "geometry": { "type": "Point", "coordinates": [ 30.146484, 37.020098 ] } }
{ "type": "Feature", "tippecanoe": { "layer": "2AFCA08E00481583915384965", "minzoom": 2, "maxzoom": 8 }, "properties": { "halo": 1.8, "title": "奥斯曼帝国", "fontsize": 12, "tyid": "304000", "oid": "103:1535120124298", "color": "#0056E7" }, "geometry": { "type": "Point", "coordinates": [ 31.904297, 40.513799 ] } }
{ "type": "Feature", "tippecanoe": { "layer": "2AFCA08E00481583915384965", "minzoom": 2, "maxzoom": 8 }, "properties": { "halo": 1.8, "title": "卡拉曼贝伊国", "fontsize": 12, "tyid": "304000", "oid": "103:1537435933382", "color": "#0056E7" }, "geometry": { "type": "Point", "coordinates": [ 33.222656, 38.065392 ] } }
{ "type": "Feature", "tippecanoe": { "layer": "2AFCA08E00481583915384965", "minzoom": 2, "maxzoom": 8 }, "properties": { "halo": 1.8, "title": "拉马赞贝伊国", "fontsize": 12, "tyid": "304000", "oid": "103:1537435933376", "color": "#0056E7" }, "geometry": { "type": "Point", "coordinates": [ 35.419922, 37.230328 ] } }
{ "type": "Feature", "tippecanoe": { "layer": "2AFCA08E00481583915384965", "minzoom": 2, "maxzoom": 8 }, "properties": { "halo": 1.8, "title": "埃雷特诺贝伊国", "fontsize": 12, "tyid": "304000", "oid": "103:1537435933386", "color": "#0056E7" }, "geometry": { "type": "Point", "coordinates": [ 37.177734, 39.707187 ] } }
{ "type": "Feature", "tippecanoe": { "layer": "2AFCA08E00481583915384965", "minzoom": 2, "maxzoom": 8 }, "properties": { "halo": 1.8, "title": "杜卡迪尔贝伊国", "fontsize": 12, "tyid": "304000", "oid": "103:1535120124306", "color": "#0056E7" }, "geometry": { "type": "Point", "coordinates": [ 37.617188, 37.996163 ] } }
{ "type": "Feature", "tippecanoe": { "layer": "2AFCA08E00481583915384965", "minzoom": 2, "maxzoom": 8 }, "properties": { "halo": 1.8, "title": "达莫特王国", "fontsize": 12, "tyid": "304000", "oid": "103:1535120124505", "color": "#0056E7" }, "geometry": { "type": "Point", "coordinates": [ 33.310547, 6.751896 ] } }
{ "type": "Feature", "tippecanoe": { "layer": "2AFCA08E00481583915384965", "minzoom": 2, "maxzoom": 8 }, "properties": { "halo": 1.6, "title": "贝扎人", "fontsize": 12, "tyid": "304001", "oid": "103:1535120124277", "color": "#0056E7" }, "geometry": { "type": "Point", "coordinates": [ 36.914062, 18.229351 ] } }
{ "type": "Feature", "tippecanoe": { "layer": "2AFCA08E00481583915384965", "minzoom": 2, "maxzoom": 8 }, "properties": { "halo": 1.6, "title": "锡达马人", "fontsize": 12, "tyid": "304001", "oid": "103:1537435933469", "color": "#0056E7" }, "geometry": { "type": "Point", "coordinates": [ 35.771484, 4.390229 ] } }
{ "type": "Feature", "tippecanoe": { "layer": "2AFCA08E00481583915384965", "minzoom": 2, "maxzoom": 8 }, "properties": { "halo": 1.8, "title": "伊法特苏丹国", "fontsize": 12, "tyid": "304000", "oid": "103:1535120124384", "color": "#0056E7" }, "geometry": { "type": "Point", "coordinates": [ 40.869141, 9.709057 ] } }
{ "type": "Feature", "tippecanoe": { "layer": "2AFCA08E00481583915384965", "minzoom": 2, "maxzoom": 8 }, "properties": { "halo": 1.8, "title": "巴什基尔人", "fontsize": 12, "tyid": "304000", "oid": "103:1535120124539", "color": "#0056E7" }, "geometry": { "type": "Point", "coordinates": [ 56.953125, 52.908902 ] } }
{ "type": "Feature", "tippecanoe": { "layer": "2AFCA08E00481583915384965", "minzoom": 2, "maxzoom": 8 }, "properties": { "halo": 1.8, "title": "苏非王朝", "fontsize": 12, "tyid": "304000", "oid": "103:1535120124239", "color": "#0056E7" }, "geometry": { "type": "Point", "coordinates": [ 59.326172, 43.261206 ] } }
{ "type": "Feature", "tippecanoe": { "layer": "2AFCA08E00481583915384965", "minzoom": 2, "maxzoom": 8 }, "properties": { "halo": 1.8, "title": "希尔凡沙阿王朝", "fontsize": 12, "tyid": "304000", "oid": "103:1535120124215", "color": "#0056E7" }, "geometry": { "type": "Point", "coordinates": [ 47.900391, 40.446947 ] } }
{ "type": "Feature", "tippecanoe": { "layer": "2AFCA08E00481583915384965", "minzoom": 2, "maxzoom": 8 }, "properties": { "halo": 1.8, "title": "脱合帖木儿王朝", "fontsize": 12, "tyid": "304000", "oid": "103:1535120124222", "color": "#0056E7" }, "geometry": { "type": "Point", "coordinates": [ 54.755859, 37.300275 ] } }
{ "type": "Feature", "tippecanoe": { "layer": "2AFCA08E00481583915384965", "minzoom": 2, "maxzoom": 8 }, "properties": { "halo": 1.8, "title": "马拉什王朝", "fontsize": 12, "tyid": "304000", "oid": "103:1535120124224", "color": "#0056E7" }, "geometry": { "type": "Point", "coordinates": [ 52.998047, 36.385913 ] } }
{ "type": "Feature", "tippecanoe": { "layer": "2AFCA08E00481583915384965", "minzoom": 2, "maxzoom": 8 }, "properties": { "halo": 1.8, "title": "萨巴达尔王朝", "fontsize": 12, "tyid": "304000", "oid": "103:1537435933328", "color": "#0056E7" }, "geometry": { "type": "Point", "coordinates": [ 55.898438, 36.031332 ] } }
{ "type": "Feature", "tippecanoe": { "layer": "2AFCA08E00481583915384965", "minzoom": 2, "maxzoom": 8 }, "properties": { "halo": 1.8, "title": "哈扎拉比王朝", "fontsize": 12, "tyid": "304000", "oid": "103:1535120124249", "color": "#0056E7" }, "geometry": { "type": "Point", "coordinates": [ 49.130859, 31.203405 ] } }
{ "type": "Feature", "tippecanoe": { "layer": "2AFCA08E00481583915384965", "minzoom": 2, "maxzoom": 8 }, "properties": { "halo": 1.8, "title": "优斯弗德王朝", "fontsize": 12, "tyid": "304000", "oid": "103:1537435933368", "color": "#0056E7" }, "geometry": { "type": "Point", "coordinates": [ 48.779297, 26.667096 ] } }
{ "type": "Feature", "tippecanoe": { "layer": "2AFCA08E00481583915384965", "minzoom": 2, "maxzoom": 8 }, "properties": { "halo": 1.8, "title": "内卜汗王朝", "fontsize": 12, "tyid": "304000", "oid": "103:1537435933672", "color": "#0056E7" }, "geometry": { "type": "Point", "coordinates": [ 57.128906, 22.593726 ] } }
{ "type": "Feature", "tippecanoe": { "layer": "2AFCA08E00481583915384965", "minzoom": 2, "maxzoom": 8 }, "properties": { "halo": 1.6, "title": "俾路支人", "fontsize": 12, "tyid": "304001", "oid": "103:1535120124237", "color": "#0056E7" }, "geometry": { "type": "Point", "coordinates": [ 64.511719, 27.059126 ] } }
{ "type": "Feature", "tippecanoe": { "layer": "2AFCA08E00481583915384965", "minzoom": 2, "maxzoom": 8 }, "properties": { "halo": 1.8, "title": "瓦桑加利苏丹国", "fontsize": 12, "tyid": "304000", "oid": "103:1535120124571", "color": "#0056E7" }, "geometry": { "type": "Point", "coordinates": [ 48.779297, 10.746969 ] } }
{ "type": "Feature", "tippecanoe": { "layer": "2AFCA08E00481583915384965", "minzoom": 2, "maxzoom": 8 }, "properties": { "halo": 1.8, "title": "阿居兰苏丹国", "fontsize": 12, "tyid": "304000", "oid": "103:1535120124567", "color": "#0056E7" }, "geometry": { "type": "Point", "coordinates": [ 45.175781, 3.688855 ] } }
{ "type": "Feature", "tippecanoe": { "layer": "2AFCA08E00481583915384965", "minzoom": 2, "maxzoom": 8 }, "properties": { "halo": 1.8, "title": "马拉王朝[尼泊尔]", "fontsize": 12, "tyid": "304000", "oid": "103:1576922420485", "color": "#0056E7" }, "geometry": { "type": "Point", "coordinates": [ 83.847656, 28.071980 ] } }
{ "type": "Feature", "tippecanoe": { "layer": "2AFCA08E00481583915384965", "minzoom": 2, "maxzoom": 8 }, "properties": { "halo": 1.8, "title": "阿洪姆王国", "fontsize": 12, "tyid": "304000", "oid": "103:1535120124494", "color": "#0056E7" }, "geometry": { "type": "Point", "coordinates": [ 89.736328, 26.115986 ] } }
{ "type": "Feature", "tippecanoe": { "layer": "2AFCA08E00481583915384965", "minzoom": 2, "maxzoom": 8 }, "properties": { "halo": 1.8, "title": "里蒂王朝", "fontsize": 12, "tyid": "304000", "oid": "103:1576922420489", "color": "#0056E7" }, "geometry": { "type": "Point", "coordinates": [ 80.859375, 17.308688 ] } }
{ "type": "Feature", "tippecanoe": { "layer": "2AFCA08E00481583915384965", "minzoom": 2, "maxzoom": 8 }, "properties": { "halo": 1.8, "title": "甘波罗王国", "fontsize": 12, "tyid": "304000", "oid": "103:1535120124173", "color": "#0056E7" }, "geometry": { "type": "Point", "coordinates": [ 80.683594, 7.623887 ] } }
{ "type": "Feature", "tippecanoe": { "layer": "2AFCA08E00481583915384965", "minzoom": 2, "maxzoom": 8 }, "properties": { "halo": 1.8, "title": "楚提亚王国", "fontsize": 12, "tyid": "304000", "oid": "103:1576922420486", "color": "#0056E7" }, "geometry": { "type": "Point", "coordinates": [ 95.361328, 27.449790 ] } }
{ "type": "Feature", "tippecanoe": { "layer": "2AFCA08E00481583915384965", "minzoom": 2, "maxzoom": 8 }, "properties": { "halo": 1.6, "title": "掸族诸国", "fontsize": 12, "tyid": "304001", "oid": "103:1535120124181", "color": "#0056E7" }, "geometry": { "type": "Point", "coordinates": [ 97.558594, 23.079732 ] } }
{ "type": "Feature", "tippecanoe": { "layer": "2AFCA08E00481583915384965", "minzoom": 2, "maxzoom": 8 }, "properties": { "halo": 1.8, "title": "若开诸国", "fontsize": 12, "tyid": "304000", "oid": "103:1537435933306", "color": "#0056E7" }, "geometry": { "type": "Point", "coordinates": [ 93.603516, 20.303418 ] } }
{ "type": "Feature", "tippecanoe": { "layer": "2AFCA08E00481583915384965", "minzoom": 2, "maxzoom": 8 }, "properties": { "halo": 1.8, "title": "阿瓦王国", "fontsize": 12, "tyid": "304000", "oid": "103:1535120124179", "color": "#0056E7" }, "geometry": { "type": "Point", "coordinates": [ 95.449219, 21.289374 ] } }
{ "type": "Feature", "tippecanoe": { "layer": "2AFCA08E00481583915384965", "minzoom": 2, "maxzoom": 8 }, "properties": { "halo": 1.8, "title": "勃固王朝", "fontsize": 12, "tyid": "304000", "oid": "103:1576922420490", "color": "#0056E7" }, "geometry": { "type": "Point", "coordinates": [ 95.361328, 17.140790 ] } }
{ "type": "Feature", "tippecanoe": { "layer": "2AFCA08E00481583915384965", "minzoom": 2, "maxzoom": 8 }, "properties": { "halo": 1.8, "title": "兰纳国", "fontsize": 12, "tyid": "304000", "oid": "103:1576922420491", "color": "#0056E7" }, "geometry": { "type": "Point", "coordinates": [ 98.964844, 19.559790 ] } }
{ "type": "Feature", "tippecanoe": { "layer": "2AFCA08E00481583915384965", "minzoom": 2, "maxzoom": 8 }, "properties": { "halo": 1.8, "title": "素可泰王国", "fontsize": 12, "tyid": "304000", "oid": "103:1535120124199", "color": "#0056E7" }, "geometry": { "type": "Point", "coordinates": [ 100.107422, 18.145852 ] } }
{ "type": "Feature", "tippecanoe": { "layer": "2AFCA08E00481583915384965", "minzoom": 2, "maxzoom": 8 }, "properties": { "halo": 1.8, "title": "大越国", "fontsize": 12, "tyid": "304000", "oid": "103:1537435933310", "color": "#0056E7" }, "geometry": { "type": "Point", "coordinates": [ 105.292969, 21.371244 ] } }
{ "type": "Feature", "tippecanoe": { "layer": "2AFCA08E00481583915384965", "minzoom": 2, "maxzoom": 8 }, "properties": { "halo": 1.8, "title": "占婆国", "fontsize": 12, "tyid": "304000", "oid": "103:1537435933312", "color": "#0056E7" }, "geometry": { "type": "Point", "coordinates": [ 108.017578, 11.523088 ] } }
{ "type": "Feature", "tippecanoe": { "layer": "2AFCA08E00481583915384965", "minzoom": 2, "maxzoom": 8 }, "properties": { "halo": 1.6, "title": "虾夷", "fontsize": 12, "tyid": "304001", "oid": "103:1535120124497", "color": "#0056E7" }, "geometry": { "type": "Point", "coordinates": [ 142.558594, 43.389082 ] } }
{ "type": "Feature", "tippecanoe": { "layer": "2AFCA08E00481583915384965", "minzoom": 2, "maxzoom": 8 }, "properties": { "halo": 1.8, "title": "北朝[日本]", "fontsize": 12, "tyid": "304000", "oid": "103:1577244876278", "color": "#0056E7" }, "geometry": { "type": "Point", "coordinates": [ 139.218750, 36.668419 ] } }
{ "type": "Feature", "tippecanoe": { "layer": "2AFCA08E00481583915384965", "minzoom": 2, "maxzoom": 8 }, "properties": { "halo": 1.8, "title": "南朝[日本]", "fontsize": 12, "tyid": "304000", "oid": "103:1577244876277", "color": "#0056E7" }, "geometry": { "type": "Point", "coordinates": [ 135.791016, 35.173808 ] } }
{ "type": "Feature", "tippecanoe": { "layer": "2AFCA08E00481583915384965", "minzoom": 2, "maxzoom": 8 }, "properties": { "halo": 1.6, "title": "姆佩姆巴卡西王国", "fontsize": 12, "tyid": "304002", "oid": "103:1537435933423", "color": "#0056E7" }, "geometry": { "type": "Point", "coordinates": [ 13.271484, -5.441022 ] } }
{ "type": "Feature", "tippecanoe": { "layer": "2AFCA08E00481583915384965", "minzoom": 2, "maxzoom": 8 }, "properties": { "halo": 1.8, "title": "巽他王国", "fontsize": 12, "tyid": "304000", "oid": "103:1535120124212", "color": "#0056E7" }, "geometry": { "type": "Point", "coordinates": [ 106.611328, -6.664608 ] } }
{ "type": "Feature", "tippecanoe": { "layer": "2AFCA08E00481583915384965", "minzoom": 2, "maxzoom": 8 }, "properties": { "halo": 1.8, "title": "加鲁王国", "fontsize": 12, "tyid": "304000", "oid": "103:1535120124213", "color": "#0056E7" }, "geometry": { "type": "Point", "coordinates": [ 108.193359, -7.013668 ] } }
{ "type": "Feature", "tippecanoe": { "layer": "2AFCA08E00481583915384965", "minzoom": 2, "maxzoom": 8 }, "properties": { "halo": 1.8, "title": "满者伯夷国", "fontsize": 12, "tyid": "304000", "oid": "103:1576922420474", "color": "#0056E7" }, "geometry": { "type": "Point", "coordinates": [ 111.621094, -7.536764 ] } }
{ "type": "Feature", "tippecanoe": { "layer": "2AFCA08E02E81583915384968", "minzoom": 2, "maxzoom": 8 }, "properties": { "tyid": "410000", "centroid": "{\"type\":\"Point\",\"coordinates\":[102.890655519,50.32448578]}", "opacity": 1, "oid": "103:1582721307215", "color": "#A11300", "width": 3 }, "geometry": { "type": "MultiLineString", "coordinates": [ [ [ 108.017578, 21.616579 ], [ 106.611328, 22.024546 ], [ 106.523438, 22.512557 ], [ 106.699219, 22.836946 ], [ 105.820312, 22.998852 ], [ 105.205078, 23.402765 ], [ 103.886719, 22.512557 ], [ 103.535156, 22.836946 ], [ 103.183594, 22.105999 ], [ 102.480469, 22.512557 ], [ 101.777344, 21.861499 ], [ 101.689453, 21.207459 ], [ 101.162109, 21.207459 ], [ 100.986328, 21.779905 ], [ 100.195312, 21.534847 ], [ 99.843750, 22.105999 ], [ 99.140625, 22.187405 ], [ 99.228516, 22.917923 ], [ 98.437500, 23.079732 ], [ 98.701172, 23.402765 ], [ 98.349609, 23.966176 ], [ 98.525391, 24.206890 ], [ 97.294922, 23.805450 ], [ 97.470703, 25.324167 ], [ 98.261719, 26.431228 ], [ 98.701172, 26.667096 ], [ 98.613281, 27.605671 ], [ 98.261719, 27.605671 ], [ 98.085938, 28.226970 ], [ 97.558594, 28.536275 ], [ 97.031250, 27.761330 ], [ 96.240234, 28.304381 ], [ 95.625000, 28.304381 ], [ 94.218750, 27.605671 ], [ 93.691406, 27.059126 ], [ 92.988281, 26.902477 ], [ 92.021484, 26.902477 ], [ 92.109375, 27.371767 ], [ 91.494141, 27.605671 ], [ 91.494141, 27.916767 ], [ 90.791016, 28.071980 ] ], [ [ 130.605469, 42.293564 ], [ 130.166016, 42.940339 ], [ 129.814453, 43.004647 ], [ 129.638672, 42.488302 ], [ 129.287109, 42.423457 ], [ 128.847656, 42.032974 ], [ 127.968750, 42.032974 ], [ 128.232422, 41.574361 ], [ 128.056641, 41.442726 ], [ 127.177734, 41.508577 ], [ 126.826172, 41.836828 ], [ 125.947266, 40.913513 ], [ 124.804688, 40.513799 ], [ 124.277344, 40.044438 ] ], [ [ 135.263672, 54.775346 ], [ 132.978516, 54.162434 ], [ 130.517578, 54.110943 ], [ 131.835938, 54.927142 ], [ 131.044922, 55.677584 ], [ 129.462891, 55.776573 ], [ 128.759766, 55.528631 ], [ 127.705078, 55.727110 ], [ 126.123047, 55.627996 ], [ 125.859375, 55.825973 ], [ 124.804688, 55.924586 ], [ 123.134766, 54.775346 ], [ 121.376953, 54.265224 ], [ 121.025391, 54.521081 ], [ 120.234375, 54.162434 ], [ 119.267578, 54.007769 ], [ 119.003906, 53.383328 ], [ 119.179688, 53.120405 ], [ 120.058594, 53.488046 ], [ 121.201172, 53.540307 ], [ 121.376953, 53.383328 ], [ 120.761719, 53.278353 ], [ 119.970703, 52.802761 ], [ 120.058594, 52.589701 ], [ 120.673828, 52.536273 ], [ 120.673828, 51.998410 ], [ 120.058594, 51.672555 ], [ 119.091797, 50.401515 ], [ 119.355469, 50.401515 ], [ 119.267578, 50.120578 ], [ 118.037109, 49.610710 ], [ 116.191406, 50.064192 ], [ 115.312500, 49.951220 ], [ 114.960938, 50.233152 ], [ 114.257812, 50.289339 ], [ 112.675781, 49.496675 ], [ 110.654297, 49.152970 ], [ 108.457031, 49.382373 ], [ 107.929688, 49.724479 ], [ 107.929688, 49.951220 ], [ 107.050781, 50.064192 ], [ 106.523438, 50.345460 ], [ 105.292969, 50.513427 ], [ 103.974609, 50.176898 ], [ 103.271484, 50.233152 ], [ 102.216797, 50.625073 ], [ 102.041016, 51.399206 ], [ 98.964844, 52.106505 ], [ 98.613281, 52.482780 ], [ 98.876953, 52.908902 ], [ 99.140625, 52.961875 ], [ 98.789062, 53.173119 ], [ 98.173828, 53.120405 ], [ 96.767578, 53.800651 ], [ 96.416016, 53.592505 ], [ 94.658203, 53.435719 ], [ 94.394531, 52.961875 ], [ 94.130859, 52.908902 ], [ 93.515625, 52.214339 ], [ 92.812500, 51.890054 ], [ 91.054688, 51.890054 ], [ 90.175781, 52.696361 ], [ 87.802734, 53.383328 ], [ 86.396484, 53.173119 ], [ 86.132812, 52.908902 ], [ 83.056641, 51.618017 ], [ 82.617188, 51.179343 ], [ 83.056641, 50.958427 ], [ 83.232422, 50.513427 ], [ 82.529297, 49.724479 ], [ 82.529297, 49.325122 ], [ 81.298828, 48.690960 ], [ 81.035156, 48.166085 ], [ 79.628906, 47.694974 ], [ 79.453125, 46.800059 ], [ 78.750000, 46.800059 ], [ 78.750000, 46.619261 ], [ 78.574219, 46.800059 ], [ 78.222656, 46.498392 ], [ 77.783203, 46.679594 ], [ 74.531250, 46.800059 ], [ 73.564453, 46.134170 ], [ 73.388672, 45.706179 ], [ 72.070312, 44.964798 ], [ 70.488281, 44.402392 ], [ 69.521484, 43.452919 ], [ 70.927734, 42.293564 ], [ 73.212891, 42.163403 ], [ 73.916016, 41.836828 ], [ 74.003906, 41.574361 ], [ 73.300781, 41.508577 ], [ 73.828125, 41.046217 ], [ 73.212891, 40.847060 ], [ 72.949219, 40.446947 ], [ 73.125000, 40.044438 ], [ 72.773438, 39.842286 ], [ 72.861328, 39.368279 ], [ 72.421875, 39.436193 ], [ 72.070312, 39.095963 ], [ 72.246094, 38.548165 ], [ 71.894531, 38.272689 ], [ 72.158203, 37.649034 ], [ 71.718750, 36.738884 ], [ 73.476562, 37.509726 ], [ 73.740234, 37.439974 ], [ 73.740234, 37.160317 ], [ 74.531250, 37.090240 ], [ 75.673828, 36.385913 ], [ 75.761719, 36.031332 ], [ 74.882812, 35.817813 ], [ 75.322266, 35.173808 ], [ 75.146484, 34.669359 ], [ 76.113281, 33.578015 ], [ 77.080078, 32.990236 ], [ 77.080078, 32.472695 ], [ 77.871094, 31.802893 ], [ 78.662109, 31.728167 ], [ 79.013672, 31.052934 ], [ 79.892578, 30.826781 ], [ 80.683594, 30.145127 ], [ 82.001953, 30.145127 ], [ 83.583984, 29.228890 ], [ 83.935547, 29.305561 ], [ 84.462891, 28.536275 ], [ 85.605469, 28.226970 ], [ 85.869141, 27.916767 ], [ 87.714844, 27.839076 ], [ 88.681641, 28.071980 ], [ 88.945312, 27.215556 ], [ 89.560547, 28.226970 ], [ 90.791016, 28.071980 ] ] ] } }
{ "type": "Feature", "tippecanoe": { "layer": "2AFCA08E02E81583915384968", "minzoom": 2, "maxzoom": 8 }, "properties": { "tyid": "410000", "centroid": "{\"type\":\"Point\",\"coordinates\":[118.9965612163,11.9748626986]}", "opacity": 1, "oid": "103:1582721307213", "color": "#A11300", "width": 3 }, "geometry": { "type": "MultiLineString", "coordinates": [ [ [ 122.695312, 24.447150 ], [ 122.431641, 23.402765 ] ], [ [ 120.849609, 20.550509 ], [ 121.728516, 21.616579 ] ], [ [ 119.355469, 17.727759 ], [ 119.794922, 18.895893 ] ], [ [ 118.916016, 14.689881 ], [ 118.916016, 16.045813 ] ], [ [ 118.476562, 10.833306 ], [ 119.003906, 12.039321 ] ], [ [ 115.312500, 7.013668 ], [ 116.191406, 8.059230 ] ], [ [ 111.708984, 3.425692 ], [ 112.939453, 3.864255 ] ], [ [ 108.281250, 5.965754 ], [ 108.193359, 7.362467 ] ], [ [ 110.039062, 11.264612 ], [ 110.214844, 12.468760 ] ], [ [ 109.775391, 15.029686 ], [ 109.248047, 16.214675 ] ] ] } }
{ "type": "Feature", "tippecanoe": { "layer": "2AFCA08E04A81583915384971", "minzoom": 2, "maxzoom": 8 }, "properties": { "halo": 0.3, "title": "石塘", "fontsize": 12, "tyid": "304006", "oid": "103:1582720954546", "color": "#4D4848" }, "geometry": { "type": "Point", "coordinates": [ 111.972656, 16.383391 ] } }
{ "type": "Feature", "tippecanoe": { "layer": "2AFCA08E04A81583915384971", "minzoom": 2, "maxzoom": 8 }, "properties": { "halo": 0.3, "title": "澎湖", "fontsize": 12, "tyid": "304006", "oid": "103:1535120124591", "color": "#4D4848" }, "geometry": { "type": "Point", "coordinates": [ 119.531250, 23.644524 ] } }
{ "type": "Feature", "tippecanoe": { "layer": "2AFCA08E04A81583915384971", "minzoom": 2, "maxzoom": 8 }, "properties": { "halo": 0.3, "title": "高华屿", "fontsize": 12, "tyid": "304006", "oid": "103:1535120124595", "color": "#4D4848" }, "geometry": { "type": "Point", "coordinates": [ 123.398438, 25.799891 ] } }
{ "type": "Feature", "tippecanoe": { "layer": "2AFCA08E04A81583915384971", "minzoom": 2, "maxzoom": 8 }, "properties": { "halo": 0.3, "title": "红头屿", "fontsize": 12, "tyid": "304006", "oid": "103:1535120124593", "color": "#4D4848" }, "geometry": { "type": "Point", "coordinates": [ 121.464844, 22.105999 ] } }
{ "type": "Feature", "tippecanoe": { "layer": "2AFCA08E04A81583915384971", "minzoom": 2, "maxzoom": 8 }, "properties": { "halo": 0.3, "title": "石塘", "fontsize": 12, "tyid": "304006", "oid": "103:1582720954549", "color": "#4D4848" }, "geometry": { "type": "Point", "coordinates": [ 116.894531, 20.715015 ] } }
{ "type": "Feature", "tippecanoe": { "layer": "2AFCA08E04A81583915384971", "minzoom": 2, "maxzoom": 8 }, "properties": { "halo": 0.3, "title": "石星石塘", "fontsize": 12, "tyid": "304006", "oid": "103:1535120124600", "color": "#4D4848" }, "geometry": { "type": "Point", "coordinates": [ 114.433594, 16.130262 ] } }
{ "type": "Feature", "tippecanoe": { "layer": "2AFCA08E04A81583915384971", "minzoom": 2, "maxzoom": 8 }, "properties": { "halo": 0.3, "title": "万生石塘屿", "fontsize": 12, "tyid": "304006", "oid": "103:1535120124606", "color": "#4D4848" }, "geometry": { "type": "Point", "coordinates": [ 114.257812, 9.795678 ] } }
{ "type": "Feature", "tippecanoe": { "layer": "2AFCA09709E81583915384957", "minzoom": 2, "maxzoom": 8 }, "properties": { "halo": 0.8, "title": "英格兰王国", "fontsize": 12, "tyid": "304000", "oid": "103:1535120124411", "color": "#202020" }, "geometry": { "type": "Point", "coordinates": [ -1.845703, 52.589701 ] } }
{ "type": "Feature", "tippecanoe": { "layer": "2AFCA09709E81583915384957", "minzoom": 2, "maxzoom": 8 }, "properties": { "halo": 0.8, "title": "卡斯蒂利亚联合王国", "fontsize": 12, "tyid": "304000", "oid": "103:1535120124424", "color": "#202020" }, "geometry": { "type": "Point", "coordinates": [ -4.746094, 40.446947 ] } }
{ "type": "Feature", "tippecanoe": { "layer": "2AFCA09709E81583915384957", "minzoom": 2, "maxzoom": 8 }, "properties": { "halo": 0.8, "title": "马林王朝", "fontsize": 12, "tyid": "304000", "oid": "103:1535120124346", "color": "#202020" }, "geometry": { "type": "Point", "coordinates": [ -3.867188, 32.175612 ] } }
{ "type": "Feature", "tippecanoe": { "layer": "2AFCA09709E81583915384957", "minzoom": 2, "maxzoom": 8 }, "properties": { "halo": 0.8, "title": "马里帝国", "fontsize": 12, "tyid": "304000", "oid": "103:1535120124343", "color": "#202020" }, "geometry": { "type": "Point", "coordinates": [ -6.943359, 15.114553 ] } }
{ "type": "Feature", "tippecanoe": { "layer": "2AFCA09709E81583915384957", "minzoom": 2, "maxzoom": 8 }, "properties": { "halo": 0.8, "title": "曼德人", "fontsize": 12, "tyid": "304001", "oid": "103:1537435933660", "color": "#262626" }, "geometry": { "type": "Point", "coordinates": [ -1.845703, 10.401378 ] } }
{ "type": "Feature", "tippecanoe": { "layer": "2AFCA09709E81583915384957", "minzoom": 2, "maxzoom": 8 }, "properties": { "halo": 0.8, "title": "萨米人", "fontsize": 12, "tyid": "304001", "oid": "103:1535120124484", "color": "#262626" }, "geometry": { "type": "Point", "coordinates": [ 27.773438, 67.407487 ] } }
{ "type": "Feature", "tippecanoe": { "layer": "2AFCA09709E81583915384957", "minzoom": 2, "maxzoom": 8 }, "properties": { "halo": 0.8, "title": "挪威王国[维京时期]", "fontsize": 12, "tyid": "304000", "oid": "103:1577244876222", "color": "#202020" }, "geometry": { "type": "Point", "coordinates": [ 12.656250, 62.915233 ] } }
{ "type": "Feature", "tippecanoe": { "layer": "2AFCA09709E81583915384957", "minzoom": 2, "maxzoom": 8 }, "properties": { "halo": 0.8, "title": "瑞典王国[维京时期]", "fontsize": 12, "tyid": "304000", "oid": "103:1577244876223", "color": "#202020" }, "geometry": { "type": "Point", "coordinates": [ 13.974609, 58.722599 ] } }
{ "type": "Feature", "tippecanoe": { "layer": "2AFCA09709E81583915384957", "minzoom": 2, "maxzoom": 8 }, "properties": { "halo": 0.8, "title": "神圣罗马帝国", "fontsize": 12, "tyid": "304000", "oid": "103:1535120124461", "color": "#202020" }, "geometry": { "type": "Point", "coordinates": [ 10.898438, 49.382373 ] } }
{ "type": "Feature", "tippecanoe": { "layer": "2AFCA09709E81583915384957", "minzoom": 2, "maxzoom": 8 }, "properties": { "halo": 0.8, "title": "法兰西王国", "fontsize": 12, "tyid": "304000", "oid": "103:1535120124409", "color": "#202020" }, "geometry": { "type": "Point", "coordinates": [ 2.109375, 47.159840 ] } }
{ "type": "Feature", "tippecanoe": { "layer": "2AFCA09709E81583915384957", "minzoom": 2, "maxzoom": 8 }, "properties": { "halo": 0.8, "title": "波兰王国", "fontsize": 12, "tyid": "304000", "oid": "103:1535120124427", "color": "#202020" }, "geometry": { "type": "Point", "coordinates": [ 21.005859, 51.179343 ] } }
{ "type": "Feature", "tippecanoe": { "layer": "2AFCA09709E81583915384957", "minzoom": 2, "maxzoom": 8 }, "properties": { "halo": 0.8, "title": "匈牙利王国", "fontsize": 12, "tyid": "304000", "oid": "103:1535120124432", "color": "#202020" }, "geometry": { "type": "Point", "coordinates": [ 20.302734, 46.739861 ] } }
{ "type": "Feature", "tippecanoe": { "layer": "2AFCA09709E81583915384957", "minzoom": 2, "maxzoom": 8 }, "properties": { "halo": 0.8, "title": "塞尔维亚帝国", "fontsize": 12, "tyid": "304000", "oid": "103:1535120124439", "color": "#202020" }, "geometry": { "type": "Point", "coordinates": [ 21.269531, 41.902277 ] } }
{ "type": "Feature", "tippecanoe": { "layer": "2AFCA09709E81583915384957", "minzoom": 2, "maxzoom": 8 }, "properties": { "halo": 0.8, "title": "条顿骑士团国", "fontsize": 12, "tyid": "304000", "oid": "103:1537435933435", "color": "#202020" }, "geometry": { "type": "Point", "coordinates": [ 25.488281, 57.844751 ] } }
{ "type": "Feature", "tippecanoe": { "layer": "2AFCA09709E81583915384957", "minzoom": 2, "maxzoom": 8 }, "properties": { "halo": 0.8, "title": "莫斯科大公国", "fontsize": 12, "tyid": "304000", "oid": "103:1535120124399", "color": "#202020" }, "geometry": { "type": "Point", "coordinates": [ 39.199219, 57.844751 ] } }
{ "type": "Feature", "tippecanoe": { "layer": "2AFCA09709E81583915384957", "minzoom": 2, "maxzoom": 8 }, "properties": { "halo": 0.8, "title": "立陶宛大公国", "fontsize": 12, "tyid": "304000", "oid": "103:1535120124434", "color": "#202020" }, "geometry": { "type": "Point", "coordinates": [ 28.916016, 51.672555 ] } }
{ "type": "Feature", "tippecanoe": { "layer": "2AFCA09709E81583915384957", "minzoom": 2, "maxzoom": 8 }, "properties": { "halo": 0.8, "title": "哈夫斯王朝", "fontsize": 12, "tyid": "304000", "oid": "103:1535120124351", "color": "#202020" }, "geometry": { "type": "Point", "coordinates": [ 8.437500, 34.741612 ] } }
{ "type": "Feature", "tippecanoe": { "layer": "2AFCA09709E81583915384957", "minzoom": 2, "maxzoom": 8 }, "properties": { "halo": 0.8, "title": "图阿雷格人", "fontsize": 12, "tyid": "304001", "oid": "103:1535120124502", "color": "#262626" }, "geometry": { "type": "Point", "coordinates": [ 6.503906, 24.367114 ] } }
{ "type": "Feature", "tippecanoe": { "layer": "2AFCA09709E81583915384957", "minzoom": 2, "maxzoom": 8 }, "properties": { "halo": 0.8, "title": "豪萨人诸国", "fontsize": 12, "tyid": "304000", "oid": "103:1537435933418", "color": "#202020" }, "geometry": { "type": "Point", "coordinates": [ 5.449219, 14.434680 ] } }
{ "type": "Feature", "tippecanoe": { "layer": "2AFCA09709E81583915384957", "minzoom": 2, "maxzoom": 8 }, "properties": { "halo": 0.8, "title": "约鲁巴人", "fontsize": 12, "tyid": "304000", "oid": "103:1535120124551", "color": "#202020" }, "geometry": { "type": "Point", "coordinates": [ 4.746094, 7.623887 ] } }
{ "type": "Feature", "tippecanoe": { "layer": "2AFCA09709E81583915384957", "minzoom": 2, "maxzoom": 8 }, "properties": { "halo": 0.8, "title": "加涅姆帝国", "fontsize": 12, "tyid": "304000", "oid": "103:1535120124360", "color": "#202020" }, "geometry": { "type": "Point", "coordinates": [ 16.523438, 18.895893 ] } }
{ "type": "Feature", "tippecanoe": { "layer": "2AFCA09709E81583915384957", "minzoom": 2, "maxzoom": 8 }, "properties": { "halo": 0.8, "title": "贝蒂-帕胡因人", "fontsize": 12, "tyid": "304001", "oid": "103:1535120124527", "color": "#262626" }, "geometry": { "type": "Point", "coordinates": [ 13.798828, 1.230374 ] } }
{ "type": "Feature", "tippecanoe": { "layer": "2AFCA09709E81583915384957", "minzoom": 2, "maxzoom": 8 }, "properties": { "halo": 0.8, "title": "巴赫里马穆鲁克王朝", "fontsize": 12, "tyid": "304000", "oid": "103:1537435933366", "color": "#202020" }, "geometry": { "type": "Point", "coordinates": [ 26.982422, 28.613459 ] } }
{ "type": "Feature", "tippecanoe": { "layer": "2AFCA09709E81583915384957", "minzoom": 2, "maxzoom": 8 }, "properties": { "halo": 0.8, "title": "札剌亦儿王朝", "fontsize": 12, "tyid": "304000", "oid": "103:1537435933351", "color": "#202020" }, "geometry": { "type": "Point", "coordinates": [ 44.384766, 36.102376 ] } }
{ "type": "Feature", "tippecanoe": { "layer": "2AFCA09709E81583915384957", "minzoom": 2, "maxzoom": 8 }, "properties": { "halo": 0.8, "title": "达优王国", "fontsize": 12, "tyid": "304000", "oid": "103:1537435933409", "color": "#202020" }, "geometry": { "type": "Point", "coordinates": [ 25.312500, 14.008696 ] } }
{ "type": "Feature", "tippecanoe": { "layer": "2AFCA09709E81583915384957", "minzoom": 2, "maxzoom": 8 }, "properties": { "halo": 0.8, "title": "阿罗底亚王国", "fontsize": 12, "tyid": "304000", "oid": "103:1576922420499", "color": "#202020" }, "geometry": { "type": "Point", "coordinates": [ 33.046875, 14.093957 ] } }
{ "type": "Feature", "tippecanoe": { "layer": "2AFCA09709E81583915384957", "minzoom": 2, "maxzoom": 8 }, "properties": { "halo": 0.8, "title": "卢欧诸部", "fontsize": 12, "tyid": "304001", "oid": "103:1537435933642", "color": "#262626" }, "geometry": { "type": "Point", "coordinates": [ 31.640625, 5.878332 ] } }
{ "type": "Feature", "tippecanoe": { "layer": "2AFCA09709E81583915384957", "minzoom": 2, "maxzoom": 8 }, "properties": { "halo": 0.8, "title": "坎茨王朝", "fontsize": 12, "tyid": "304002", "oid": "103:1537435933364", "color": "#262626" }, "geometry": { "type": "Point", "coordinates": [ 33.750000, 20.715015 ] } }
{ "type": "Feature", "tippecanoe": { "layer": "2AFCA09709E81583915384957", "minzoom": 2, "maxzoom": 8 }, "properties": { "halo": 0.8, "title": "所罗门王朝", "fontsize": 12, "tyid": "304000", "oid": "103:1537435933359", "color": "#202020" }, "geometry": { "type": "Point", "coordinates": [ 37.792969, 12.726084 ] } }
{ "type": "Feature", "tippecanoe": { "layer": "2AFCA09709E81583915384957", "minzoom": 2, "maxzoom": 8 }, "properties": { "halo": 0.8, "title": "雅库特人", "fontsize": 12, "tyid": "304000", "oid": "103:1535120124542", "color": "#202020" }, "geometry": { "type": "Point", "coordinates": [ 65.566406, 59.756395 ] } }
{ "type": "Feature", "tippecanoe": { "layer": "2AFCA09709E81583915384957", "minzoom": 2, "maxzoom": 8 }, "properties": { "halo": 0.8, "title": "土库曼人诸部", "fontsize": 12, "tyid": "304001", "oid": "103:1535120124217", "color": "#262626" }, "geometry": { "type": "Point", "coordinates": [ 56.777344, 41.046217 ] } }
{ "type": "Feature", "tippecanoe": { "layer": "2AFCA09709E81583915384957", "minzoom": 2, "maxzoom": 8 }, "properties": { "halo": 0.8, "title": "东察合台汗国", "fontsize": 12, "tyid": "304000", "oid": "103:1535120124205", "color": "#202020" }, "geometry": { "type": "Point", "coordinates": [ 81.738281, 41.442726 ] } }
{ "type": "Feature", "tippecanoe": { "layer": "2AFCA09709E81583915384957", "minzoom": 2, "maxzoom": 8 }, "properties": { "halo": 0.8, "title": "贝都因人", "fontsize": 12, "tyid": "304001", "oid": "103:1537435933370", "color": "#262626" }, "geometry": { "type": "Point", "coordinates": [ 46.142578, 23.402765 ] } }
{ "type": "Feature", "tippecanoe": { "layer": "2AFCA09709E81583915384957", "minzoom": 2, "maxzoom": 8 }, "properties": { "halo": 0.8, "title": "伊朗的穆扎法尔王朝", "fontsize": 12, "tyid": "304000", "oid": "103:1537435933348", "color": "#202020" }, "geometry": { "type": "Point", "coordinates": [ 54.316406, 30.902225 ] } }
{ "type": "Feature", "tippecanoe": { "layer": "2AFCA09709E81583915384957", "minzoom": 2, "maxzoom": 8 }, "properties": { "halo": 0.8, "title": "帖木儿帝国", "fontsize": 12, "tyid": "304000", "oid": "103:1535120124241", "color": "#202020" }, "geometry": { "type": "Point", "coordinates": [ 65.390625, 40.245992 ] } }
{ "type": "Feature", "tippecanoe": { "layer": "2AFCA09709E81583915384957", "minzoom": 2, "maxzoom": 8 }, "properties": { "halo": 0.8, "title": "库尔特王朝", "fontsize": 12, "tyid": "304000", "oid": "103:1537435933343", "color": "#202020" }, "geometry": { "type": "Point", "coordinates": [ 61.962891, 34.669359 ] } }
{ "type": "Feature", "tippecanoe": { "layer": "2AFCA09709E81583915384957", "minzoom": 2, "maxzoom": 8 }, "properties": { "halo": 0.8, "title": "米赫拉巴尼王朝", "fontsize": 12, "tyid": "304000", "oid": "103:1535120124246", "color": "#202020" }, "geometry": { "type": "Point", "coordinates": [ 61.875000, 30.751278 ] } }
{ "type": "Feature", "tippecanoe": { "layer": "2AFCA09709E81583915384957", "minzoom": 2, "maxzoom": 8 }, "properties": { "halo": 0.8, "title": "拉苏里王朝", "fontsize": 12, "tyid": "304000", "oid": "103:1535120124288", "color": "#202020" }, "geometry": { "type": "Point", "coordinates": [ 48.515625, 15.707663 ] } }
{ "type": "Feature", "tippecanoe": { "layer": "2AFCA09709E81583915384957", "minzoom": 2, "maxzoom": 8 }, "properties": { "halo": 0.8, "title": "挲玛王朝", "fontsize": 12, "tyid": "304000", "oid": "103:1535120124235", "color": "#202020" }, "geometry": { "type": "Point", "coordinates": [ 68.994141, 25.799891 ] } }
{ "type": "Feature", "tippecanoe": { "layer": "2AFCA09709E81583915384957", "minzoom": 2, "maxzoom": 8 }, "properties": { "halo": 0.8, "title": "德里苏丹图格鲁克王朝", "fontsize": 12, "tyid": "304000", "oid": "103:1576922420472", "color": "#202020" }, "geometry": { "type": "Point", "coordinates": [ 75.761719, 26.980829 ] } }
{ "type": "Feature", "tippecanoe": { "layer": "2AFCA09709E81583915384957", "minzoom": 2, "maxzoom": 8 }, "properties": { "halo": 0.8, "title": "孟加拉苏丹国", "fontsize": 12, "tyid": "304000", "oid": "103:1535120124167", "color": "#202020" }, "geometry": { "type": "Point", "coordinates": [ 86.923828, 23.805450 ] } }
{ "type": "Feature", "tippecanoe": { "layer": "2AFCA09709E81583915384957", "minzoom": 2, "maxzoom": 8 }, "properties": { "halo": 0.8, "title": "巴赫曼尼苏丹国", "fontsize": 12, "tyid": "304000", "oid": "103:1535120124171", "color": "#202020" }, "geometry": { "type": "Point", "coordinates": [ 76.552734, 18.812718 ] } }
{ "type": "Feature", "tippecanoe": { "layer": "2AFCA09709E81583915384957", "minzoom": 2, "maxzoom": 8 }, "properties": { "halo": 0.8, "title": "贡德诸国", "fontsize": 12, "tyid": "304000", "oid": "103:1537435933302", "color": "#202020" }, "geometry": { "type": "Point", "coordinates": [ 82.353516, 20.797201 ] } }
{ "type": "Feature", "tippecanoe": { "layer": "2AFCA09709E81583915384957", "minzoom": 2, "maxzoom": 8 }, "properties": { "halo": 0.8, "title": "北元", "fontsize": 12, "tyid": "304000", "oid": "103:1535120124204", "color": "#202020" }, "geometry": { "type": "Point", "coordinates": [ 111.181641, 48.341646 ] } }
{ "type": "Feature", "tippecanoe": { "layer": "2AFCA09709E81583915384957", "minzoom": 2, "maxzoom": 8 }, "properties": { "halo": 0.8, "title": "帕木竹巴王朝", "fontsize": 12, "tyid": "304000", "oid": "103:1537435933320", "color": "#202020" }, "geometry": { "type": "Point", "coordinates": [ 90.351562, 31.428663 ] } }
{ "type": "Feature", "tippecanoe": { "layer": "2AFCA09709E81583915384957", "minzoom": 2, "maxzoom": 8 }, "properties": { "halo": 0.8, "title": "元梁", "fontsize": 12, "tyid": "304000", "oid": "103:1537435933323", "color": "#202020" }, "geometry": { "type": "Point", "coordinates": [ 101.689453, 26.352498 ] } }
{ "type": "Feature", "tippecanoe": { "layer": "2AFCA09709E81583915384957", "minzoom": 2, "maxzoom": 8 }, "properties": { "halo": 0.8, "title": "阿瑜陀耶王国", "fontsize": 12, "tyid": "304000", "oid": "103:1576922420475", "color": "#202020" }, "geometry": { "type": "Point", "coordinates": [ 100.458984, 15.368950 ] } }
{ "type": "Feature", "tippecanoe": { "layer": "2AFCA09709E81583915384957", "minzoom": 2, "maxzoom": 8 }, "properties": { "halo": 0.8, "title": "澜沧王国", "fontsize": 12, "tyid": "304000", "oid": "103:1535120124194", "color": "#202020" }, "geometry": { "type": "Point", "coordinates": [ 103.359375, 18.562947 ] } }
{ "type": "Feature", "tippecanoe": { "layer": "2AFCA09709E81583915384957", "minzoom": 2, "maxzoom": 8 }, "properties": { "halo": 0.8, "title": "高棉帝国", "fontsize": 12, "tyid": "304000", "oid": "103:1535120124185", "color": "#202020" }, "geometry": { "type": "Point", "coordinates": [ 105.556641, 12.640338 ] } }
{ "type": "Feature", "tippecanoe": { "layer": "2AFCA09709E81583915384957", "minzoom": 2, "maxzoom": 8 }, "properties": { "halo": 0.8, "title": "明", "fontsize": 12, "tyid": "304000", "oid": "103:1535120124201", "color": "#202020" }, "geometry": { "type": "Point", "coordinates": [ 112.500000, 32.101190 ] } }
{ "type": "Feature", "tippecanoe": { "layer": "2AFCA09709E81583915384957", "minzoom": 2, "maxzoom": 8 }, "properties": { "halo": 0.8, "title": "科伊桑人", "fontsize": 12, "tyid": "304001", "oid": "103:1535120124514", "color": "#262626" }, "geometry": { "type": "Point", "coordinates": [ 21.181641, -21.534847 ] } }
{ "type": "Feature", "tippecanoe": { "layer": "2AFCA09709E81583915384957", "minzoom": 2, "maxzoom": 8 }, "properties": { "halo": 0.8, "title": "班图人诸部", "fontsize": 12, "tyid": "304001", "oid": "103:1535120124521", "color": "#262626" }, "geometry": { "type": "Point", "coordinates": [ 27.070312, -5.528511 ] } }
{ "type": "Feature", "tippecanoe": { "layer": "2AFCA09709E81583915384957", "minzoom": 2, "maxzoom": 8 }, "properties": { "halo": 0.8, "title": "津巴布韦王国", "fontsize": 12, "tyid": "304000", "oid": "103:1535120124380", "color": "#202020" }, "geometry": { "type": "Point", "coordinates": [ 30.234375, -19.808054 ] } }
{ "type": "Feature", "tippecanoe": { "layer": "2AFCA09709E81583915384957", "minzoom": 2, "maxzoom": 8 }, "properties": { "halo": 0.8, "title": "基卢瓦苏丹国", "fontsize": 12, "tyid": "304001", "oid": "103:1535120124517", "color": "#262626" }, "geometry": { "type": "Point", "coordinates": [ 39.375000, -12.726084 ] } }
{ "type": "Feature", "tippecanoe": { "layer": "2AFCA09709E81583915384957", "minzoom": 2, "maxzoom": 8 }, "properties": { "halo": 0.8, "title": "三佛齐王国", "fontsize": 12, "tyid": "304000", "oid": "103:1537435933670", "color": "#202020" }, "geometry": { "type": "Point", "coordinates": [ 101.513672, -0.439449 ] } }
{ "type": "Feature", "tippecanoe": { "layer": "2AFCA0970E481583915384962", "minzoom": 2, "maxzoom": 8 }, "properties": { "halo": 1.8, "title": "英格兰王国", "fontsize": 12, "tyid": "304000", "oid": "103:1535120124411", "color": "#0056E7" }, "geometry": { "type": "Point", "coordinates": [ -1.845703, 52.589701 ] } }
{ "type": "Feature", "tippecanoe": { "layer": "2AFCA0970E481583915384962", "minzoom": 2, "maxzoom": 8 }, "properties": { "halo": 1.8, "title": "卡斯蒂利亚联合王国", "fontsize": 12, "tyid": "304000", "oid": "103:1535120124424", "color": "#0056E7" }, "geometry": { "type": "Point", "coordinates": [ -4.746094, 40.446947 ] } }
{ "type": "Feature", "tippecanoe": { "layer": "2AFCA0970E481583915384962", "minzoom": 2, "maxzoom": 8 }, "properties": { "halo": 1.8, "title": "马林王朝", "fontsize": 12, "tyid": "304000", "oid": "103:1535120124346", "color": "#0056E7" }, "geometry": { "type": "Point", "coordinates": [ -3.867188, 32.175612 ] } }
{ "type": "Feature", "tippecanoe": { "layer": "2AFCA0970E481583915384962", "minzoom": 2, "maxzoom": 8 }, "properties": { "halo": 1.8, "title": "马里帝国", "fontsize": 12, "tyid": "304000", "oid": "103:1535120124343", "color": "#0056E7" }, "geometry": { "type": "Point", "coordinates": [ -6.943359, 15.114553 ] } }
{ "type": "Feature", "tippecanoe": { "layer": "2AFCA0970E481583915384962", "minzoom": 2, "maxzoom": 8 }, "properties": { "halo": 1.6, "title": "曼德人", "fontsize": 12, "tyid": "304001", "oid": "103:1537435933660", "color": "#0056E7" }, "geometry": { "type": "Point", "coordinates": [ -1.845703, 10.401378 ] } }
{ "type": "Feature", "tippecanoe": { "layer": "2AFCA0970E481583915384962", "minzoom": 2, "maxzoom": 8 }, "properties": { "halo": 1.6, "title": "萨米人", "fontsize": 12, "tyid": "304001", "oid": "103:1535120124484", "color": "#0056E7" }, "geometry": { "type": "Point", "coordinates": [ 27.773438, 67.407487 ] } }
{ "type": "Feature", "tippecanoe": { "layer": "2AFCA0970E481583915384962", "minzoom": 2, "maxzoom": 8 }, "properties": { "halo": 1.8, "title": "挪威王国[维京时期]", "fontsize": 12, "tyid": "304000", "oid": "103:1577244876222", "color": "#0056E7" }, "geometry": { "type": "Point", "coordinates": [ 12.656250, 62.915233 ] } }
{ "type": "Feature", "tippecanoe": { "layer": "2AFCA0970E481583915384962", "minzoom": 2, "maxzoom": 8 }, "properties": { "halo": 1.8, "title": "瑞典王国[维京时期]", "fontsize": 12, "tyid": "304000", "oid": "103:1577244876223", "color": "#0056E7" }, "geometry": { "type": "Point", "coordinates": [ 13.974609, 58.722599 ] } }
{ "type": "Feature", "tippecanoe": { "layer": "2AFCA0970E481583915384962", "minzoom": 2, "maxzoom": 8 }, "properties": { "halo": 1.8, "title": "神圣罗马帝国", "fontsize": 12, "tyid": "304000", "oid": "103:1535120124461", "color": "#0056E7" }, "geometry": { "type": "Point", "coordinates": [ 10.898438, 49.382373 ] } }
{ "type": "Feature", "tippecanoe": { "layer": "2AFCA0970E481583915384962", "minzoom": 2, "maxzoom": 8 }, "properties": { "halo": 1.8, "title": "法兰西王国", "fontsize": 12, "tyid": "304000", "oid": "103:1535120124409", "color": "#0056E7" }, "geometry": { "type": "Point", "coordinates": [ 2.109375, 47.159840 ] } }
{ "type": "Feature", "tippecanoe": { "layer": "2AFCA0970E481583915384962", "minzoom": 2, "maxzoom": 8 }, "properties": { "halo": 1.8, "title": "波兰王国", "fontsize": 12, "tyid": "304000", "oid": "103:1535120124427", "color": "#0056E7" }, "geometry": { "type": "Point", "coordinates": [ 21.005859, 51.179343 ] } }
{ "type": "Feature", "tippecanoe": { "layer": "2AFCA0970E481583915384962", "minzoom": 2, "maxzoom": 8 }, "properties": { "halo": 1.8, "title": "匈牙利王国", "fontsize": 12, "tyid": "304000", "oid": "103:1535120124432", "color": "#0056E7" }, "geometry": { "type": "Point", "coordinates": [ 20.302734, 46.739861 ] } }
{ "type": "Feature", "tippecanoe": { "layer": "2AFCA0970E481583915384962", "minzoom": 2, "maxzoom": 8 }, "properties": { "halo": 1.8, "title": "塞尔维亚帝国", "fontsize": 12, "tyid": "304000", "oid": "103:1535120124439", "color": "#0056E7" }, "geometry": { "type": "Point", "coordinates": [ 21.269531, 41.902277 ] } }
{ "type": "Feature", "tippecanoe": { "layer": "2AFCA0970E481583915384962", "minzoom": 2, "maxzoom": 8 }, "properties": { "halo": 1.8, "title": "条顿骑士团国", "fontsize": 12, "tyid": "304000", "oid": "103:1537435933435", "color": "#0056E7" }, "geometry": { "type": "Point", "coordinates": [ 25.488281, 57.844751 ] } }
{ "type": "Feature", "tippecanoe": { "layer": "2AFCA0970E481583915384962", "minzoom": 2, "maxzoom": 8 }, "properties": { "halo": 1.8, "title": "莫斯科大公国", "fontsize": 12, "tyid": "304000", "oid": "103:1535120124399", "color": "#0056E7" }, "geometry": { "type": "Point", "coordinates": [ 39.199219, 57.844751 ] } }
{ "type": "Feature", "tippecanoe": { "layer": "2AFCA0970E481583915384962", "minzoom": 2, "maxzoom": 8 }, "properties": { "halo": 1.8, "title": "立陶宛大公国", "fontsize": 12, "tyid": "304000", "oid": "103:1535120124434", "color": "#0056E7" }, "geometry": { "type": "Point", "coordinates": [ 28.916016, 51.672555 ] } }
{ "type": "Feature", "tippecanoe": { "layer": "2AFCA0970E481583915384962", "minzoom": 2, "maxzoom": 8 }, "properties": { "halo": 1.8, "title": "哈夫斯王朝", "fontsize": 12, "tyid": "304000", "oid": "103:1535120124351", "color": "#0056E7" }, "geometry": { "type": "Point", "coordinates": [ 8.437500, 34.741612 ] } }
{ "type": "Feature", "tippecanoe": { "layer": "2AFCA0970E481583915384962", "minzoom": 2, "maxzoom": 8 }, "properties": { "halo": 1.6, "title": "图阿雷格人", "fontsize": 12, "tyid": "304001", "oid": "103:1535120124502", "color": "#0056E7" }, "geometry": { "type": "Point", "coordinates": [ 6.503906, 24.367114 ] } }
{ "type": "Feature", "tippecanoe": { "layer": "2AFCA0970E481583915384962", "minzoom": 2, "maxzoom": 8 }, "properties": { "halo": 1.8, "title": "豪萨人诸国", "fontsize": 12, "tyid": "304000", "oid": "103:1537435933418", "color": "#0056E7" }, "geometry": { "type": "Point", "coordinates": [ 5.449219, 14.434680 ] } }
{ "type": "Feature", "tippecanoe": { "layer": "2AFCA0970E481583915384962", "minzoom": 2, "maxzoom": 8 }, "properties": { "halo": 1.8, "title": "约鲁巴人", "fontsize": 12, "tyid": "304000", "oid": "103:1535120124551", "color": "#0056E7" }, "geometry": { "type": "Point", "coordinates": [ 4.746094, 7.623887 ] } }
{ "type": "Feature", "tippecanoe": { "layer": "2AFCA0970E481583915384962", "minzoom": 2, "maxzoom": 8 }, "properties": { "halo": 1.8, "title": "加涅姆帝国", "fontsize": 12, "tyid": "304000", "oid": "103:1535120124360", "color": "#0056E7" }, "geometry": { "type": "Point", "coordinates": [ 16.523438, 18.895893 ] } }
{ "type": "Feature", "tippecanoe": { "layer": "2AFCA0970E481583915384962", "minzoom": 2, "maxzoom": 8 }, "properties": { "halo": 1.6, "title": "贝蒂-帕胡因人", "fontsize": 12, "tyid": "304001", "oid": "103:1535120124527", "color": "#0056E7" }, "geometry": { "type": "Point", "coordinates": [ 13.798828, 1.230374 ] } }
{ "type": "Feature", "tippecanoe": { "layer": "2AFCA0970E481583915384962", "minzoom": 2, "maxzoom": 8 }, "properties": { "halo": 1.8, "title": "巴赫里马穆鲁克王朝", "fontsize": 12, "tyid": "304000", "oid": "103:1537435933366", "color": "#0056E7" }, "geometry": { "type": "Point", "coordinates": [ 26.982422, 28.613459 ] } }
{ "type": "Feature", "tippecanoe": { "layer": "2AFCA0970E481583915384962", "minzoom": 2, "maxzoom": 8 }, "properties": { "halo": 1.8, "title": "札剌亦儿王朝", "fontsize": 12, "tyid": "304000", "oid": "103:1537435933351", "color": "#0056E7" }, "geometry": { "type": "Point", "coordinates": [ 44.384766, 36.102376 ] } }
{ "type": "Feature", "tippecanoe": { "layer": "2AFCA0970E481583915384962", "minzoom": 2, "maxzoom": 8 }, "properties": { "halo": 1.8, "title": "达优王国", "fontsize": 12, "tyid": "304000", "oid": "103:1537435933409", "color": "#0056E7" }, "geometry": { "type": "Point", "coordinates": [ 25.312500, 14.008696 ] } }
{ "type": "Feature", "tippecanoe": { "layer": "2AFCA0970E481583915384962", "minzoom": 2, "maxzoom": 8 }, "properties": { "halo": 1.8, "title": "阿罗底亚王国", "fontsize": 12, "tyid": "304000", "oid": "103:1576922420499", "color": "#0056E7" }, "geometry": { "type": "Point", "coordinates": [ 33.046875, 14.093957 ] } }
{ "type": "Feature", "tippecanoe": { "layer": "2AFCA0970E481583915384962", "minzoom": 2, "maxzoom": 8 }, "properties": { "halo": 1.6, "title": "卢欧诸部", "fontsize": 12, "tyid": "304001", "oid": "103:1537435933642", "color": "#0056E7" },