{"year": "AD194",  "type": "Feature", "tippecanoe": { "layer": "2AFCA1248DA01583917564498", "minzoom": 2, "maxzoom": 8 }, "properties": { "halo": 0.8, "title": "古白令海文化", "fontsize": 12, "tyid": "304002", "oid": "103:1576575162492", "color": "#262626" }, "geometry": { "type": "Point", "coordinates": [ -170.332031, 63.470145 ] } }
{"year": "AD194",  "type": "Feature", "tippecanoe": { "layer": "2AFCA1248DA01583917564498", "minzoom": 2, "maxzoom": 8 }, "properties": { "halo": 0.8, "title": "梅奥人", "fontsize": 12, "tyid": "304001", "oid": "103:1576575162855", "color": "#262626" }, "geometry": { "type": "Point", "coordinates": [ -109.160156, 26.667096 ] } }
{"year": "AD194",  "type": "Feature", "tippecanoe": { "layer": "2AFCA1248DA01583917564498", "minzoom": 2, "maxzoom": 8 }, "properties": { "halo": 0.8, "title": "查尔奇维特斯文化", "fontsize": 12, "tyid": "304002", "oid": "103:1576575162623", "color": "#262626" }, "geometry": { "type": "Point", "coordinates": [ -103.974609, 23.483401 ] } }
{"year": "AD194",  "type": "Feature", "tippecanoe": { "layer": "2AFCA1248DA01583917564498", "minzoom": 2, "maxzoom": 8 }, "properties": { "halo": 0.8, "title": "查普卡洛文化", "fontsize": 12, "tyid": "304002", "oid": "103:1576575162620", "color": "#262626" }, "geometry": { "type": "Point", "coordinates": [ -99.931641, 20.303418 ] } }
{"year": "AD194",  "type": "Feature", "tippecanoe": { "layer": "2AFCA1248DA01583917564498", "minzoom": 2, "maxzoom": 8 }, "properties": { "halo": 0.8, "title": "特奥蒂瓦坎", "fontsize": 12, "tyid": "304002", "oid": "103:1576575162843", "color": "#262626" }, "geometry": { "type": "Point", "coordinates": [ -99.404297, 19.808054 ] } }
{"year": "AD194",  "type": "Feature", "tippecanoe": { "layer": "2AFCA1248DA01583917564498", "minzoom": 2, "maxzoom": 8 }, "properties": { "halo": 0.8, "title": "古韦拉克鲁斯文化", "fontsize": 12, "tyid": "304002", "oid": "103:1576575162601", "color": "#262626" }, "geometry": { "type": "Point", "coordinates": [ -96.767578, 19.642588 ] } }
{"year": "AD194",  "type": "Feature", "tippecanoe": { "layer": "2AFCA1248DA01583917564498", "minzoom": 2, "maxzoom": 8 }, "properties": { "halo": 0.8, "title": "米斯特克人", "fontsize": 12, "tyid": "304001", "oid": "103:1576575162920", "color": "#262626" }, "geometry": { "type": "Point", "coordinates": [ -98.349609, 17.224758 ] } }
{"year": "AD194",  "type": "Feature", "tippecanoe": { "layer": "2AFCA1248DA01583917564498", "minzoom": 2, "maxzoom": 8 }, "properties": { "halo": 0.8, "title": "特里克人", "fontsize": 12, "tyid": "304001", "oid": "103:1576575162657", "color": "#262626" }, "geometry": { "type": "Point", "coordinates": [ -97.294922, 17.644022 ] } }
{"year": "AD194",  "type": "Feature", "tippecanoe": { "layer": "2AFCA1248DA01583917564498", "minzoom": 2, "maxzoom": 8 }, "properties": { "halo": 0.8, "title": "洛瓦贾达斯文化", "fontsize": 12, "tyid": "304002", "oid": "103:1576575162580", "color": "#262626" }, "geometry": { "type": "Point", "coordinates": [ -96.416016, 19.145168 ] } }
{"year": "AD194",  "type": "Feature", "tippecanoe": { "layer": "2AFCA1248DA01583917564498", "minzoom": 2, "maxzoom": 8 }, "properties": { "halo": 0.8, "title": "麦克斯人", "fontsize": 12, "tyid": "304001", "oid": "103:1576575162826", "color": "#262626" }, "geometry": { "type": "Point", "coordinates": [ -96.328125, 18.062312 ] } }
{"year": "AD194",  "type": "Feature", "tippecanoe": { "layer": "2AFCA1248DA01583917564498", "minzoom": 2, "maxzoom": 8 }, "properties": { "halo": 0.8, "title": "后奥尔梅克文化", "fontsize": 12, "tyid": "304002", "oid": "103:1576575162659", "color": "#262626" }, "geometry": { "type": "Point", "coordinates": [ -95.625000, 18.479609 ] } }
{"year": "AD194",  "type": "Feature", "tippecanoe": { "layer": "2AFCA1248DA01583917564498", "minzoom": 2, "maxzoom": 8 }, "properties": { "halo": 0.8, "title": "佐齐尔人", "fontsize": 12, "tyid": "304001", "oid": "103:1576575162607", "color": "#262626" }, "geometry": { "type": "Point", "coordinates": [ -93.339844, 16.551962 ] } }
{"year": "AD194",  "type": "Feature", "tippecanoe": { "layer": "2AFCA1248DA01583917564498", "minzoom": 2, "maxzoom": 8 }, "properties": { "halo": 0.8, "title": "祖赫人", "fontsize": 12, "tyid": "304001", "oid": "103:1576575162730", "color": "#262626" }, "geometry": { "type": "Point", "coordinates": [ -92.109375, 16.045813 ] } }
{"year": "AD194",  "type": "Feature", "tippecanoe": { "layer": "2AFCA1248DA01583917564498", "minzoom": 2, "maxzoom": 8 }, "properties": { "halo": 0.8, "title": "基切人", "fontsize": 12, "tyid": "304001", "oid": "103:1576575162772", "color": "#262626" }, "geometry": { "type": "Point", "coordinates": [ -90.966797, 15.029686 ] } }
{"year": "AD194",  "type": "Feature", "tippecanoe": { "layer": "2AFCA1248DA01583917564498", "minzoom": 2, "maxzoom": 8 }, "properties": { "halo": 0.8, "title": "阿尔托山文化", "fontsize": 12, "tyid": "304002", "oid": "103:1576575162820", "color": "#262626" }, "geometry": { "type": "Point", "coordinates": [ -91.054688, 14.349548 ] } }
{"year": "AD194",  "type": "Feature", "tippecanoe": { "layer": "2AFCA1248DA01583917564498", "minzoom": 2, "maxzoom": 8 }, "properties": { "halo": 0.8, "title": "怒溪文化", "fontsize": 12, "tyid": "304002", "oid": "103:1576575162450", "color": "#262626" }, "geometry": { "type": "Point", "coordinates": [ -72.421875, 41.574361 ] } }
{"year": "AD194",  "type": "Feature", "tippecanoe": { "layer": "2AFCA1248DA01583917564498", "minzoom": 2, "maxzoom": 8 }, "properties": { "halo": 0.8, "title": "埃里森-拉莫特文化", "fontsize": 12, "tyid": "304002", "oid": "103:1576575162737", "color": "#262626" }, "geometry": { "type": "Point", "coordinates": [ -87.626953, 39.095963 ] } }
{"year": "AD194",  "type": "Feature", "tippecanoe": { "layer": "2AFCA1248DA01583917564498", "minzoom": 2, "maxzoom": 8 }, "properties": { "halo": 0.8, "title": "科佩纳文化", "fontsize": 12, "tyid": "304002", "oid": "103:1576575162917", "color": "#262626" }, "geometry": { "type": "Point", "coordinates": [ -87.539062, 34.669359 ] } }
{"year": "AD194",  "type": "Feature", "tippecanoe": { "layer": "2AFCA1248DA01583917564498", "minzoom": 2, "maxzoom": 8 }, "properties": { "halo": 0.8, "title": "米勒文化", "fontsize": 12, "tyid": "304002", "oid": "103:1576575162640", "color": "#262626" }, "geometry": { "type": "Point", "coordinates": [ -88.417969, 34.234512 ] } }
{"year": "AD194",  "type": "Feature", "tippecanoe": { "layer": "2AFCA1248DA01583917564498", "minzoom": 2, "maxzoom": 8 }, "properties": { "halo": 0.8, "title": "威廉文化", "fontsize": 12, "tyid": "304002", "oid": "103:1576575162624", "color": "#262626" }, "geometry": { "type": "Point", "coordinates": [ -80.771484, 39.639538 ] } }
{"year": "AD194",  "type": "Feature", "tippecanoe": { "layer": "2AFCA1248DA01583917564498", "minzoom": 2, "maxzoom": 8 }, "properties": { "halo": 0.8, "title": "山地霍普维尔文化", "fontsize": 12, "tyid": "304002", "oid": "103:1576575162808", "color": "#262626" }, "geometry": { "type": "Point", "coordinates": [ -79.980469, 39.300299 ] } }
{"year": "AD194",  "type": "Feature", "tippecanoe": { "layer": "2AFCA1248DA01583917564498", "minzoom": 2, "maxzoom": 8 }, "properties": { "halo": 0.8, "title": "凯兹池塘文化", "fontsize": 12, "tyid": "304002", "oid": "103:1576575162499", "color": "#262626" }, "geometry": { "type": "Point", "coordinates": [ -82.265625, 29.535230 ] } }
{"year": "AD194",  "type": "Feature", "tippecanoe": { "layer": "2AFCA1248DA01583917564498", "minzoom": 2, "maxzoom": 8 }, "properties": { "halo": 0.8, "title": "玛纳索塔文化", "fontsize": 12, "tyid": "304002", "oid": "103:1576575162703", "color": "#262626" }, "geometry": { "type": "Point", "coordinates": [ -82.441406, 27.683528 ] } }
{"year": "AD194",  "type": "Feature", "tippecanoe": { "layer": "2AFCA1248DA01583917564498", "minzoom": 2, "maxzoom": 8 }, "properties": { "halo": 0.8, "title": "卡卢萨人", "fontsize": 12, "tyid": "304001", "oid": "103:1576575162913", "color": "#262626" }, "geometry": { "type": "Point", "coordinates": [ -81.650391, 27.137368 ] } }
{"year": "AD194",  "type": "Feature", "tippecanoe": { "layer": "2AFCA1248DA01583917564498", "minzoom": 2, "maxzoom": 8 }, "properties": { "halo": 0.8, "title": "圣约翰文化", "fontsize": 12, "tyid": "304002", "oid": "103:1576575162413", "color": "#262626" }, "geometry": { "type": "Point", "coordinates": [ -81.474609, 29.382175 ] } }
{"year": "AD194",  "type": "Feature", "tippecanoe": { "layer": "2AFCA1248DA01583917564498", "minzoom": 2, "maxzoom": 8 }, "properties": { "halo": 0.8, "title": "贝尔格莱德文化", "fontsize": 12, "tyid": "304002", "oid": "103:1576575162728", "color": "#262626" }, "geometry": { "type": "Point", "coordinates": [ -80.859375, 27.449790 ] } }
{"year": "AD194",  "type": "Feature", "tippecanoe": { "layer": "2AFCA1248DA01583917564498", "minzoom": 2, "maxzoom": 8 }, "properties": { "halo": 0.8, "title": "格莱兹文化", "fontsize": 12, "tyid": "304002", "oid": "103:1576575162415", "color": "#262626" }, "geometry": { "type": "Point", "coordinates": [ -80.859375, 26.037042 ] } }
{"year": "AD194",  "type": "Feature", "tippecanoe": { "layer": "2AFCA1248DA01583917564498", "minzoom": 2, "maxzoom": 8 }, "properties": { "halo": 0.8, "title": "德贵斯塔族", "fontsize": 12, "tyid": "304001", "oid": "103:1576575162707", "color": "#262626" }, "geometry": { "type": "Point", "coordinates": [ -80.419922, 25.641526 ] } }
{"year": "AD194",  "type": "Feature", "tippecanoe": { "layer": "2AFCA1248DA01583917564498", "minzoom": 2, "maxzoom": 8 }, "properties": { "halo": 0.8, "title": "雷卡人", "fontsize": 12, "tyid": "304001", "oid": "103:1576575162582", "color": "#262626" }, "geometry": { "type": "Point", "coordinates": [ -87.802734, 13.752725 ] } }
{"year": "AD194",  "type": "Feature", "tippecanoe": { "layer": "2AFCA1248DA01583917564498", "minzoom": 2, "maxzoom": 8 }, "properties": { "halo": 0.8, "title": "格兰科克勒文化", "fontsize": 12, "tyid": "304002", "oid": "103:1576575162528", "color": "#262626" }, "geometry": { "type": "Point", "coordinates": [ -80.507812, 8.581021 ] } }
{"year": "AD194",  "type": "Feature", "tippecanoe": { "layer": "2AFCA1248DA01583917564498", "minzoom": 2, "maxzoom": 8 }, "properties": { "halo": 0.8, "title": "泰罗纳", "fontsize": 12, "tyid": "304002", "oid": "103:1576575162393", "color": "#262626" }, "geometry": { "type": "Point", "coordinates": [ -73.564453, 10.833306 ] } }
{"year": "AD194",  "type": "Feature", "tippecanoe": { "layer": "2AFCA1248DA01583917564498", "minzoom": 2, "maxzoom": 8 }, "properties": { "halo": 0.8, "title": "约托科文化", "fontsize": 12, "tyid": "304002", "oid": "103:1576575162812", "color": "#262626" }, "geometry": { "type": "Point", "coordinates": [ -76.289062, 4.302591 ] } }
{"year": "AD194",  "type": "Feature", "tippecanoe": { "layer": "2AFCA1248DA01583917564498", "minzoom": 2, "maxzoom": 8 }, "properties": { "halo": 0.8, "title": "卡利玛文化", "fontsize": 12, "tyid": "304002", "oid": "103:1576575162796", "color": "#262626" }, "geometry": { "type": "Point", "coordinates": [ -76.728516, 4.214943 ] } }
{"year": "AD194",  "type": "Feature", "tippecanoe": { "layer": "2AFCA1248DA01583917564498", "minzoom": 2, "maxzoom": 8 }, "properties": { "halo": 0.8, "title": "马拉加纳文化", "fontsize": 12, "tyid": "304002", "oid": "103:1576575162513", "color": "#262626" }, "geometry": { "type": "Point", "coordinates": [ -76.289062, 3.425692 ] } }
{"year": "AD194",  "type": "Feature", "tippecanoe": { "layer": "2AFCA1248DA01583917564498", "minzoom": 2, "maxzoom": 8 }, "properties": { "halo": 0.8, "title": "昆巴雅文明", "fontsize": 12, "tyid": "304002", "oid": "103:1576575162615", "color": "#262626" }, "geometry": { "type": "Point", "coordinates": [ -75.761719, 5.090944 ] } }
{"year": "AD194",  "type": "Feature", "tippecanoe": { "layer": "2AFCA1248DA01583917564498", "minzoom": 2, "maxzoom": 8 }, "properties": { "halo": 0.8, "title": "科罗索文化", "fontsize": 12, "tyid": "304002", "oid": "103:1576575162723", "color": "#262626" }, "geometry": { "type": "Point", "coordinates": [ -66.533203, 18.229351 ] } }
{"year": "AD194",  "type": "Feature", "tippecanoe": { "layer": "2AFCA1248DA01583917564498", "minzoom": 2, "maxzoom": 8 }, "properties": { "halo": 0.8, "title": "大庄园文化", "fontsize": 12, "tyid": "304002", "oid": "103:1576575162716", "color": "#262626" }, "geometry": { "type": "Point", "coordinates": [ -65.917969, 18.396230 ] } }
{"year": "AD194",  "type": "Feature", "tippecanoe": { "layer": "2AFCA1248DA01583917564498", "minzoom": 2, "maxzoom": 8 }, "properties": { "halo": 0.8, "title": "萨拉杜文化", "fontsize": 12, "tyid": "304002", "oid": "103:1576575162842", "color": "#262626" }, "geometry": { "type": "Point", "coordinates": [ -61.699219, 16.214675 ] } }
{"year": "AD194",  "type": "Feature", "tippecanoe": { "layer": "2AFCA1248DA01583917564498", "minzoom": 2, "maxzoom": 8 }, "properties": { "halo": 0.8, "title": "皮克特人", "fontsize": 12, "tyid": "304001", "oid": "103:1576575162467", "color": "#262626" }, "geometry": { "type": "Point", "coordinates": [ -1.406250, 60.326948 ] } }
{"year": "AD194",  "type": "Feature", "tippecanoe": { "layer": "2AFCA1248DA01583917564498", "minzoom": 2, "maxzoom": 8 }, "properties": { "halo": 0.8, "title": "凯雷尼人", "fontsize": 12, "tyid": "304001", "oid": "103:1576575162392", "color": "#262626" }, "geometry": { "type": "Point", "coordinates": [ -5.097656, 58.077876 ] } }
{"year": "AD194",  "type": "Feature", "tippecanoe": { "layer": "2AFCA1248DA01583917564498", "minzoom": 2, "maxzoom": 8 }, "properties": { "halo": 0.8, "title": "卡诺奈卡人", "fontsize": 12, "tyid": "304001", "oid": "103:1576575162476", "color": "#262626" }, "geometry": { "type": "Point", "coordinates": [ -5.537109, 57.657158 ] } }
{"year": "AD194",  "type": "Feature", "tippecanoe": { "layer": "2AFCA1248DA01583917564498", "minzoom": 2, "maxzoom": 8 }, "properties": { "halo": 0.8, "title": "斯梅尔泰人", "fontsize": 12, "tyid": "304001", "oid": "103:1576575162405", "color": "#262626" }, "geometry": { "type": "Point", "coordinates": [ -4.746094, 57.984808 ] } }
{"year": "AD194",  "type": "Feature", "tippecanoe": { "layer": "2AFCA1248DA01583917564498", "minzoom": 2, "maxzoom": 8 }, "properties": { "halo": 0.8, "title": "卢吉人", "fontsize": 12, "tyid": "304001", "oid": "103:1576575162815", "color": "#262626" }, "geometry": { "type": "Point", "coordinates": [ -4.130859, 58.124320 ] } }
{"year": "AD194",  "type": "Feature", "tippecanoe": { "layer": "2AFCA1248DA01583917564498", "minzoom": 2, "maxzoom": 8 }, "properties": { "halo": 0.8, "title": "克洛维人[凯瑟尼斯]", "fontsize": 12, "tyid": "304001", "oid": "103:1576575162359", "color": "#262626" }, "geometry": { "type": "Point", "coordinates": [ -3.867188, 58.447733 ] } }
{"year": "AD194",  "type": "Feature", "tippecanoe": { "layer": "2AFCA1248DA01583917564498", "minzoom": 2, "maxzoom": 8 }, "properties": { "halo": 0.8, "title": "德坎泰人", "fontsize": 12, "tyid": "304001", "oid": "103:1576575162469", "color": "#262626" }, "geometry": { "type": "Point", "coordinates": [ -4.218750, 57.610107 ] } }
{"year": "AD194",  "type": "Feature", "tippecanoe": { "layer": "2AFCA1248DA01583917564498", "minzoom": 2, "maxzoom": 8 }, "properties": { "halo": 0.8, "title": "维格梅京人", "fontsize": 12, "tyid": "304001", "oid": "103:1576575162498", "color": "#262626" }, "geometry": { "type": "Point", "coordinates": [ -3.339844, 57.515823 ] } }
{"year": "AD194",  "type": "Feature", "tippecanoe": { "layer": "2AFCA1248DA01583917564498", "minzoom": 2, "maxzoom": 8 }, "properties": { "halo": 0.8, "title": "克鲁尼人", "fontsize": 12, "tyid": "304001", "oid": "103:1576575162465", "color": "#262626" }, "geometry": { "type": "Point", "coordinates": [ -5.449219, 57.040730 ] } }
{"year": "AD194",  "type": "Feature", "tippecanoe": { "layer": "2AFCA1248DA01583917564498", "minzoom": 2, "maxzoom": 8 }, "properties": { "halo": 0.8, "title": "维尼科内人", "fontsize": 12, "tyid": "304001", "oid": "103:1576575162712", "color": "#262626" }, "geometry": { "type": "Point", "coordinates": [ -3.691406, 56.218923 ] } }
{"year": "AD194",  "type": "Feature", "tippecanoe": { "layer": "2AFCA1248DA01583917564498", "minzoom": 2, "maxzoom": 8 }, "properties": { "halo": 0.8, "title": "德克萨利人", "fontsize": 12, "tyid": "304001", "oid": "103:1576575162735", "color": "#262626" }, "geometry": { "type": "Point", "coordinates": [ -2.197266, 57.326521 ] } }
{"year": "AD194",  "type": "Feature", "tippecanoe": { "layer": "2AFCA1248DA01583917564498", "minzoom": 2, "maxzoom": 8 }, "properties": { "halo": 0.8, "title": "奥斯拉尔王国", "fontsize": 12, "tyid": "304000", "oid": "103:1576575162646", "color": "#202020" }, "geometry": { "type": "Point", "coordinates": [ -7.470703, 52.802761 ] } }
{"year": "AD194",  "type": "Feature", "tippecanoe": { "layer": "2AFCA1248DA01583917564498", "minzoom": 2, "maxzoom": 8 }, "properties": { "halo": 0.8, "title": "埃皮迪人", "fontsize": 12, "tyid": "304001", "oid": "103:1576575162509", "color": "#262626" }, "geometry": { "type": "Point", "coordinates": [ -5.537109, 55.677584 ] } }
{"year": "AD194",  "type": "Feature", "tippecanoe": { "layer": "2AFCA1248DA01583917564498", "minzoom": 2, "maxzoom": 8 }, "properties": { "halo": 0.8, "title": "诺万忒人", "fontsize": 12, "tyid": "304001", "oid": "103:1576575162443", "color": "#262626" }, "geometry": { "type": "Point", "coordinates": [ -4.658203, 55.078367 ] } }
{"year": "AD194",  "type": "Feature", "tippecanoe": { "layer": "2AFCA1248DA01583917564498", "minzoom": 2, "maxzoom": 8 }, "properties": { "halo": 0.8, "title": "达姆诺尼人", "fontsize": 12, "tyid": "304001", "oid": "103:1576575162752", "color": "#262626" }, "geometry": { "type": "Point", "coordinates": [ -4.130859, 55.727110 ] } }
{"year": "AD194",  "type": "Feature", "tippecanoe": { "layer": "2AFCA1248DA01583917564498", "minzoom": 2, "maxzoom": 8 }, "properties": { "halo": 0.8, "title": "赛格威人", "fontsize": 12, "tyid": "304001", "oid": "103:1576575162887", "color": "#262626" }, "geometry": { "type": "Point", "coordinates": [ -3.691406, 55.229023 ] } }
{"year": "AD194",  "type": "Feature", "tippecanoe": { "layer": "2AFCA1248DA01583917564498", "minzoom": 2, "maxzoom": 8 }, "properties": { "halo": 0.8, "title": "沃塔迪尼人", "fontsize": 12, "tyid": "304000", "oid": "103:1576575162876", "color": "#202020" }, "geometry": { "type": "Point", "coordinates": [ -2.548828, 55.528631 ] } }
{"year": "AD194",  "type": "Feature", "tippecanoe": { "layer": "2AFCA1248DA01583917564498", "minzoom": 2, "maxzoom": 8 }, "properties": { "halo": 0.8, "title": "关切人", "fontsize": 12, "tyid": "304001", "oid": "103:1576575162486", "color": "#262626" }, "geometry": { "type": "Point", "coordinates": [ -16.611328, 28.304381 ] } }
{"year": "AD194",  "type": "Feature", "tippecanoe": { "layer": "2AFCA1248DA01583917564498", "minzoom": 2, "maxzoom": 8 }, "properties": { "halo": 0.8, "title": "瓜纳加拉文化", "fontsize": 12, "tyid": "304002", "oid": "103:1576575162402", "color": "#262626" }, "geometry": { "type": "Point", "coordinates": [ -80.595703, -1.669686 ] } }
{"year": "AD194",  "type": "Feature", "tippecanoe": { "layer": "2AFCA1248DA01583917564498", "minzoom": 2, "maxzoom": 8 }, "properties": { "halo": 0.8, "title": "巴伊亚文化", "fontsize": 12, "tyid": "304002", "oid": "103:1576575162589", "color": "#262626" }, "geometry": { "type": "Point", "coordinates": [ -80.068359, -0.527336 ] } }
{"year": "AD194",  "type": "Feature", "tippecanoe": { "layer": "2AFCA1248DA01583917564498", "minzoom": 2, "maxzoom": 8 }, "properties": { "halo": 0.8, "title": "维克斯文化", "fontsize": 12, "tyid": "304002", "oid": "103:1576575162622", "color": "#262626" }, "geometry": { "type": "Point", "coordinates": [ -80.419922, -5.878332 ] } }
{"year": "AD194",  "type": "Feature", "tippecanoe": { "layer": "2AFCA1248DA01583917564498", "minzoom": 2, "maxzoom": 8 }, "properties": { "halo": 0.8, "title": "萨利纳尔文化", "fontsize": 12, "tyid": "304002", "oid": "103:1576575162574", "color": "#262626" }, "geometry": { "type": "Point", "coordinates": [ -78.925781, -7.798079 ] } }
{"year": "AD194",  "type": "Feature", "tippecanoe": { "layer": "2AFCA1248DA01583917564498", "minzoom": 2, "maxzoom": 8 }, "properties": { "halo": 0.8, "title": "莫切文明", "fontsize": 12, "tyid": "304002", "oid": "103:1576575162697", "color": "#262626" }, "geometry": { "type": "Point", "coordinates": [ -79.013672, -8.146243 ] } }
{"year": "AD194",  "type": "Feature", "tippecanoe": { "layer": "2AFCA1248DA01583917564498", "minzoom": 2, "maxzoom": 8 }, "properties": { "halo": 0.8, "title": "维鲁文化", "fontsize": 12, "tyid": "304002", "oid": "103:1576575162419", "color": "#262626" }, "geometry": { "type": "Point", "coordinates": [ -78.837891, -8.320212 ] } }
{"year": "AD194",  "type": "Feature", "tippecanoe": { "layer": "2AFCA1248DA01583917564498", "minzoom": 2, "maxzoom": 8 }, "properties": { "halo": 0.8, "title": "瑞克文化", "fontsize": 12, "tyid": "304002", "oid": "103:1576575162763", "color": "#262626" }, "geometry": { "type": "Point", "coordinates": [ -77.607422, -9.622414 ] } }
{"year": "AD194",  "type": "Feature", "tippecanoe": { "layer": "2AFCA1248DA01583917564498", "minzoom": 2, "maxzoom": 8 }, "properties": { "halo": 0.8, "title": "加伊纳索文化", "fontsize": 12, "tyid": "304002", "oid": "103:1576575162437", "color": "#262626" }, "geometry": { "type": "Point", "coordinates": [ -77.080078, -11.092166 ] } }
{"year": "AD194",  "type": "Feature", "tippecanoe": { "layer": "2AFCA1248DA01583917564498", "minzoom": 2, "maxzoom": 8 }, "properties": { "halo": 0.8, "title": "利马文化", "fontsize": 12, "tyid": "304002", "oid": "103:1576575162510", "color": "#262626" }, "geometry": { "type": "Point", "coordinates": [ -76.289062, -12.382928 ] } }
{"year": "AD194",  "type": "Feature", "tippecanoe": { "layer": "2AFCA1248DA01583917564498", "minzoom": 2, "maxzoom": 8 }, "properties": { "halo": 0.8, "title": "华帕文化", "fontsize": 12, "tyid": "304002", "oid": "103:1576575162853", "color": "#262626" }, "geometry": { "type": "Point", "coordinates": [ -74.179688, -13.581921 ] } }
{"year": "AD194",  "type": "Feature", "tippecanoe": { "layer": "2AFCA1248DA01583917564498", "minzoom": 2, "maxzoom": 8 }, "properties": { "halo": 0.8, "title": "纳斯卡文化", "fontsize": 12, "tyid": "304002", "oid": "103:1576575162634", "color": "#262626" }, "geometry": { "type": "Point", "coordinates": [ -75.058594, -14.944785 ] } }
{"year": "AD194",  "type": "Feature", "tippecanoe": { "layer": "2AFCA1248DA01583917564498", "minzoom": 2, "maxzoom": 8 }, "properties": { "halo": 0.8, "title": "普加拉文化", "fontsize": 12, "tyid": "304002", "oid": "103:1576575162577", "color": "#262626" }, "geometry": { "type": "Point", "coordinates": [ -69.697266, -13.838080 ] } }
{"year": "AD194",  "type": "Feature", "tippecanoe": { "layer": "2AFCA1248DA01583917564498", "minzoom": 2, "maxzoom": 8 }, "properties": { "halo": 0.8, "title": "塔夫文化", "fontsize": 12, "tyid": "304002", "oid": "103:1576575162578", "color": "#262626" }, "geometry": { "type": "Point", "coordinates": [ -65.654297, -26.980829 ] } }
{"year": "AD194",  "type": "Feature", "tippecanoe": { "layer": "2AFCA1248DA01583917564498", "minzoom": 2, "maxzoom": 8 }, "properties": { "halo": 0.8, "title": "豪什人", "fontsize": 12, "tyid": "304001", "oid": "103:1576575162373", "color": "#262626" }, "geometry": { "type": "Point", "coordinates": [ -65.917969, -54.724620 ] } }
{"year": "AD194",  "type": "Feature", "tippecanoe": { "layer": "2AFCA1248DA01583917564498", "minzoom": 2, "maxzoom": 8 }, "properties": { "halo": 0.8, "title": "哥得兰人", "fontsize": 12, "tyid": "304001", "oid": "103:1576575162438", "color": "#262626" }, "geometry": { "type": "Point", "coordinates": [ 18.457031, 57.515823 ] } }
{"year": "AD194",  "type": "Feature", "tippecanoe": { "layer": "2AFCA1248DA01583917564498", "minzoom": 2, "maxzoom": 8 }, "properties": { "halo": 0.8, "title": "弗里西人", "fontsize": 12, "tyid": "304001", "oid": "103:1576575162880", "color": "#262626" }, "geometry": { "type": "Point", "coordinates": [ 6.679688, 52.643063 ] } }
{"year": "AD194",  "type": "Feature", "tippecanoe": { "layer": "2AFCA1248DA01583917564498", "minzoom": 2, "maxzoom": 8 }, "properties": { "halo": 0.8, "title": "盎格鲁人", "fontsize": 12, "tyid": "304001", "oid": "103:1576575162516", "color": "#262626" }, "geometry": { "type": "Point", "coordinates": [ 9.316406, 54.622978 ] } }
{"year": "AD194",  "type": "Feature", "tippecanoe": { "layer": "2AFCA1248DA01583917564498", "minzoom": 2, "maxzoom": 8 }, "properties": { "halo": 0.8, "title": "萨克森人", "fontsize": 12, "tyid": "304001", "oid": "103:1576575162719", "color": "#262626" }, "geometry": { "type": "Point", "coordinates": [ 10.019531, 54.007769 ] } }
{"year": "AD194",  "type": "Feature", "tippecanoe": { "layer": "2AFCA1248DA01583917564498", "minzoom": 2, "maxzoom": 8 }, "properties": { "halo": 0.8, "title": "查马维人", "fontsize": 12, "tyid": "304001", "oid": "103:1576575162888", "color": "#262626" }, "geometry": { "type": "Point", "coordinates": [ 7.119141, 51.944265 ] } }
{"year": "AD194",  "type": "Feature", "tippecanoe": { "layer": "2AFCA1248DA01583917564498", "minzoom": 2, "maxzoom": 8 }, "properties": { "halo": 0.8, "title": "辛坎布雷人", "fontsize": 12, "tyid": "304001", "oid": "103:1576575162713", "color": "#262626" }, "geometry": { "type": "Point", "coordinates": [ 7.646484, 51.289406 ] } }
{"year": "AD194",  "type": "Feature", "tippecanoe": { "layer": "2AFCA1248DA01583917564498", "minzoom": 2, "maxzoom": 8 }, "properties": { "halo": 0.8, "title": "布鲁克特人", "fontsize": 12, "tyid": "304001", "oid": "103:1576575162892", "color": "#262626" }, "geometry": { "type": "Point", "coordinates": [ 8.437500, 51.998410 ] } }
{"year": "AD194",  "type": "Feature", "tippecanoe": { "layer": "2AFCA1248DA01583917564498", "minzoom": 2, "maxzoom": 8 }, "properties": { "halo": 0.8, "title": "奥耶塞利人", "fontsize": 12, "tyid": "304001", "oid": "103:1576575162432", "color": "#262626" }, "geometry": { "type": "Point", "coordinates": [ 22.500000, 58.447733 ] } }
{"year": "AD194",  "type": "Feature", "tippecanoe": { "layer": "2AFCA1248DA01583917564498", "minzoom": 2, "maxzoom": 8 }, "properties": { "halo": 0.8, "title": "科斯多波克人", "fontsize": 12, "tyid": "304001", "oid": "103:1576575162754", "color": "#262626" }, "geometry": { "type": "Point", "coordinates": [ 27.597656, 48.166085 ] } }
{"year": "AD194",  "type": "Feature", "tippecanoe": { "layer": "2AFCA1248DA01583917564498", "minzoom": 2, "maxzoom": 8 }, "properties": { "halo": 0.8, "title": "奥里维亚", "fontsize": 12, "tyid": "304002", "oid": "103:1576575162457", "color": "#262626" }, "geometry": { "type": "Point", "coordinates": [ 31.816406, 46.679594 ] } }
{"year": "AD194",  "type": "Feature", "tippecanoe": { "layer": "2AFCA1248DA01583917564498", "minzoom": 2, "maxzoom": 8 }, "properties": { "halo": 0.8, "title": "科尔基斯山中诸部", "fontsize": 12, "tyid": "304002", "oid": "103:1576575162753", "color": "#262626" }, "geometry": { "type": "Point", "coordinates": [ 41.132812, 43.133061 ] } }
{"year": "AD194",  "type": "Feature", "tippecanoe": { "layer": "2AFCA1248DA01583917564498", "minzoom": 2, "maxzoom": 8 }, "properties": { "halo": 0.8, "title": "埃米萨王朝", "fontsize": 12, "tyid": "304000", "oid": "103:1576575162939", "color": "#202020" }, "geometry": { "type": "Point", "coordinates": [ 36.650391, 34.741612 ] } }
{"year": "AD194",  "type": "Feature", "tippecanoe": { "layer": "2AFCA1248DA01583917564498", "minzoom": 2, "maxzoom": 8 }, "properties": { "halo": 0.8, "title": "阿拉巴王国", "fontsize": 12, "tyid": "304000", "oid": "103:1576575162942", "color": "#202020" }, "geometry": { "type": "Point", "coordinates": [ 42.363281, 35.532226 ] } }
{"year": "AD194",  "type": "Feature", "tippecanoe": { "layer": "2AFCA1248DA01583917564498", "minzoom": 2, "maxzoom": 8 }, "properties": { "halo": 0.8, "title": "列兹金人", "fontsize": 12, "tyid": "304001", "oid": "103:1576575162700", "color": "#262626" }, "geometry": { "type": "Point", "coordinates": [ 47.812500, 41.640078 ] } }
{"year": "AD194",  "type": "Feature", "tippecanoe": { "layer": "2AFCA1248DA01583917564498", "minzoom": 2, "maxzoom": 8 }, "properties": { "halo": 0.8, "title": "西且弥国", "fontsize": 12, "tyid": "304000", "oid": "103:1576575162863", "color": "#202020" }, "geometry": { "type": "Point", "coordinates": [ 86.220703, 43.834527 ] } }
{"year": "AD194",  "type": "Feature", "tippecanoe": { "layer": "2AFCA1248DA01583917564498", "minzoom": 2, "maxzoom": 8 }, "properties": { "halo": 0.8, "title": "东且弥国", "fontsize": 12, "tyid": "304000", "oid": "103:1576575162866", "color": "#202020" }, "geometry": { "type": "Point", "coordinates": [ 86.923828, 43.707594 ] } }
{"year": "AD194",  "type": "Feature", "tippecanoe": { "layer": "2AFCA1248DA01583917564498", "minzoom": 2, "maxzoom": 8 }, "properties": { "halo": 0.8, "title": "劫国", "fontsize": 12, "tyid": "304000", "oid": "103:1576575162834", "color": "#202020" }, "geometry": { "type": "Point", "coordinates": [ 87.802734, 44.150681 ] } }
{"year": "AD194",  "type": "Feature", "tippecanoe": { "layer": "2AFCA1248DA01583917564498", "minzoom": 2, "maxzoom": 8 }, "properties": { "halo": 0.8, "title": "卑陆国", "fontsize": 12, "tyid": "304000", "oid": "103:1576575162424", "color": "#202020" }, "geometry": { "type": "Point", "coordinates": [ 87.539062, 43.644026 ] } }
{"year": "AD194",  "type": "Feature", "tippecanoe": { "layer": "2AFCA1248DA01583917564498", "minzoom": 2, "maxzoom": 8 }, "properties": { "halo": 0.8, "title": "卡塔班王国", "fontsize": 12, "tyid": "304000", "oid": "103:1576575162790", "color": "#202020" }, "geometry": { "type": "Point", "coordinates": [ 45.791016, 14.774883 ] } }
{"year": "AD194",  "type": "Feature", "tippecanoe": { "layer": "2AFCA1248DA01583917564498", "minzoom": 2, "maxzoom": 8 }, "properties": { "halo": 0.8, "title": "蒲犁国", "fontsize": 12, "tyid": "304000", "oid": "103:1576575162838", "color": "#202020" }, "geometry": { "type": "Point", "coordinates": [ 75.234375, 37.996163 ] } }
{"year": "AD194",  "type": "Feature", "tippecanoe": { "layer": "2AFCA1248DA01583917564498", "minzoom": 2, "maxzoom": 8 }, "properties": { "halo": 0.8, "title": "依耐国", "fontsize": 12, "tyid": "304000", "oid": "103:1576575162841", "color": "#202020" }, "geometry": { "type": "Point", "coordinates": [ 75.937500, 38.616870 ] } }
{"year": "AD194",  "type": "Feature", "tippecanoe": { "layer": "2AFCA1248DA01583917564498", "minzoom": 2, "maxzoom": 8 }, "properties": { "halo": 0.8, "title": "子合国", "fontsize": 12, "tyid": "304000", "oid": "103:1576575162840", "color": "#202020" }, "geometry": { "type": "Point", "coordinates": [ 76.376953, 37.718590 ] } }
{"year": "AD194",  "type": "Feature", "tippecanoe": { "layer": "2AFCA1248DA01583917564498", "minzoom": 2, "maxzoom": 8 }, "properties": { "halo": 0.8, "title": "戎卢国", "fontsize": 12, "tyid": "304000", "oid": "103:1576575162401", "color": "#202020" }, "geometry": { "type": "Point", "coordinates": [ 83.144531, 36.668419 ] } }
{"year": "AD194",  "type": "Feature", "tippecanoe": { "layer": "2AFCA1248DA01583917564498", "minzoom": 2, "maxzoom": 8 }, "properties": { "halo": 0.8, "title": "罗昂", "fontsize": 12, "tyid": "304000", "oid": "103:1576575162536", "color": "#202020" }, "geometry": { "type": "Point", "coordinates": [ 89.208984, 29.152161 ] } }
{"year": "AD194",  "type": "Feature", "tippecanoe": { "layer": "2AFCA1248DA01583917564498", "minzoom": 2, "maxzoom": 8 }, "properties": { "halo": 0.8, "title": "藏", "fontsize": 12, "tyid": "304000", "oid": "103:1576575162472", "color": "#202020" }, "geometry": { "type": "Point", "coordinates": [ 89.736328, 28.844674 ] } }
{"year": "AD194",  "type": "Feature", "tippecanoe": { "layer": "2AFCA1248DA01583917564498", "minzoom": 2, "maxzoom": 8 }, "properties": { "halo": 0.8, "title": "卓木南木松", "fontsize": 12, "tyid": "304000", "oid": "103:1576575162525", "color": "#202020" }, "geometry": { "type": "Point", "coordinates": [ 88.945312, 27.839076 ] } }
{"year": "AD194",  "type": "Feature", "tippecanoe": { "layer": "2AFCA1248DA01583917564498", "minzoom": 2, "maxzoom": 8 }, "properties": { "halo": 0.8, "title": "牟湿迦王国", "fontsize": 12, "tyid": "304000", "oid": "103:1576575162531", "color": "#202020" }, "geometry": { "type": "Point", "coordinates": [ 75.322266, 12.640338 ] } }
{"year": "AD194",  "type": "Feature", "tippecanoe": { "layer": "2AFCA1248DA01583917564498", "minzoom": 2, "maxzoom": 8 }, "properties": { "halo": 0.8, "title": "阿伊王国", "fontsize": 12, "tyid": "304000", "oid": "103:1576575162902", "color": "#202020" }, "geometry": { "type": "Point", "coordinates": [ 77.080078, 8.667918 ] } }
{"year": "AD194",  "type": "Feature", "tippecanoe": { "layer": "2AFCA1248DA01583917564498", "minzoom": 2, "maxzoom": 8 }, "properties": { "halo": 0.8, "title": "吉", "fontsize": 12, "tyid": "304000", "oid": "103:1576575162427", "color": "#202020" }, "geometry": { "type": "Point", "coordinates": [ 91.406250, 29.764377 ] } }
{"year": "AD194",  "type": "Feature", "tippecanoe": { "layer": "2AFCA1248DA01583917564498", "minzoom": 2, "maxzoom": 8 }, "properties": { "halo": 0.8, "title": "琛", "fontsize": 12, "tyid": "304000", "oid": "103:1576575162354", "color": "#202020" }, "geometry": { "type": "Point", "coordinates": [ 91.230469, 29.382175 ] } }
{"year": "AD194",  "type": "Feature", "tippecanoe": { "layer": "2AFCA1248DA01583917564498", "minzoom": 2, "maxzoom": 8 }, "properties": { "halo": 0.8, "title": "悉补野", "fontsize": 12, "tyid": "304000", "oid": "103:1576575162778", "color": "#202020" }, "geometry": { "type": "Point", "coordinates": [ 91.845703, 29.152161 ] } }
{"year": "AD194",  "type": "Feature", "tippecanoe": { "layer": "2AFCA1248DA01583917564498", "minzoom": 2, "maxzoom": 8 }, "properties": { "halo": 0.8, "title": "俄玉邦噶", "fontsize": 12, "tyid": "304000", "oid": "103:1576575162530", "color": "#202020" }, "geometry": { "type": "Point", "coordinates": [ 92.548828, 29.152161 ] } }
{"year": "AD194",  "type": "Feature", "tippecanoe": { "layer": "2AFCA1248DA01583917564498", "minzoom": 2, "maxzoom": 8 }, "properties": { "halo": 0.8, "title": "娘", "fontsize": 12, "tyid": "304000", "oid": "103:1576575162447", "color": "#202020" }, "geometry": { "type": "Point", "coordinates": [ 93.339844, 29.916852 ] } }
{"year": "AD194",  "type": "Feature", "tippecanoe": { "layer": "2AFCA1248DA01583917564498", "minzoom": 2, "maxzoom": 8 }, "properties": { "halo": 0.8, "title": "贡", "fontsize": 12, "tyid": "304000", "oid": "103:1576575162684", "color": "#202020" }, "geometry": { "type": "Point", "coordinates": [ 94.482422, 29.688053 ] } }
{"year": "AD194",  "type": "Feature", "tippecanoe": { "layer": "2AFCA1248DA01583917564498", "minzoom": 2, "maxzoom": 8 }, "properties": { "halo": 0.8, "title": "达", "fontsize": 12, "tyid": "304000", "oid": "103:1576575162422", "color": "#202020" }, "geometry": { "type": "Point", "coordinates": [ 93.603516, 29.152161 ] } }
{"year": "AD194",  "type": "Feature", "tippecanoe": { "layer": "2AFCA1248DA01583917564498", "minzoom": 2, "maxzoom": 8 }, "properties": { "halo": 0.8, "title": "宋建", "fontsize": 12, "tyid": "304002", "oid": "103:1576575162890", "color": "#262626" }, "geometry": { "type": "Point", "coordinates": [ 102.919922, 35.532226 ] } }
{"year": "AD194",  "type": "Feature", "tippecanoe": { "layer": "2AFCA1248DA01583917564498", "minzoom": 2, "maxzoom": 8 }, "properties": { "halo": 0.8, "title": "王邑", "fontsize": 12, "tyid": "304002", "oid": "103:1576575162560", "color": "#262626" }, "geometry": { "type": "Point", "coordinates": [ 111.093750, 35.101934 ] } }
{"year": "AD194",  "type": "Feature", "tippecanoe": { "layer": "2AFCA1248DA01583917564498", "minzoom": 2, "maxzoom": 8 }, "properties": { "halo": 0.8, "title": "狼牙脩国", "fontsize": 12, "tyid": "304000", "oid": "103:1576575162502", "color": "#202020" }, "geometry": { "type": "Point", "coordinates": [ 100.810547, 6.140555 ] } }
{"year": "AD194",  "type": "Feature", "tippecanoe": { "layer": "2AFCA1248DA01583917564498", "minzoom": 2, "maxzoom": 8 }, "properties": { "halo": 0.8, "title": "刚迦王国", "fontsize": 12, "tyid": "304000", "oid": "103:1576575162679", "color": "#202020" }, "geometry": { "type": "Point", "coordinates": [ 101.074219, 4.828260 ] } }
{"year": "AD194",  "type": "Feature", "tippecanoe": { "layer": "2AFCA1248DA01583917564498", "minzoom": 2, "maxzoom": 8 }, "properties": { "halo": 0.8, "title": "石坛文化", "fontsize": 12, "tyid": "304002", "oid": "103:1576575162523", "color": "#262626" }, "geometry": { "type": "Point", "coordinates": [ 103.359375, 19.559790 ] } }
{"year": "AD194",  "type": "Feature", "tippecanoe": { "layer": "2AFCA1248DA01583917564498", "minzoom": 2, "maxzoom": 8 }, "properties": { "halo": 0.8, "title": "张燕", "fontsize": 12, "tyid": "304002", "oid": "103:1576575162677", "color": "#262626" }, "geometry": { "type": "Point", "coordinates": [ 113.994141, 38.754083 ] } }
{"year": "AD194",  "type": "Feature", "tippecanoe": { "layer": "2AFCA1248DA01583917564498", "minzoom": 2, "maxzoom": 8 }, "properties": { "halo": 0.8, "title": "张杨", "fontsize": 12, "tyid": "304002", "oid": "103:1576575162784", "color": "#262626" }, "geometry": { "type": "Point", "coordinates": [ 113.818359, 35.746512 ] } }
{"year": "AD194",  "type": "Feature", "tippecanoe": { "layer": "2AFCA1248DA01583917564498", "minzoom": 2, "maxzoom": 8 }, "properties": { "halo": 0.8, "title": "臧洪", "fontsize": 12, "tyid": "304002", "oid": "103:1576575162521", "color": "#262626" }, "geometry": { "type": "Point", "coordinates": [ 115.576172, 36.315125 ] } }
{"year": "AD194",  "type": "Feature", "tippecanoe": { "layer": "2AFCA1248DA01583917564498", "minzoom": 2, "maxzoom": 8 }, "properties": { "halo": 0.8, "title": "臧霸", "fontsize": 12, "tyid": "304002", "oid": "103:1576575162553", "color": "#262626" }, "geometry": { "type": "Point", "coordinates": [ 117.773438, 35.817813 ] } }
{"year": "AD194",  "type": "Feature", "tippecanoe": { "layer": "2AFCA1248DA01583917564498", "minzoom": 2, "maxzoom": 8 }, "properties": { "halo": 0.8, "title": "萧建", "fontsize": 12, "tyid": "304002", "oid": "103:1576575162788", "color": "#262626" }, "geometry": { "type": "Point", "coordinates": [ 118.916016, 35.746512 ] } }
{"year": "AD194",  "type": "Feature", "tippecanoe": { "layer": "2AFCA1248DA01583917564498", "minzoom": 2, "maxzoom": 8 }, "properties": { "halo": 0.8, "title": "刘备", "fontsize": 12, "tyid": "304002", "oid": "103:1576575162537", "color": "#262626" }, "geometry": { "type": "Point", "coordinates": [ 119.443359, 34.016242 ] } }
{"year": "AD194",  "type": "Feature", "tippecanoe": { "layer": "2AFCA1248DA01583917564498", "minzoom": 2, "maxzoom": 8 }, "properties": { "halo": 0.8, "title": "番仔园文化", "fontsize": 12, "tyid": "304002", "oid": "103:1576575162925", "color": "#262626" }, "geometry": { "type": "Point", "coordinates": [ 120.673828, 24.287027 ] } }
{"year": "AD194",  "type": "Feature", "tippecanoe": { "layer": "2AFCA1248DA01583917564498", "minzoom": 2, "maxzoom": 8 }, "properties": { "halo": 0.8, "title": "茑松文化", "fontsize": 12, "tyid": "304002", "oid": "103:1576575162924", "color": "#262626" }, "geometry": { "type": "Point", "coordinates": [ 120.322266, 23.079732 ] } }
{"year": "AD194",  "type": "Feature", "tippecanoe": { "layer": "2AFCA1248DA01583917564498", "minzoom": 2, "maxzoom": 8 }, "properties": { "halo": 0.8, "title": "龟山文化", "fontsize": 12, "tyid": "304002", "oid": "103:1576575162555", "color": "#262626" }, "geometry": { "type": "Point", "coordinates": [ 120.673828, 22.512557 ] } }
{"year": "AD194",  "type": "Feature", "tippecanoe": { "layer": "2AFCA1248DA01583917564498", "minzoom": 2, "maxzoom": 8 }, "properties": { "halo": 0.8, "title": "十三行文化", "fontsize": 12, "tyid": "304002", "oid": "103:1576575162558", "color": "#262626" }, "geometry": { "type": "Point", "coordinates": [ 121.376953, 24.846565 ] } }
{"year": "AD194",  "type": "Feature", "tippecanoe": { "layer": "2AFCA1248DA01583917564498", "minzoom": 2, "maxzoom": 8 }, "properties": { "halo": 0.8, "title": "静浦文化", "fontsize": 12, "tyid": "304002", "oid": "103:1576575162556", "color": "#262626" }, "geometry": { "type": "Point", "coordinates": [ 121.025391, 22.917923 ] } }
{"year": "AD194",  "type": "Feature", "tippecanoe": { "layer": "2AFCA1248DA01583917564498", "minzoom": 2, "maxzoom": 8 }, "properties": { "halo": 0.8, "title": "百济", "fontsize": 12, "tyid": "304000", "oid": "103:1576575162762", "color": "#202020" }, "geometry": { "type": "Point", "coordinates": [ 127.089844, 37.300275 ] } }
{"year": "AD194",  "type": "Feature", "tippecanoe": { "layer": "2AFCA1248DA01583917564498", "minzoom": 2, "maxzoom": 8 }, "properties": { "halo": 0.8, "title": "耽罗国", "fontsize": 12, "tyid": "304000", "oid": "103:1576575162535", "color": "#202020" }, "geometry": { "type": "Point", "coordinates": [ 126.474609, 33.431441 ] } }
{"year": "AD194",  "type": "Feature", "tippecanoe": { "layer": "2AFCA1248DA01583917564498", "minzoom": 2, "maxzoom": 8 }, "properties": { "halo": 0.8, "title": "弁韩", "fontsize": 12, "tyid": "304001", "oid": "103:1576575162801", "color": "#262626" }, "geometry": { "type": "Point", "coordinates": [ 127.968750, 35.317366 ] } }
{"year": "AD194",  "type": "Feature", "tippecanoe": { "layer": "2AFCA1248DA01583917564498", "minzoom": 2, "maxzoom": 8 }, "properties": { "halo": 0.8, "title": "伽倻", "fontsize": 12, "tyid": "304000", "oid": "103:1576575162433", "color": "#202020" }, "geometry": { "type": "Point", "coordinates": [ 128.847656, 35.245619 ] } }
{"year": "AD194",  "type": "Feature", "tippecanoe": { "layer": "2AFCA1248DA01583917564498", "minzoom": 2, "maxzoom": 8 }, "properties": { "halo": 0.8, "title": "对马国", "fontsize": 12, "tyid": "304000", "oid": "103:1576575162773", "color": "#202020" }, "geometry": { "type": "Point", "coordinates": [ 129.287109, 34.524661 ] } }
{"year": "AD194",  "type": "Feature", "tippecanoe": { "layer": "2AFCA1248DA01583917564498", "minzoom": 2, "maxzoom": 8 }, "properties": { "halo": 0.8, "title": "一支国", "fontsize": 12, "tyid": "304000", "oid": "103:1576575162420", "color": "#202020" }, "geometry": { "type": "Point", "coordinates": [ 129.638672, 33.797409 ] } }
{"year": "AD194",  "type": "Feature", "tippecanoe": { "layer": "2AFCA1248DA01583917564498", "minzoom": 2, "maxzoom": 8 }, "properties": { "halo": 0.8, "title": "末卢国", "fontsize": 12, "tyid": "304000", "oid": "103:1576575162515", "color": "#202020" }, "geometry": { "type": "Point", "coordinates": [ 129.902344, 33.431441 ] } }
{"year": "AD194",  "type": "Feature", "tippecanoe": { "layer": "2AFCA1248DA01583917564498", "minzoom": 2, "maxzoom": 8 }, "properties": { "halo": 0.8, "title": "伊都国", "fontsize": 12, "tyid": "304000", "oid": "103:1576575162444", "color": "#202020" }, "geometry": { "type": "Point", "coordinates": [ 130.166016, 33.578015 ] } }
{"year": "AD194",  "type": "Feature", "tippecanoe": { "layer": "2AFCA1248DA01583917564498", "minzoom": 2, "maxzoom": 8 }, "properties": { "halo": 0.8, "title": "奴国", "fontsize": 12, "tyid": "304000", "oid": "103:1576575162900", "color": "#202020" }, "geometry": { "type": "Point", "coordinates": [ 130.605469, 33.724340 ] } }
{"year": "AD194",  "type": "Feature", "tippecanoe": { "layer": "2AFCA1248DA01583917564498", "minzoom": 2, "maxzoom": 8 }, "properties": { "halo": 0.8, "title": "不弥国", "fontsize": 12, "tyid": "304000", "oid": "103:1576575162769", "color": "#202020" }, "geometry": { "type": "Point", "coordinates": [ 130.957031, 33.651208 ] } }
{"year": "AD194",  "type": "Feature", "tippecanoe": { "layer": "2AFCA1248DA01583917564498", "minzoom": 2, "maxzoom": 8 }, "properties": { "halo": 0.8, "title": "邪马台国", "fontsize": 12, "tyid": "304000", "oid": "103:1576575162407", "color": "#202020" }, "geometry": { "type": "Point", "coordinates": [ 130.869141, 33.137551 ] } }
{"year": "AD194",  "type": "Feature", "tippecanoe": { "layer": "2AFCA1248DA01583917564498", "minzoom": 2, "maxzoom": 8 }, "properties": { "halo": 0.8, "title": "投马国", "fontsize": 12, "tyid": "304000", "oid": "103:1576575162912", "color": "#202020" }, "geometry": { "type": "Point", "coordinates": [ 131.220703, 32.249974 ] } }
{"year": "AD194",  "type": "Feature", "tippecanoe": { "layer": "2AFCA1248DA01583917564498", "minzoom": 2, "maxzoom": 8 }, "properties": { "halo": 0.8, "title": "狗奴国", "fontsize": 12, "tyid": "304000", "oid": "103:1576575162529", "color": "#202020" }, "geometry": { "type": "Point", "coordinates": [ 130.605469, 31.952162 ] } }
{"year": "AD194",  "type": "Feature", "tippecanoe": { "layer": "2AFCA1248DA01583917564498", "minzoom": 2, "maxzoom": 8 }, "properties": { "halo": 0.8, "title": "尼格利陀人", "fontsize": 12, "tyid": "304001", "oid": "103:1576575162789", "color": "#262626" }, "geometry": { "type": "Point", "coordinates": [ 122.431641, 11.264612 ] } }
{"year": "AD194",  "type": "Feature", "tippecanoe": { "layer": "2AFCA1248DA01583917564498", "minzoom": 2, "maxzoom": 8 }, "properties": { "halo": 0.8, "title": "托雷斯海峡岛民", "fontsize": 12, "tyid": "304001", "oid": "103:1576575162506", "color": "#262626" }, "geometry": { "type": "Point", "coordinates": [ 142.382812, -11.264612 ] } }
{"year": "AD194",  "type": "Feature", "tippecanoe": { "layer": "2AFCA91B10F01583917564519", "minzoom": 2, "maxzoom": 8 }, "properties": { "halo": 0.2, "title": "陶俑陶品窑址", "fontsize": 12, "offset": "[0,2]", "icon": "door", "oid": "103:1537436004264", "color": "#A44900", "tyid": "306002" }, "geometry": { "type": "Point", "coordinates": [ 108.808594, 34.379713 ] } }
{"year": "AD194",  "type": "Feature", "tippecanoe": { "layer": "2AFCA91B10F01583917564519", "minzoom": 2, "maxzoom": 8 }, "properties": { "halo": 0.2, "title": "冶铸遗址", "fontsize": 12, "offset": "[0,2]", "icon": "door", "oid": "103:1537436004266", "color": "#A44900", "tyid": "306002" }, "geometry": { "type": "Point", "coordinates": [ 108.808594, 34.379713 ] } }
{"year": "AD194",  "type": "Feature", "tippecanoe": { "layer": "2AFCA91B10F01583917564519", "minzoom": 2, "maxzoom": 8 }, "properties": { "halo": 0.2, "title": "雍门", "fontsize": 12, "offset": "[0,2]", "icon": "door", "oid": "103:1537436004260", "color": "#A44900", "tyid": "306000" }, "geometry": { "type": "Point", "coordinates": [ 108.808594, 34.379713 ] } }
{"year": "AD194",  "type": "Feature", "tippecanoe": { "layer": "2AFCA91B10F01583917564519", "minzoom": 2, "maxzoom": 8 }, "properties": { "halo": 0.2, "title": "直城门", "fontsize": 12, "offset": "[0,2]", "icon": "door", "oid": "103:1537436004259", "color": "#A44900", "tyid": "306000" }, "geometry": { "type": "Point", "coordinates": [ 108.808594, 34.379713 ] } }
{"year": "AD194",  "type": "Feature", "tippecanoe": { "layer": "2AFCA91B10F01583917564519", "minzoom": 2, "maxzoom": 8 }, "properties": { "halo": 0.2, "title": "南宫门（龙楼门）", "fontsize": 12, "offset": "[0,2]", "icon": "door", "oid": "103:1537436004271", "color": "#A44900", "tyid": "306001" }, "geometry": { "type": "Point", "coordinates": [ 108.808594, 34.379713 ] } }
{"year": "AD194",  "type": "Feature", "tippecanoe": { "layer": "2AFCA91B10F01583917564519", "minzoom": 2, "maxzoom": 8 }, "properties": { "halo": 0.2, "title": "作室门", "fontsize": 12, "offset": "[0,2]", "icon": "door", "oid": "103:1537436004273", "color": "#A44900", "tyid": "306001" }, "geometry": { "type": "Point", "coordinates": [ 108.808594, 34.379713 ] } }
{"year": "AD194",  "type": "Feature", "tippecanoe": { "layer": "2AFCA91B10F01583917564519", "minzoom": 2, "maxzoom": 8 }, "properties": { "halo": 0.2, "title": "厨城门", "fontsize": 12, "offset": "[0,2]", "icon": "door", "oid": "103:1537436004242", "color": "#A44900", "tyid": "306000" }, "geometry": { "type": "Point", "coordinates": [ 108.808594, 34.379713 ] } }
{"year": "AD194",  "type": "Feature", "tippecanoe": { "layer": "2AFCA91B10F01583917564519", "minzoom": 2, "maxzoom": 8 }, "properties": { "halo": 0.2, "title": "洛城门", "fontsize": 12, "offset": "[0,2]", "icon": "door", "oid": "103:1537436004244", "color": "#A44900", "tyid": "306000" }, "geometry": { "type": "Point", "coordinates": [ 108.808594, 34.379713 ] } }
{"year": "AD194",  "type": "Feature", "tippecanoe": { "layer": "2AFCA91B10F01583917564519", "minzoom": 2, "maxzoom": 8 }, "properties": { "halo": 0.2, "title": "横门", "fontsize": 12, "offset": "[0,2]", "icon": "door", "oid": "103:1537436004240", "color": "#A44900", "tyid": "306000" }, "geometry": { "type": "Point", "coordinates": [ 108.808594, 34.379713 ] } }
{"year": "AD194",  "type": "Feature", "tippecanoe": { "layer": "2AFCA91B10F01583917564519", "minzoom": 2, "maxzoom": 8 }, "properties": { "halo": 0.2, "title": "陶俑窑址", "fontsize": 12, "offset": "[0,2]", "icon": "door", "oid": "103:1537436004268", "color": "#A44900", "tyid": "306002" }, "geometry": { "type": "Point", "coordinates": [ 108.808594, 34.379713 ] } }
{"year": "AD194",  "type": "Feature", "tippecanoe": { "layer": "2AFCA91B10F01583917564519", "minzoom": 2, "maxzoom": 8 }, "properties": { "halo": 0.2, "title": "铸币遗址", "fontsize": 12, "offset": "[0,2]", "icon": "door", "oid": "103:1537436004269", "color": "#A44900", "tyid": "306002" }, "geometry": { "type": "Point", "coordinates": [ 108.808594, 34.379713 ] } }
{"year": "AD194",  "type": "Feature", "tippecanoe": { "layer": "2AFCA91B10F01583917564519", "minzoom": 2, "maxzoom": 8 }, "properties": { "halo": 0.2, "title": "北宫门", "fontsize": 12, "offset": "[0,2]", "icon": "door", "oid": "103:1537436004275", "color": "#A44900", "tyid": "306001" }, "geometry": { "type": "Point", "coordinates": [ 108.808594, 34.379713 ] } }
{"year": "AD194",  "type": "Feature", "tippecanoe": { "layer": "2AFCA91B10F01583917564519", "minzoom": 2, "maxzoom": 8 }, "properties": { "halo": 0.2, "title": "官窑", "fontsize": 12, "offset": "[0,2]", "icon": "door", "oid": "103:1537436004262", "color": "#A44900", "tyid": "306002" }, "geometry": { "type": "Point", "coordinates": [ 108.808594, 34.379713 ] } }
{"year": "AD194",  "type": "Feature", "tippecanoe": { "layer": "2AFCA91B10F01583917564519", "minzoom": 2, "maxzoom": 8 }, "properties": { "halo": 0.2, "title": "宣平门", "fontsize": 12, "offset": "[0,2]", "icon": "door", "oid": "103:1537436004246", "color": "#A44900", "tyid": "306000" }, "geometry": { "type": "Point", "coordinates": [ 108.896484, 34.379713 ] } }
{"year": "AD194",  "type": "Feature", "tippecanoe": { "layer": "2AFCA91B10F01583917564519", "minzoom": 2, "maxzoom": 8 }, "properties": { "halo": 0.2, "title": "清明门", "fontsize": 12, "offset": "[0,2]", "icon": "door", "oid": "103:1537436004248", "color": "#A44900", "tyid": "306000" }, "geometry": { "type": "Point", "coordinates": [ 108.896484, 34.379713 ] } }
{"year": "AD194",  "type": "Feature", "tippecanoe": { "layer": "2AFCA91B10F01583917564519", "minzoom": 2, "maxzoom": 8 }, "properties": { "halo": 0.2, "title": "霸城门", "fontsize": 12, "offset": "[0,2]", "icon": "door", "oid": "103:1537436004249", "color": "#A44900", "tyid": "306000" }, "geometry": { "type": "Point", "coordinates": [ 108.896484, 34.379713 ] } }
{"year": "AD194",  "type": "Feature", "tippecanoe": { "layer": "2AFCA91B10F01583917564519", "minzoom": 2, "maxzoom": 8 }, "properties": { "halo": 0.2, "title": "西宫门", "fontsize": 12, "offset": "[0,2]", "icon": "door", "oid": "103:1537436004279", "color": "#A44900", "tyid": "306001" }, "geometry": { "type": "Point", "coordinates": [ 108.808594, 34.307144 ] } }
{"year": "AD194",  "type": "Feature", "tippecanoe": { "layer": "2AFCA91B10F01583917564519", "minzoom": 2, "maxzoom": 8 }, "properties": { "halo": 0.2, "title": "章城门", "fontsize": 12, "offset": "[0,2]", "icon": "door", "oid": "103:1537436004257", "color": "#A44900", "tyid": "306000" }, "geometry": { "type": "Point", "coordinates": [ 108.808594, 34.307144 ] } }
{"year": "AD194",  "type": "Feature", "tippecanoe": { "layer": "2AFCA91B10F01583917564519", "minzoom": 2, "maxzoom": 8 }, "properties": { "halo": 0.2, "title": "南宫门", "fontsize": 12, "offset": "[0,2]", "icon": "door", "oid": "103:1537436004280", "color": "#A44900", "tyid": "306001" }, "geometry": { "type": "Point", "coordinates": [ 108.808594, 34.307144 ] } }
{"year": "AD194",  "type": "Feature", "tippecanoe": { "layer": "2AFCA91B10F01583917564519", "minzoom": 2, "maxzoom": 8 }, "properties": { "halo": 0.2, "title": "西安门", "fontsize": 12, "offset": "[0,2]", "icon": "door", "oid": "103:1537436004255", "color": "#A44900", "tyid": "306000" }, "geometry": { "type": "Point", "coordinates": [ 108.808594, 34.307144 ] } }
{"year": "AD194",  "type": "Feature", "tippecanoe": { "layer": "2AFCA91B10F01583917564519", "minzoom": 2, "maxzoom": 8 }, "properties": { "halo": 0.2, "title": "东宫门", "fontsize": 12, "offset": "[0,2]", "icon": "door", "oid": "103:1537436004277", "color": "#A44900", "tyid": "306001" }, "geometry": { "type": "Point", "coordinates": [ 108.808594, 34.307144 ] } }
{"year": "AD194",  "type": "Feature", "tippecanoe": { "layer": "2AFCA91B10F01583917564519", "minzoom": 2, "maxzoom": 8 }, "properties": { "halo": 0.2, "title": "安门", "fontsize": 12, "offset": "[0,2]", "icon": "door", "oid": "103:1537436004253", "color": "#A44900", "tyid": "306000" }, "geometry": { "type": "Point", "coordinates": [ 108.808594, 34.307144 ] } }
{"year": "AD194",  "type": "Feature", "tippecanoe": { "layer": "2AFCA91B10F01583917564519", "minzoom": 2, "maxzoom": 8 }, "properties": { "halo": 0.2, "title": "复盎门", "fontsize": 12, "offset": "[0,2]", "icon": "door", "oid": "103:1537436004251", "color": "#A44900", "tyid": "306000" }, "geometry": { "type": "Point", "coordinates": [ 108.896484, 34.307144 ] } }
{"year": "AD194",  "type": "Feature", "tippecanoe": { "layer": "2AFCA91B12B01583917564521", "minzoom": 2, "maxzoom": 8 }, "properties": { "halo": 1.6, "title": "图勒人", "fontsize": 12, "tyid": "304001", "oid": "103:1576575162918", "color": "#0056E7" }, "geometry": { "type": "Point", "coordinates": [ -130.781250, 68.942607 ] } }
{"year": "AD194",  "type": "Feature", "tippecanoe": { "layer": "2AFCA91B12B01583917564521", "minzoom": 2, "maxzoom": 8 }, "properties": { "halo": 1.6, "title": "诺顿文化", "fontsize": 12, "tyid": "304002", "oid": "103:1576575162494", "color": "#0056E7" }, "geometry": { "type": "Point", "coordinates": [ -163.740234, 65.330178 ] } }
{"year": "AD194",  "type": "Feature", "tippecanoe": { "layer": "2AFCA91B12B01583917564521", "minzoom": 2, "maxzoom": 8 }, "properties": { "halo": 1.6, "title": "尤皮克人", "fontsize": 12, "tyid": "304001", "oid": "103:1576575162548", "color": "#0056E7" }, "geometry": { "type": "Point", "coordinates": [ -159.169922, 60.630102 ] } }
{"year": "AD194",  "type": "Feature", "tippecanoe": { "layer": "2AFCA91B12B01583917564521", "minzoom": 2, "maxzoom": 8 }, "properties": { "halo": 1.6, "title": "因纽皮雅特人", "fontsize": 12, "tyid": "304001", "oid": "103:1576575162511", "color": "#0056E7" }, "geometry": { "type": "Point", "coordinates": [ -150.908203, 65.476508 ] } }
{"year": "AD194",  "type": "Feature", "tippecanoe": { "layer": "2AFCA91B12B01583917564521", "minzoom": 2, "maxzoom": 8 }, "properties": { "halo": 1.6, "title": "阿留申人", "fontsize": 12, "tyid": "304001", "oid": "103:1576575162520", "color": "#0056E7" }, "geometry": { "type": "Point", "coordinates": [ -152.226562, 61.312452 ] } }
{"year": "AD194",  "type": "Feature", "tippecanoe": { "layer": "2AFCA91B12B01583917564521", "minzoom": 2, "maxzoom": 8 }, "properties": { "halo": 1.6, "title": "因纽特人", "fontsize": 12, "tyid": "304001", "oid": "103:1576575162569", "color": "#0056E7" }, "geometry": { "type": "Point", "coordinates": [ -100.195312, 65.802776 ] } }
{"year": "AD194",  "type": "Feature", "tippecanoe": { "layer": "2AFCA91B12B01583917564521", "minzoom": 2, "maxzoom": 8 }, "properties": { "halo": 1.6, "title": "泰萨勒页岩文化", "fontsize": 12, "tyid": "304002", "oid": "103:1576575162572", "color": "#0056E7" }, "geometry": { "type": "Point", "coordinates": [ -99.316406, 56.800878 ] } }
{"year": "AD194",  "type": "Feature", "tippecanoe": { "layer": "2AFCA91B12B01583917564521", "minzoom": 2, "maxzoom": 8 }, "properties": { "halo": 1.6, "title": "坎贝尔文化", "fontsize": 12, "tyid": "304002", "oid": "103:1576575162394", "color": "#0056E7" }, "geometry": { "type": "Point", "coordinates": [ -121.289062, 38.685510 ] } }
{"year": "AD194",  "type": "Feature", "tippecanoe": { "layer": "2AFCA91B12B01583917564521", "minzoom": 2, "maxzoom": 8 }, "properties": { "halo": 1.6, "title": "圣迪基图文化", "fontsize": 12, "tyid": "304002", "oid": "103:1576575162604", "color": "#0056E7" }, "geometry": { "type": "Point", "coordinates": [ -115.224609, 33.211116 ] } }
{"year": "AD194",  "type": "Feature", "tippecanoe": { "layer": "2AFCA91B12B01583917564521", "minzoom": 2, "maxzoom": 8 }, "properties": { "halo": 1.6, "title": "多赛特文化", "fontsize": 12, "tyid": "304002", "oid": "103:1576575162612", "color": "#0056E7" }, "geometry": { "type": "Point", "coordinates": [ -69.960938, 67.875541 ] } }
{"year": "AD194",  "type": "Feature", "tippecanoe": { "layer": "2AFCA91B12B01583917564521", "minzoom": 2, "maxzoom": 8 }, "properties": { "halo": 1.6, "title": "波茵特半岛文化", "fontsize": 12, "tyid": "304002", "oid": "103:1576575162827", "color": "#0056E7" }, "geometry": { "type": "Point", "coordinates": [ -76.816406, 45.336702 ] } }
{"year": "AD194",  "type": "Feature", "tippecanoe": { "layer": "2AFCA91B12B01583917564521", "minzoom": 2, "maxzoom": 8 }, "properties": { "halo": 1.6, "title": "古海洋文化", "fontsize": 12, "tyid": "304002", "oid": "103:1576575162570", "color": "#0056E7" }, "geometry": { "type": "Point", "coordinates": [ -66.972656, 46.920255 ] } }
{"year": "AD194",  "type": "Feature", "tippecanoe": { "layer": "2AFCA91B12B01583917564521", "minzoom": 2, "maxzoom": 8 }, "properties": { "halo": 1.6, "title": "巴富尔人", "fontsize": 12, "tyid": "304001", "oid": "103:1576575162395", "color": "#0056E7" }, "geometry": { "type": "Point", "coordinates": [ -8.261719, 22.755921 ] } }
{"year": "AD194",  "type": "Feature", "tippecanoe": { "layer": "2AFCA91B12B01583917564521", "minzoom": 2, "maxzoom": 8 }, "properties": { "halo": 1.6, "title": "索宁克人", "fontsize": 12, "tyid": "304001", "oid": "103:1576575162462", "color": "#0056E7" }, "geometry": { "type": "Point", "coordinates": [ -10.195312, 16.551962 ] } }
{"year": "AD194",  "type": "Feature", "tippecanoe": { "layer": "2AFCA91B12B01583917564521", "minzoom": 2, "maxzoom": 8 }, "properties": { "halo": 1.6, "title": "曼德人", "fontsize": 12, "tyid": "304001", "oid": "103:1576575162746", "color": "#0056E7" }, "geometry": { "type": "Point", "coordinates": [ -7.558594, 8.146243 ] } }
{"year": "AD194",  "type": "Feature", "tippecanoe": { "layer": "2AFCA91B12B01583917564521", "minzoom": 2, "maxzoom": 8 }, "properties": { "halo": 1.6, "title": "图皮人", "fontsize": 12, "tyid": "304001", "oid": "103:1576575162832", "color": "#0056E7" }, "geometry": { "type": "Point", "coordinates": [ -47.812500, -23.966176 ] } }
{"year": "AD194",  "type": "Feature", "tippecanoe": { "layer": "2AFCA91B12B01583917564521", "minzoom": 2, "maxzoom": 8 }, "properties": { "halo": 1.6, "title": "萨米人", "fontsize": 12, "tyid": "304001", "oid": "103:1576575162831", "color": "#0056E7" }, "geometry": { "type": "Point", "coordinates": [ 25.400391, 68.171555 ] } }
{"year": "AD194",  "type": "Feature", "tippecanoe": { "layer": "2AFCA91B12B01583917564521", "minzoom": 2, "maxzoom": 8 }, "properties": { "halo": 1.6, "title": "原始日耳曼人", "fontsize": 12, "tyid": "304001", "oid": "103:1576575162603", "color": "#0056E7" }, "geometry": { "type": "Point", "coordinates": [ 8.437500, 60.500525 ] } }
{"year": "AD194",  "type": "Feature", "tippecanoe": { "layer": "2AFCA91B12B01583917564521", "minzoom": 2, "maxzoom": 8 }, "properties": { "halo": 1.6, "title": "古瑞典人", "fontsize": 12, "tyid": "304001", "oid": "103:1576575162852", "color": "#0056E7" }, "geometry": { "type": "Point", "coordinates": [ 15.820312, 61.312452 ] } }
{"year": "AD194",  "type": "Feature", "tippecanoe": { "layer": "2AFCA91B12B01583917564521", "minzoom": 2, "maxzoom": 8 }, "properties": { "halo": 1.8, "title": "罗马帝国", "fontsize": 12, "tyid": "304000", "oid": "103:1576575162740", "color": "#0056E7" }, "geometry": { "type": "Point", "coordinates": [ 10.107422, 46.860191 ] } }
{"year": "AD194",  "type": "Feature", "tippecanoe": { "layer": "2AFCA91B12B01583917564521", "minzoom": 2, "maxzoom": 8 }, "properties": { "halo": 1.6, "title": "芬尼人", "fontsize": 12, "tyid": "304001", "oid": "103:1576575162847", "color": "#0056E7" }, "geometry": { "type": "Point", "coordinates": [ 29.970703, 64.510643 ] } }
{"year": "AD194",  "type": "Feature", "tippecanoe": { "layer": "2AFCA91B12B01583917564521", "minzoom": 2, "maxzoom": 8 }, "properties": { "halo": 1.6, "title": "第聂伯河波罗的人", "fontsize": 12, "tyid": "304001", "oid": "103:1576575162845", "color": "#0056E7" }, "geometry": { "type": "Point", "coordinates": [ 33.222656, 56.413901 ] } }
{"year": "AD194",  "type": "Feature", "tippecanoe": { "layer": "2AFCA91B12B01583917564521", "minzoom": 2, "maxzoom": 8 }, "properties": { "halo": 1.6, "title": "波罗的人", "fontsize": 12, "tyid": "304002", "oid": "103:1576575162596", "color": "#0056E7" }, "geometry": { "type": "Point", "coordinates": [ 24.521484, 54.724620 ] } }
{"year": "AD194",  "type": "Feature", "tippecanoe": { "layer": "2AFCA91B12B01583917564521", "minzoom": 2, "maxzoom": 8 }, "properties": { "halo": 1.6, "title": "维内德人", "fontsize": 12, "tyid": "304001", "oid": "103:1576575162632", "color": "#0056E7" }, "geometry": { "type": "Point", "coordinates": [ 28.125000, 51.672555 ] } }
{"year": "AD194",  "type": "Feature", "tippecanoe": { "layer": "2AFCA91B12B01583917564521", "minzoom": 2, "maxzoom": 8 }, "properties": { "halo": 1.6, "title": "伏尔加芬兰人", "fontsize": 12, "tyid": "304001", "oid": "103:1576575162629", "color": "#0056E7" }, "geometry": { "type": "Point", "coordinates": [ 42.890625, 55.528631 ] } }
{"year": "AD194",  "type": "Feature", "tippecanoe": { "layer": "2AFCA91B12B01583917564521", "minzoom": 2, "maxzoom": 8 }, "properties": { "halo": 1.6, "title": "柏柏尔人诸部", "fontsize": 12, "tyid": "304001", "oid": "103:1576575162454", "color": "#0056E7" }, "geometry": { "type": "Point", "coordinates": [ 2.900391, 25.165173 ] } }
{"year": "AD194",  "type": "Feature", "tippecanoe": { "layer": "2AFCA91B12B01583917564521", "minzoom": 2, "maxzoom": 8 }, "properties": { "halo": 1.6, "title": "加拉曼特人", "fontsize": 12, "tyid": "304001", "oid": "103:1576575162429", "color": "#0056E7" }, "geometry": { "type": "Point", "coordinates": [ 18.544922, 26.980829 ] } }
{"year": "AD194",  "type": "Feature", "tippecanoe": { "layer": "2AFCA91B12B01583917564521", "minzoom": 2, "maxzoom": 8 }, "properties": { "halo": 1.6, "title": "诺克文化", "fontsize": 12, "tyid": "304002", "oid": "103:1576575162702", "color": "#0056E7" }, "geometry": { "type": "Point", "coordinates": [ 7.119141, 10.574222 ] } }
{"year": "AD194",  "type": "Feature", "tippecanoe": { "layer": "2AFCA91B12B01583917564521", "minzoom": 2, "maxzoom": 8 }, "properties": { "halo": 1.6, "title": "萨奥文明", "fontsize": 12, "tyid": "304002", "oid": "103:1576575162759", "color": "#0056E7" }, "geometry": { "type": "Point", "coordinates": [ 15.380859, 13.325485 ] } }
{"year": "AD194",  "type": "Feature", "tippecanoe": { "layer": "2AFCA91B12B01583917564521", "minzoom": 2, "maxzoom": 8 }, "properties": { "halo": 1.6, "title": "巴卡人", "fontsize": 12, "tyid": "304001", "oid": "103:1576575162726", "color": "#0056E7" }, "geometry": { "type": "Point", "coordinates": [ 18.105469, 5.441022 ] } }
{"year": "AD194",  "type": "Feature", "tippecanoe": { "layer": "2AFCA91B12B01583917564521", "minzoom": 2, "maxzoom": 8 }, "properties": { "halo": 1.8, "title": "亚美尼亚阿萨息斯王朝", "fontsize": 12, "tyid": "304000", "oid": "103:1576575162927", "color": "#0056E7" }, "geometry": { "type": "Point", "coordinates": [ 43.505859, 39.300299 ] } }
{"year": "AD194",  "type": "Feature", "tippecanoe": { "layer": "2AFCA91B12B01583917564521", "minzoom": 2, "maxzoom": 8 }, "properties": { "halo": 1.6, "title": "塔努联盟", "fontsize": 12, "tyid": "304002", "oid": "103:1576575162692", "color": "#0056E7" }, "geometry": { "type": "Point", "coordinates": [ 39.902344, 32.768800 ] } }
{"year": "AD194",  "type": "Feature", "tippecanoe": { "layer": "2AFCA91B12B01583917564521", "minzoom": 2, "maxzoom": 8 }, "properties": { "halo": 1.6, "title": "贝都因人", "fontsize": 12, "tyid": "304001", "oid": "103:1576575162689", "color": "#0056E7" }, "geometry": { "type": "Point", "coordinates": [ 40.957031, 26.745610 ] } }
{"year": "AD194",  "type": "Feature", "tippecanoe": { "layer": "2AFCA91B12B01583917564521", "minzoom": 2, "maxzoom": 8 }, "properties": { "halo": 1.6, "title": "北非贝都因人", "fontsize": 12, "tyid": "304001", "oid": "103:1576575162755", "color": "#0056E7" }, "geometry": { "type": "Point", "coordinates": [ 22.763672, 20.879343 ] } }
{"year": "AD194",  "type": "Feature", "tippecanoe": { "layer": "2AFCA91B12B01583917564521", "minzoom": 2, "maxzoom": 8 }, "properties": { "halo": 1.6, "title": "札加瓦人", "fontsize": 12, "tyid": "304001", "oid": "103:1576575162452", "color": "#0056E7" }, "geometry": { "type": "Point", "coordinates": [ 22.675781, 15.538376 ] } }
{"year": "AD194",  "type": "Feature", "tippecanoe": { "layer": "2AFCA91B12B01583917564521", "minzoom": 2, "maxzoom": 8 }, "properties": { "halo": 1.6, "title": "富尔人", "fontsize": 12, "tyid": "304001", "oid": "103:1576575162446", "color": "#0056E7" }, "geometry": { "type": "Point", "coordinates": [ 26.015625, 12.983148 ] } }
{"year": "AD194",  "type": "Feature", "tippecanoe": { "layer": "2AFCA91B12B01583917564521", "minzoom": 2, "maxzoom": 8 }, "properties": { "halo": 1.8, "title": "库施王国", "fontsize": 12, "tyid": "304000", "oid": "103:1576575162431", "color": "#0056E7" }, "geometry": { "type": "Point", "coordinates": [ 32.255859, 18.729502 ] } }
{"year": "AD194",  "type": "Feature", "tippecanoe": { "layer": "2AFCA91B12B01583917564521", "minzoom": 2, "maxzoom": 8 }, "properties": { "halo": 1.6, "title": "尼罗特人", "fontsize": 12, "tyid": "304001", "oid": "103:1576575162408", "color": "#0056E7" }, "geometry": { "type": "Point", "coordinates": [ 33.134766, 1.406109 ] } }
{"year": "AD194",  "type": "Feature", "tippecanoe": { "layer": "2AFCA91B12B01583917564521", "minzoom": 2, "maxzoom": 8 }, "properties": { "halo": 1.8, "title": "阿克苏姆王国", "fontsize": 12, "tyid": "304000", "oid": "103:1576575162910", "color": "#0056E7" }, "geometry": { "type": "Point", "coordinates": [ 39.990234, 13.325485 ] } }
{"year": "AD194",  "type": "Feature", "tippecanoe": { "layer": "2AFCA91B12B01583917564521", "minzoom": 2, "maxzoom": 8 }, "properties": { "halo": 1.6, "title": "卢欧诸部", "fontsize": 12, "tyid": "304001", "oid": "103:1576575162484", "color": "#0056E7" }, "geometry": { "type": "Point", "coordinates": [ 35.068359, 8.581021 ] } }
{"year": "AD194",  "type": "Feature", "tippecanoe": { "layer": "2AFCA91B12B01583917564521", "minzoom": 2, "maxzoom": 8 }, "properties": { "halo": 1.6, "title": "库希特人", "fontsize": 12, "tyid": "304001", "oid": "103:1576575162771", "color": "#0056E7" }, "geometry": { "type": "Point", "coordinates": [ 44.736328, 5.703448 ] } }
{"year": "AD194",  "type": "Feature", "tippecanoe": { "layer": "2AFCA91B12B01583917564521", "minzoom": 2, "maxzoom": 8 }, "properties": { "halo": 1.6, "title": "阿扎尼亚诸城邦", "fontsize": 12, "tyid": "304002", "oid": "103:1576575162787", "color": "#0056E7" }, "geometry": { "type": "Point", "coordinates": [ 40.166016, 0.087891 ] } }
{"year": "AD194",  "type": "Feature", "tippecanoe": { "layer": "2AFCA91B12B01583917564521", "minzoom": 2, "maxzoom": 8 }, "properties": { "halo": 1.6, "title": "彼尔姆人", "fontsize": 12, "tyid": "304001", "oid": "103:1576575162720", "color": "#0056E7" }, "geometry": { "type": "Point", "coordinates": [ 55.722656, 57.704147 ] } }
{"year": "AD194",  "type": "Feature", "tippecanoe": { "layer": "2AFCA91B12B01583917564521", "minzoom": 2, "maxzoom": 8 }, "properties": { "halo": 1.6, "title": "东马扎尔人", "fontsize": 12, "tyid": "304001", "oid": "103:1576575162922", "color": "#0056E7" }, "geometry": { "type": "Point", "coordinates": [ 59.238281, 61.396719 ] } }
{"year": "AD194",  "type": "Feature", "tippecanoe": { "layer": "2AFCA91B12B01583917564521", "minzoom": 2, "maxzoom": 8 }, "properties": { "halo": 1.6, "title": "萨尔马提亚人", "fontsize": 12, "tyid": "304001", "oid": "103:1576575162870", "color": "#0056E7" }, "geometry": { "type": "Point", "coordinates": [ 52.382812, 53.067627 ] } }
{"year": "AD194",  "type": "Feature", "tippecanoe": { "layer": "2AFCA91B12B01583917564521", "minzoom": 2, "maxzoom": 8 }, "properties": { "halo": 1.6, "title": "阿兰人", "fontsize": 12, "tyid": "304001", "oid": "103:1576575162585", "color": "#0056E7" }, "geometry": { "type": "Point", "coordinates": [ 49.570312, 48.864715 ] } }
{"year": "AD194",  "type": "Feature", "tippecanoe": { "layer": "2AFCA91B12B01583917564521", "minzoom": 2, "maxzoom": 8 }, "properties": { "halo": 1.6, "title": "康居国", "fontsize": 12, "tyid": "304001", "oid": "103:1576575162829", "color": "#0056E7" }, "geometry": { "type": "Point", "coordinates": [ 67.324219, 45.767523 ] } }
{"year": "AD194",  "type": "Feature", "tippecanoe": { "layer": "2AFCA91B12B01583917564521", "minzoom": 2, "maxzoom": 8 }, "properties": { "halo": 1.6, "title": "汉特人", "fontsize": 12, "tyid": "304001", "oid": "103:1576575162848", "color": "#0056E7" }, "geometry": { "type": "Point", "coordinates": [ 70.048828, 61.606396 ] } }
{"year": "AD194",  "type": "Feature", "tippecanoe": { "layer": "2AFCA91B12B01583917564521", "minzoom": 2, "maxzoom": 8 }, "properties": { "halo": 1.6, "title": "曼西人", "fontsize": 12, "tyid": "304001", "oid": "103:1576575162626", "color": "#0056E7" }, "geometry": { "type": "Point", "coordinates": [ 67.675781, 57.562995 ] } }
{"year": "AD194",  "type": "Feature", "tippecanoe": { "layer": "2AFCA91B12B01583917564521", "minzoom": 2, "maxzoom": 8 }, "properties": { "halo": 1.6, "title": "库莱文化", "fontsize": 12, "tyid": "304002", "oid": "103:1576575162598", "color": "#0056E7" }, "geometry": { "type": "Point", "coordinates": [ 82.968750, 57.562995 ] } }
{"year": "AD194",  "type": "Feature", "tippecanoe": { "layer": "2AFCA91B12B01583917564521", "minzoom": 2, "maxzoom": 8 }, "properties": { "halo": 1.6, "title": "萨迦蒂安文化", "fontsize": 12, "tyid": "304002", "oid": "103:1576575162592", "color": "#0056E7" }, "geometry": { "type": "Point", "coordinates": [ 70.751953, 53.278353 ] } }
{"year": "AD194",  "type": "Feature", "tippecanoe": { "layer": "2AFCA91B12B01583917564521", "minzoom": 2, "maxzoom": 8 }, "properties": { "halo": 1.8, "title": "悦般国", "fontsize": 12, "tyid": "304000", "oid": "103:1576575162698", "color": "#0056E7" }, "geometry": { "type": "Point", "coordinates": [ 81.123047, 46.619261 ] } }
{"year": "AD194",  "type": "Feature", "tippecanoe": { "layer": "2AFCA91B12B01583917564521", "minzoom": 2, "maxzoom": 8 }, "properties": { "halo": 1.8, "title": "乌孙国", "fontsize": 12, "tyid": "304000", "oid": "103:1576575162362", "color": "#0056E7" }, "geometry": { "type": "Point", "coordinates": [ 79.716797, 43.133061 ] } }
{"year": "AD194",  "type": "Feature", "tippecanoe": { "layer": "2AFCA91B12B01583917564521", "minzoom": 2, "maxzoom": 8 }, "properties": { "halo": 1.8, "title": "帕提亚帝国", "fontsize": 12, "tyid": "304000", "oid": "103:1576575162949", "color": "#0056E7" }, "geometry": { "type": "Point", "coordinates": [ 54.404297, 33.797409 ] } }
{"year": "AD194",  "type": "Feature", "tippecanoe": { "layer": "2AFCA91B12B01583917564521", "minzoom": 2, "maxzoom": 8 }, "properties": { "halo": 1.6, "title": "肯德部落", "fontsize": 12, "tyid": "304001", "oid": "103:1576575162687", "color": "#0056E7" }, "geometry": { "type": "Point", "coordinates": [ 45.703125, 22.024546 ] } }
{"year": "AD194",  "type": "Feature", "tippecanoe": { "layer": "2AFCA91B12B01583917564521", "minzoom": 2, "maxzoom": 8 }, "properties": { "halo": 1.6, "title": "索马里诸城邦", "fontsize": 12, "tyid": "304002", "oid": "103:1576575162810", "color": "#0056E7" }, "geometry": { "type": "Point", "coordinates": [ 47.636719, 8.928487 ] } }
{"year": "AD194",  "type": "Feature", "tippecanoe": { "layer": "2AFCA91B12B01583917564521", "minzoom": 2, "maxzoom": 8 }, "properties": { "halo": 1.8, "title": "贵霜帝国", "fontsize": 12, "tyid": "304000", "oid": "103:1576575162381", "color": "#0056E7" }, "geometry": { "type": "Point", "coordinates": [ 71.630859, 30.069094 ] } }
{"year": "AD194",  "type": "Feature", "tippecanoe": { "layer": "2AFCA91B12B01583917564521", "minzoom": 2, "maxzoom": 8 }, "properties": { "halo": 1.8, "title": "唐旄国", "fontsize": 12, "tyid": "304000", "oid": "103:1576575162463", "color": "#0056E7" }, "geometry": { "type": "Point", "coordinates": [ 87.011719, 34.161818 ] } }
{"year": "AD194",  "type": "Feature", "tippecanoe": { "layer": "2AFCA91B12B01583917564521", "minzoom": 2, "maxzoom": 8 }, "properties": { "halo": 1.8, "title": "象雄王国", "fontsize": 12, "tyid": "304000", "oid": "103:1576575162358", "color": "#0056E7" }, "geometry": { "type": "Point", "coordinates": [ 81.562500, 31.877558 ] } }
{"year": "AD194",  "type": "Feature", "tippecanoe": { "layer": "2AFCA91B12B01583917564521", "minzoom": 2, "maxzoom": 8 }, "properties": { "halo": 1.8, "title": "百乘王朝", "fontsize": 12, "tyid": "304000", "oid": "103:1576575162751", "color": "#0056E7" }, "geometry": { "type": "Point", "coordinates": [ 78.046875, 18.895893 ] } }
{"year": "AD194",  "type": "Feature", "tippecanoe": { "layer": "2AFCA91B12B01583917564521", "minzoom": 2, "maxzoom": 8 }, "properties": { "halo": 1.6, "title": "坚昆", "fontsize": 12, "tyid": "304001", "oid": "103:1576575162421", "color": "#0056E7" }, "geometry": { "type": "Point", "coordinates": [ 92.724609, 54.059388 ] } }
{"year": "AD194",  "type": "Feature", "tippecanoe": { "layer": "2AFCA91B12B01583917564521", "minzoom": 2, "maxzoom": 8 }, "properties": { "halo": 1.6, "title": "丁零", "fontsize": 12, "tyid": "304001", "oid": "103:1576575162522", "color": "#0056E7" }, "geometry": { "type": "Point", "coordinates": [ 110.830078, 53.067627 ] } }
{"year": "AD194",  "type": "Feature", "tippecanoe": { "layer": "2AFCA91B12B01583917564521", "minzoom": 2, "maxzoom": 8 }, "properties": { "halo": 1.6, "title": "鲜卑", "fontsize": 12, "tyid": "304001", "oid": "103:1576575162590", "color": "#0056E7" }, "geometry": { "type": "Point", "coordinates": [ 105.468750, 45.398450 ] } }
{"year": "AD194",  "type": "Feature", "tippecanoe": { "layer": "2AFCA91B12B01583917564521", "minzoom": 2, "maxzoom": 8 }, "properties": { "halo": 1.6, "title": "通古斯人", "fontsize": 12, "tyid": "304001", "oid": "103:1576575162682", "color": "#0056E7" }, "geometry": { "type": "Point", "coordinates": [ 116.718750, 60.759160 ] } }
{"year": "AD194",  "type": "Feature", "tippecanoe": { "layer": "2AFCA91B12B01583917564521", "minzoom": 2, "maxzoom": 8 }, "properties": { "halo": 1.8, "title": "扶余", "fontsize": 12, "tyid": "304000", "oid": "103:1576575162804", "color": "#0056E7" }, "geometry": { "type": "Point", "coordinates": [ 124.892578, 45.089036 ] } }
{"year": "AD194",  "type": "Feature", "tippecanoe": { "layer": "2AFCA91B12B01583917564521", "minzoom": 2, "maxzoom": 8 }, "properties": { "halo": 1.6, "title": "挹娄", "fontsize": 12, "tyid": "304001", "oid": "103:1576575162732", "color": "#0056E7" }, "geometry": { "type": "Point", "coordinates": [ 132.451172, 47.100045 ] } }
{"year": "AD194",  "type": "Feature", "tippecanoe": { "layer": "2AFCA91B12B01583917564521", "minzoom": 2, "maxzoom": 8 }, "properties": { "halo": 1.6, "title": "苏毗", "fontsize": 12, "tyid": "304001", "oid": "103:1576575162357", "color": "#0056E7" }, "geometry": { "type": "Point", "coordinates": [ 93.515625, 33.137551 ] } }
{"year": "AD194",  "type": "Feature", "tippecanoe": { "layer": "2AFCA91B12B01583917564521", "minzoom": 2, "maxzoom": 8 }, "properties": { "halo": 1.6, "title": "古羌人", "fontsize": 12, "tyid": "304001", "oid": "103:1576575162654", "color": "#0056E7" }, "geometry": { "type": "Point", "coordinates": [ 100.458984, 32.175612 ] } }
{"year": "AD194",  "type": "Feature", "tippecanoe": { "layer": "2AFCA91B12B01583917564521", "minzoom": 2, "maxzoom": 8 }, "properties": { "halo": 1.6, "title": "刘璋", "fontsize": 12, "tyid": "304002", "oid": "103:1576575162680", "color": "#0056E7" }, "geometry": { "type": "Point", "coordinates": [ 105.644531, 30.372875 ] } }
{"year": "AD194",  "type": "Feature", "tippecanoe": { "layer": "2AFCA91B12B01583917564521", "minzoom": 2, "maxzoom": 8 }, "properties": { "halo": 1.8, "title": "东汉", "fontsize": 12, "tyid": "304000", "oid": "103:1576575162661", "color": "#0056E7" }, "geometry": { "type": "Point", "coordinates": [ 105.380859, 25.244696 ] } }
{"year": "AD194",  "type": "Feature", "tippecanoe": { "layer": "2AFCA91B12B01583917564521", "minzoom": 2, "maxzoom": 8 }, "properties": { "halo": 1.6, "title": "刘表", "fontsize": 12, "tyid": "304002", "oid": "103:1576575162674", "color": "#0056E7" }, "geometry": { "type": "Point", "coordinates": [ 111.708984, 28.536275 ] } }
{"year": "AD194",  "type": "Feature", "tippecanoe": { "layer": "2AFCA91B12B01583917564521", "minzoom": 2, "maxzoom": 8 }, "properties": { "halo": 1.6, "title": "士燮", "fontsize": 12, "tyid": "304002", "oid": "103:1576575162562", "color": "#0056E7" }, "geometry": { "type": "Point", "coordinates": [ 110.214844, 22.105999 ] } }
{"year": "AD194",  "type": "Feature", "tippecanoe": { "layer": "2AFCA91B12B01583917564521", "minzoom": 2, "maxzoom": 8 }, "properties": { "halo": 1.8, "title": "扶南王国", "fontsize": 12, "tyid": "304000", "oid": "103:1576575162378", "color": "#0056E7" }, "geometry": { "type": "Point", "coordinates": [ 103.710938, 12.468760 ] } }
{"year": "AD194",  "type": "Feature", "tippecanoe": { "layer": "2AFCA91B12B01583917564521", "minzoom": 2, "maxzoom": 8 }, "properties": { "halo": 1.6, "title": "南岛人", "fontsize": 12, "tyid": "304001", "oid": "103:1576575162561", "color": "#0056E7" }, "geometry": { "type": "Point", "coordinates": [ 114.169922, 0.878872 ] } }
{"year": "AD194",  "type": "Feature", "tippecanoe": { "layer": "2AFCA91B12B01583917564521", "minzoom": 2, "maxzoom": 8 }, "properties": { "halo": 1.6, "title": "尤卡吉尔人", "fontsize": 12, "tyid": "304001", "oid": "103:1576575162386", "color": "#0056E7" }, "geometry": { "type": "Point", "coordinates": [ 155.214844, 64.886265 ] } }
{"year": "AD194",  "type": "Feature", "tippecanoe": { "layer": "2AFCA91B12B01583917564521", "minzoom": 2, "maxzoom": 8 }, "properties": { "halo": 1.6, "title": "尼夫赫人", "fontsize": 12, "tyid": "304001", "oid": "103:1576575162546", "color": "#0056E7" }, "geometry": { "type": "Point", "coordinates": [ 138.779297, 51.890054 ] } }
{"year": "AD194",  "type": "Feature", "tippecanoe": { "layer": "2AFCA91B12B01583917564521", "minzoom": 2, "maxzoom": 8 }, "properties": { "halo": 1.6, "title": "科里亚克族", "fontsize": 12, "tyid": "304001", "oid": "103:1576575162897", "color": "#0056E7" }, "geometry": { "type": "Point", "coordinates": [ 164.882812, 61.814664 ] } }
{"year": "AD194",  "type": "Feature", "tippecanoe": { "layer": "2AFCA91B12B01583917564521", "minzoom": 2, "maxzoom": 8 }, "properties": { "halo": 1.6, "title": "楚科奇人", "fontsize": 12, "tyid": "304001", "oid": "103:1576575162489", "color": "#0056E7" }, "geometry": { "type": "Point", "coordinates": [ 171.035156, 66.443107 ] } }
{"year": "AD194",  "type": "Feature", "tippecanoe": { "layer": "2AFCA91B12B01583917564521", "minzoom": 2, "maxzoom": 8 }, "properties": { "halo": 1.6, "title": "西北班图人诸部", "fontsize": 12, "tyid": "304001", "oid": "103:1576575162792", "color": "#0056E7" }, "geometry": { "type": "Point", "coordinates": [ 20.742188, -0.527336 ] } }
{"year": "AD194",  "type": "Feature", "tippecanoe": { "layer": "2AFCA91B12B01583917564521", "minzoom": 2, "maxzoom": 8 }, "properties": { "halo": 1.6, "title": "西班图人诸部", "fontsize": 12, "tyid": "304001", "oid": "103:1576575162705", "color": "#0056E7" }, "geometry": { "type": "Point", "coordinates": [ 21.621094, -9.709057 ] } }
{"year": "AD194",  "type": "Feature", "tippecanoe": { "layer": "2AFCA91B12B01583917564521", "minzoom": 2, "maxzoom": 8 }, "properties": { "halo": 1.6, "title": "科伊桑人", "fontsize": 12, "tyid": "304001", "oid": "103:1576575162480", "color": "#0056E7" }, "geometry": { "type": "Point", "coordinates": [ 22.148438, -24.126702 ] } }
{"year": "AD194",  "type": "Feature", "tippecanoe": { "layer": "2AFCA91B12B01583917564521", "minzoom": 2, "maxzoom": 8 }, "properties": { "halo": 1.6, "title": "东班图人诸部", "fontsize": 12, "tyid": "304001", "oid": "103:1576575162366", "color": "#0056E7" }, "geometry": { "type": "Point", "coordinates": [ 32.167969, -13.496473 ] } }
{"year": "AD194",  "type": "Feature", "tippecanoe": { "layer": "2AFCA91B12B01583917564521", "minzoom": 2, "maxzoom": 8 }, "properties": { "halo": 1.6, "title": "澳洲原住民", "fontsize": 12, "tyid": "304001", "oid": "103:1576575162417", "color": "#0056E7" }, "geometry": { "type": "Point", "coordinates": [ 134.296875, -25.562265 ] } }
{"year": "AD194",  "type": "Feature", "tippecanoe": { "layer": "2AFCA91B12B01583917564521", "minzoom": 2, "maxzoom": 8 }, "properties": { "halo": 1.6, "title": "巴布亚人", "fontsize": 12, "tyid": "304001", "oid": "103:1576575162352", "color": "#0056E7" }, "geometry": { "type": "Point", "coordinates": [ 140.888672, -5.266008 ] } }
{"year": "AD194",  "type": "Feature", "tippecanoe": { "layer": "2AFCA91B13901583917564523", "minzoom": 2, "maxzoom": 8 }, "properties": { "halo": 0.2, "title": "桂宫鸿宁殿", "fontsize": 12, "tyid": "700000", "centroid": "{\"type\":\"Point\",\"coordinates\":[108.849876765542,34.317520034]}", "icon": "", "oid": "103:1537436858818", "color": "#4B4040" }, "geometry": { "type": "Point", "coordinates": [ 108.808594, 34.379713 ] } }
{"year": "AD194",  "type": "Feature", "tippecanoe": { "layer": "2AFCA91B13901583917564523", "minzoom": 2, "maxzoom": 8 }, "properties": { "halo": 0.2, "title": "中央官署", "fontsize": 12, "tyid": "700001", "centroid": "{\"type\":\"Point\",\"coordinates\":[108.849241141665,34.30735276565]}", "icon": "", "oid": "103:1537436858822", "color": "#4B4040" }, "geometry": { "type": "Point", "coordinates": [ 108.808594, 34.379713 ] } }
{"year": "AD194",  "type": "Feature", "tippecanoe": { "layer": "2AFCA91B13901583917564523", "minzoom": 2, "maxzoom": 8 }, "properties": { "halo": 0.2, "title": "市楼", "fontsize": 12, "tyid": "700001", "centroid": "{\"type\":\"Point\",\"coordinates\":[108.857739061935,34.33834147775]}", "icon": "", "oid": "103:1537436858829", "color": "#4B4040" }, "geometry": { "type": "Point", "coordinates": [ 108.808594, 34.379713 ] } }
{"year": "AD194",  "type": "Feature", "tippecanoe": { "layer": "2AFCA91B13901583917564523", "minzoom": 2, "maxzoom": 8 }, "properties": { "halo": 0.2, "title": "未央宫石渠阁", "fontsize": 12, "tyid": "700000", "centroid": "{\"type\":\"Point\",\"coordinates\":[108.853095885871,34.3113056254]}", "icon": "", "oid": "103:1537436858826", "color": "#4B4040" }, "geometry": { "type": "Point", "coordinates": [ 108.808594, 34.379713 ] } }
{"year": "AD194",  "type": "Feature", "tippecanoe": { "layer": "2AFCA91B13901583917564523", "minzoom": 2, "maxzoom": 8 }, "properties": { "halo": 0.2, "title": "少府", "fontsize": 12, "tyid": "700001", "centroid": "{\"type\":\"Point\",\"coordinates\":[108.854996351157,34.3087250008]}", "icon": "", "oid": "103:1537436858820", "color": "#4B4040" }, "geometry": { "type": "Point", "coordinates": [ 108.808594, 34.379713 ] } }
{"year": "AD194",  "type": "Feature", "tippecanoe": { "layer": "2AFCA91B13901583917564523", "minzoom": 2, "maxzoom": 8 }, "properties": { "halo": 0.2, "title": "未央宫天禄阁", "fontsize": 12, "tyid": "700000", "centroid": "{\"type\":\"Point\",\"coordinates\":[108.8599889573,34.311881217]}", "icon": "", "oid": "103:1537436858828", "color": "#4B4040" }, "geometry": { "type": "Point", "coordinates": [ 108.808594, 34.379713 ] } }
{"year": "AD194",  "type": "Feature", "tippecanoe": { "layer": "2AFCA91B13901583917564523", "minzoom": 2, "maxzoom": 8 }, "properties": { "halo": 0.2, "title": "未央宫北阙", "fontsize": 12, "tyid": "700000", "centroid": "{\"type\":\"Point\",\"coordinates\":[108.861405398769,34.3130421644]}", "icon": "", "oid": "103:1537436858835", "color": "#4B4040" }, "geometry": { "type": "Point", "coordinates": [ 108.808594, 34.379713 ] } }
{"year": "AD194",  "type": "Feature", "tippecanoe": { "layer": "2AFCA91B13901583917564523", "minzoom": 2, "maxzoom": 8 }, "properties": { "halo": 0.2, "title": "未央宫椒房殿", "fontsize": 12, "tyid": "700000", "centroid": "{\"type\":\"Point\",\"coordinates\":[108.859853604369,34.3084095834]}", "icon": "", "oid": "103:1537436858824", "color": "#4B4040" }, "geometry": { "type": "Point", "coordinates": [ 108.808594, 34.379713 ] } }
{"year": "AD194",  "type": "Feature", "tippecanoe": { "layer": "2AFCA91B13901583917564523", "minzoom": 2, "maxzoom": 8 }, "properties": { "halo": 0.2, "title": "武库", "fontsize": 12, "tyid": "700001", "centroid": "{\"type\":\"Point\",\"coordinates\":[108.874223828257,34.31045123035]}", "icon": "", "oid": "103:1537436858815", "color": "#4B4040" }, "geometry": { "type": "Point", "coordinates": [ 108.808594, 34.379713 ] } }
{"year": "AD194",  "type": "Feature", "tippecanoe": { "layer": "2AFCA91B13901583917564523", "minzoom": 2, "maxzoom": 8 }, "properties": { "halo": 0.2, "title": "长乐宫宫殿", "fontsize": 12, "tyid": "700000", "centroid": "{\"type\":\"Point\",\"coordinates\":[108.888325125827,34.3170337217]}", "icon": "", "oid": "103:1537436858813", "color": "#4B4040" }, "geometry": { "type": "Point", "coordinates": [ 108.808594, 34.379713 ] } }
{"year": "AD194",  "type": "Feature", "tippecanoe": { "layer": "2AFCA91B13901583917564523", "minzoom": 2, "maxzoom": 8 }, "properties": { "halo": 0.2, "title": "未央宫渐台", "fontsize": 12, "tyid": "700000", "centroid": "{\"type\":\"Point\",\"coordinates\":[108.857909035289,34.3006176219]}", "icon": "", "oid": "103:1537436858831", "color": "#4B4040" }, "geometry": { "type": "Point", "coordinates": [ 108.808594, 34.307144 ] } }
{"year": "AD194",  "type": "Feature", "tippecanoe": { "layer": "2AFCA91B13901583917564523", "minzoom": 2, "maxzoom": 8 }, "properties": { "halo": 0.2, "title": "未央宫前殿", "fontsize": 12, "tyid": "700000", "centroid": "{\"type\":\"Point\",\"coordinates\":[108.859971115008,34.30463515345]}", "icon": "", "oid": "103:1537436858817", "color": "#4B4040" }, "geometry": { "type": "Point", "coordinates": [ 108.808594, 34.307144 ] } }
{"year": "AD194",  "type": "Feature", "tippecanoe": { "layer": "2AFCA91B13901583917564523", "minzoom": 2, "maxzoom": 8 }, "properties": { "halo": 0.2, "title": "未央宫东阙", "fontsize": 12, "tyid": "700000", "centroid": "{\"type\":\"Point\",\"coordinates\":[108.871330553845,34.3065184755]}", "icon": "", "oid": "103:1537436858833", "color": "#4B4040" }, "geometry": { "type": "Point", "coordinates": [ 108.808594, 34.307144 ] } }
{"year": "AD194",  "type": "Feature", "tippecanoe": { "layer": "2AFCA91B13901583917564523", "minzoom": 2, "maxzoom": 8 }, "properties": { "halo": 0.2, "title": "汉长安城高庙", "fontsize": 12, "tyid": "701000", "centroid": "{\"type\":\"Point\",\"coordinates\":[108.883409543396,34.2983725494]}", "icon": "", "oid": "103:1537436833743", "color": "#4B4040" }, "geometry": { "type": "Point", "coordinates": [ 108.808594, 34.307144 ] } }
{"year": "AD194",  "type": "Feature", "tippecanoe": { "layer": "2AFCA91B13901583917564523", "minzoom": 2, "maxzoom": 8 }, "properties": { "halo": 0.2, "title": "辟雍", "fontsize": 12, "tyid": "700000", "centroid": "{\"type\":\"Point\",\"coordinates\":[108.882314944725,34.27337515805]}", "icon": "", "oid": "103:1537436858837", "color": "#4B4040" }, "geometry": { "type": "Point", "coordinates": [ 108.808594, 34.307144 ] } }
{"year": "AD194",  "type": "Feature", "tippecanoe": { "layer": "2AFCA91B13901583917564523", "minzoom": 2, "maxzoom": 8 }, "properties": { "halo": 0.2, "title": "汉长安城宗庙", "fontsize": 12, "tyid": "701000", "centroid": "{\"type\":\"Point\",\"coordinates\":[108.869084695375,34.2697862898]}", "icon": "", "oid": "103:1537436833745", "color": "#4B4040" }, "geometry": { "type": "Point", "coordinates": [ 108.808594, 34.307144 ] } }
{"year": "AD194",  "type": "Feature", "tippecanoe": { "layer": "2AFCA91B14701583917564524", "minzoom": 2, "maxzoom": 8 }, "properties": { "halo": 1.6, "title": "拉霍亚文化", "fontsize": 12, "tyid": "304002", "oid": "103:1576575162550", "color": "#0056E7" }, "geometry": { "type": "Point", "coordinates": [ -118.916016, 34.597042 ] } }
{"year": "AD194",  "type": "Feature", "tippecanoe": { "layer": "2AFCA91B14701583917564524", "minzoom": 2, "maxzoom": 8 }, "properties": { "halo": 1.6, "title": "维珍阿纳萨齐人", "fontsize": 12, "tyid": "304001", "oid": "103:1576575162595", "color": "#0056E7" }, "geometry": { "type": "Point", "coordinates": [ -113.818359, 36.879621 ] } }
{"year": "AD194",  "type": "Feature", "tippecanoe": { "layer": "2AFCA91B14701583917564524", "minzoom": 2, "maxzoom": 8 }, "properties": { "halo": 1.6, "title": "弗里蒙特文化", "fontsize": 12, "tyid": "304002", "oid": "103:1576575162608", "color": "#0056E7" }, "geometry": { "type": "Point", "coordinates": [ -111.533203, 38.134557 ] } }
{"year": "AD194",  "type": "Feature", "tippecanoe": { "layer": "2AFCA91B14701583917564524", "minzoom": 2, "maxzoom": 8 }, "properties": { "halo": 1.6, "title": "奥沙拉文化", "fontsize": 12, "tyid": "304002", "oid": "103:1576575162693", "color": "#0056E7" }, "geometry": { "type": "Point", "coordinates": [ -107.841797, 37.509726 ] } }
{"year": "AD194",  "type": "Feature", "tippecanoe": { "layer": "2AFCA91B14701583917564524", "minzoom": 2, "maxzoom": 8 }, "properties": { "halo": 1.6, "title": "古普韦布洛人", "fontsize": 12, "tyid": "304001", "oid": "103:1576575162799", "color": "#0056E7" }, "geometry": { "type": "Point", "coordinates": [ -109.951172, 36.527295 ] } }
{"year": "AD194",  "type": "Feature", "tippecanoe": { "layer": "2AFCA91B14701583917564524", "minzoom": 2, "maxzoom": 8 }, "properties": { "halo": 1.6, "title": "奇瓦瓦文化", "fontsize": 12, "tyid": "304002", "oid": "103:1576575162764", "color": "#0056E7" }, "geometry": { "type": "Point", "coordinates": [ -107.226562, 32.768800 ] } }
{"year": "AD194",  "type": "Feature", "tippecanoe": { "layer": "2AFCA91B14701583917564524", "minzoom": 2, "maxzoom": 8 }, "properties": { "halo": 1.6, "title": "瓜伊库拉人", "fontsize": 12, "tyid": "304001", "oid": "103:1576575162518", "color": "#0056E7" }, "geometry": { "type": "Point", "coordinates": [ -111.269531, 24.846565 ] } }
{"year": "AD194",  "type": "Feature", "tippecanoe": { "layer": "2AFCA91B14701583917564524", "minzoom": 2, "maxzoom": 8 }, "properties": { "halo": 1.6, "title": "堪萨斯城霍普韦尔文化", "fontsize": 12, "tyid": "304002", "oid": "103:1576575162914", "color": "#0056E7" }, "geometry": { "type": "Point", "coordinates": [ -94.042969, 39.027719 ] } }
{"year": "AD194",  "type": "Feature", "tippecanoe": { "layer": "2AFCA91B14701583917564524", "minzoom": 2, "maxzoom": 8 }, "properties": { "halo": 1.6, "title": "哈瓦那霍普韦尔文化", "fontsize": 12, "tyid": "304002", "oid": "103:1576575162739", "color": "#0056E7" }, "geometry": { "type": "Point", "coordinates": [ -91.054688, 40.446947 ] } }
{"year": "AD194",  "type": "Feature", "tippecanoe": { "layer": "2AFCA91B14701583917564524", "minzoom": 2, "maxzoom": 8 }, "properties": { "halo": 1.6, "title": "喀多语密西西比文化", "fontsize": 12, "tyid": "304002", "oid": "103:1576575162542", "color": "#0056E7" }, "geometry": { "type": "Point", "coordinates": [ -94.482422, 35.960223 ] } }
{"year": "AD194",  "type": "Feature", "tippecanoe": { "layer": "2AFCA91B14701583917564524", "minzoom": 2, "maxzoom": 8 }, "properties": { "halo": 1.6, "title": "福切马里尼文化", "fontsize": 12, "tyid": "304002", "oid": "103:1576575162441", "color": "#0056E7" }, "geometry": { "type": "Point", "coordinates": [ -94.306641, 33.358062 ] } }
{"year": "AD194",  "type": "Feature", "tippecanoe": { "layer": "2AFCA91B14701583917564524", "minzoom": 2, "maxzoom": 8 }, "properties": { "halo": 1.6, "title": "楚拉时期", "fontsize": 12, "tyid": "304002", "oid": "103:1576575162818", "color": "#0056E7" }, "geometry": { "type": "Point", "coordinates": [ -92.021484, 32.472695 ] } }
{"year": "AD194",  "type": "Feature", "tippecanoe": { "layer": "2AFCA91B14701583917564524", "minzoom": 2, "maxzoom": 8 }, "properties": { "halo": 1.6, "title": "华斯塔克文明", "fontsize": 12, "tyid": "304002", "oid": "103:1576575162544", "color": "#0056E7" }, "geometry": { "type": "Point", "coordinates": [ -98.613281, 22.105999 ] } }
{"year": "AD194",  "type": "Feature", "tippecanoe": { "layer": "2AFCA91B14701583917564524", "minzoom": 2, "maxzoom": 8 }, "properties": { "halo": 1.6, "title": "奇蒂玛察人", "fontsize": 12, "tyid": "304001", "oid": "103:1576575162802", "color": "#0056E7" }, "geometry": { "type": "Point", "coordinates": [ -91.230469, 30.902225 ] } }
{"year": "AD194",  "type": "Feature", "tippecanoe": { "layer": "2AFCA91B14701583917564524", "minzoom": 2, "maxzoom": 8 }, "properties": { "halo": 1.6, "title": "马克斯维尔文化", "fontsize": 12, "tyid": "304002", "oid": "103:1576575162410", "color": "#0056E7" }, "geometry": { "type": "Point", "coordinates": [ -90.878906, 29.764377 ] } }
{"year": "AD194",  "type": "Feature", "tippecanoe": { "layer": "2AFCA91B14701583917564524", "minzoom": 2, "maxzoom": 8 }, "properties": { "halo": 1.6, "title": "特切特兰文化", "fontsize": 12, "tyid": "304002", "oid": "103:1576575162471", "color": "#0056E7" }, "geometry": { "type": "Point", "coordinates": [ -104.326172, 20.468189 ] } }
{"year": "AD194",  "type": "Feature", "tippecanoe": { "layer": "2AFCA91B14701583917564524", "minzoom": 2, "maxzoom": 8 }, "properties": { "halo": 1.6, "title": "萨波特克文明", "fontsize": 12, "tyid": "304002", "oid": "103:1576575162744", "color": "#0056E7" }, "geometry": { "type": "Point", "coordinates": [ -96.064453, 16.636192 ] } }
{"year": "AD194",  "type": "Feature", "tippecanoe": { "layer": "2AFCA91B14701583917564524", "minzoom": 2, "maxzoom": 8 }, "properties": { "halo": 1.6, "title": "古德尔文化", "fontsize": 12, "tyid": "304002", "oid": "103:1576575162507", "color": "#0056E7" }, "geometry": { "type": "Point", "coordinates": [ -85.869141, 43.133061 ] } }
{"year": "AD194",  "type": "Feature", "tippecanoe": { "layer": "2AFCA91B14701583917564524", "minzoom": 2, "maxzoom": 8 }, "properties": { "halo": 1.6, "title": "索根文化", "fontsize": 12, "tyid": "304002", "oid": "103:1576575162921", "color": "#0056E7" }, "geometry": { "type": "Point", "coordinates": [ -81.298828, 43.707594 ] } }
{"year": "AD194",  "type": "Feature", "tippecanoe": { "layer": "2AFCA91B14701583917564524", "minzoom": 2, "maxzoom": 8 }, "properties": { "halo": 1.6, "title": "蟹园文化", "fontsize": 12, "tyid": "304002", "oid": "103:1576575162822", "color": "#0056E7" }, "geometry": { "type": "Point", "coordinates": [ -88.066406, 37.718590 ] } }
{"year": "AD194",  "type": "Feature", "tippecanoe": { "layer": "2AFCA91B14701583917564524", "minzoom": 2, "maxzoom": 8 }, "properties": { "halo": 1.6, "title": "俄亥俄霍普韦尔文化", "fontsize": 12, "tyid": "304002", "oid": "103:1576575162776", "color": "#0056E7" }, "geometry": { "type": "Point", "coordinates": [ -83.056641, 39.774769 ] } }
{"year": "AD194",  "type": "Feature", "tippecanoe": { "layer": "2AFCA91B14701583917564524", "minzoom": 2, "maxzoom": 8 }, "properties": { "halo": 1.6, "title": "阿姆斯特朗文化", "fontsize": 12, "tyid": "304002", "oid": "103:1576575162743", "color": "#0056E7" }, "geometry": { "type": "Point", "coordinates": [ -82.968750, 38.134557 ] } }
{"year": "AD194",  "type": "Feature", "tippecanoe": { "layer": "2AFCA91B14701583917564524", "minzoom": 2, "maxzoom": 8 }, "properties": { "halo": 1.6, "title": "德普特福德文化", "fontsize": 12, "tyid": "304002", "oid": "103:1576575162908", "color": "#0056E7" }, "geometry": { "type": "Point", "coordinates": [ -79.628906, 33.431441 ] } }
{"year": "AD194",  "type": "Feature", "tippecanoe": { "layer": "2AFCA91B14701583917564524", "minzoom": 2, "maxzoom": 8 }, "properties": { "halo": 1.6, "title": "切格文特文化", "fontsize": 12, "tyid": "304002", "oid": "103:1576575162566", "color": "#0056E7" }, "geometry": { "type": "Point", "coordinates": [ -89.208984, 30.600094 ] } }
{"year": "AD194",  "type": "Feature", "tippecanoe": { "layer": "2AFCA91B14701583917564524", "minzoom": 2, "maxzoom": 8 }, "properties": { "halo": 1.6, "title": "圣罗莎-斯威夫特溪文化", "fontsize": 12, "tyid": "304002", "oid": "103:1576575162724", "color": "#0056E7" }, "geometry": { "type": "Point", "coordinates": [ -86.396484, 30.902225 ] } }
{"year": "AD194",  "type": "Feature", "tippecanoe": { "layer": "2AFCA91B14701583917564524", "minzoom": 2, "maxzoom": 8 }, "properties": { "halo": 1.6, "title": "斯威夫特溪文化", "fontsize": 12, "tyid": "304002", "oid": "103:1576575162396", "color": "#0056E7" }, "geometry": { "type": "Point", "coordinates": [ -84.111328, 31.428663 ] } }
{"year": "AD194",  "type": "Feature", "tippecanoe": { "layer": "2AFCA91B14701583917564524", "minzoom": 2, "maxzoom": 8 }, "properties": { "halo": 1.6, "title": "玛雅文明[前古典时期]", "fontsize": 12, "tyid": "304002", "oid": "103:1576575162360", "color": "#0056E7" }, "geometry": { "type": "Point", "coordinates": [ -89.296875, 17.056785 ] } }
{"year": "AD194",  "type": "Feature", "tippecanoe": { "layer": "2AFCA91B14701583917564524", "minzoom": 2, "maxzoom": 8 }, "properties": { "halo": 1.6, "title": "兹努文化", "fontsize": 12, "tyid": "304002", "oid": "103:1576575162575", "color": "#0056E7" }, "geometry": { "type": "Point", "coordinates": [ -75.585938, 8.581021 ] } }
{"year": "AD194",  "type": "Feature", "tippecanoe": { "layer": "2AFCA91B14701583917564524", "minzoom": 2, "maxzoom": 8 }, "properties": { "halo": 1.6, "title": "拉托利塔文化", "fontsize": 12, "tyid": "304002", "oid": "103:1576575162685", "color": "#0056E7" }, "geometry": { "type": "Point", "coordinates": [ -78.046875, 1.757537 ] } }
{"year": "AD194",  "type": "Feature", "tippecanoe": { "layer": "2AFCA91B14701583917564524", "minzoom": 2, "maxzoom": 8 }, "properties": { "halo": 1.6, "title": "埃雷拉时期", "fontsize": 12, "tyid": "304002", "oid": "103:1576575162898", "color": "#0056E7" }, "geometry": { "type": "Point", "coordinates": [ -73.476562, 5.441022 ] } }
{"year": "AD194",  "type": "Feature", "tippecanoe": { "layer": "2AFCA91B14701583917564524", "minzoom": 2, "maxzoom": 8 }, "properties": { "halo": 1.6, "title": "伊奈里人", "fontsize": 12, "tyid": "304001", "oid": "103:1576575162554", "color": "#0056E7" }, "geometry": { "type": "Point", "coordinates": [ -61.787109, 8.754795 ] } }
{"year": "AD194",  "type": "Feature", "tippecanoe": { "layer": "2AFCA91B14701583917564524", "minzoom": 2, "maxzoom": 8 }, "properties": { "halo": 1.6, "title": "喀里多尼亚人", "fontsize": 12, "tyid": "304001", "oid": "103:1576575162878", "color": "#0056E7" }, "geometry": { "type": "Point", "coordinates": [ -4.042969, 56.992883 ] } }
{"year": "AD194",  "type": "Feature", "tippecanoe": { "layer": "2AFCA91B14701583917564524", "minzoom": 2, "maxzoom": 8 }, "properties": { "halo": 1.6, "title": "盖尔人", "fontsize": 12, "tyid": "304001", "oid": "103:1576575162482", "color": "#0056E7" }, "geometry": { "type": "Point", "coordinates": [ -9.228516, 52.052490 ] } }
{"year": "AD194",  "type": "Feature", "tippecanoe": { "layer": "2AFCA91B14701583917564524", "minzoom": 2, "maxzoom": 8 }, "properties": { "halo": 1.6, "title": "杰内-杰诺文化二期", "fontsize": 12, "tyid": "304002", "oid": "103:1576575162526", "color": "#0056E7" }, "geometry": { "type": "Point", "coordinates": [ -5.097656, 13.752725 ] } }
{"year": "AD194",  "type": "Feature", "tippecanoe": { "layer": "2AFCA91B14701583917564524", "minzoom": 2, "maxzoom": 8 }, "properties": { "halo": 1.6, "title": "楚真文化", "fontsize": 12, "tyid": "304002", "oid": "103:1576575162905", "color": "#0056E7" }, "geometry": { "type": "Point", "coordinates": [ -70.576172, -16.299051 ] } }
{"year": "AD194",  "type": "Feature", "tippecanoe": { "layer": "2AFCA91B14701583917564524", "minzoom": 2, "maxzoom": 8 }, "properties": { "halo": 1.6, "title": "普卡拉文化", "fontsize": 12, "tyid": "304002", "oid": "103:1576575162616", "color": "#0056E7" }, "geometry": { "type": "Point", "coordinates": [ -69.873047, -14.859850 ] } }
{"year": "AD194",  "type": "Feature", "tippecanoe": { "layer": "2AFCA91B14701583917564524", "minzoom": 2, "maxzoom": 8 }, "properties": { "halo": 1.6, "title": "艾马拉人", "fontsize": 12, "tyid": "304001", "oid": "103:1576575162718", "color": "#0056E7" }, "geometry": { "type": "Point", "coordinates": [ -68.291016, -17.224758 ] } }
{"year": "AD194",  "type": "Feature", "tippecanoe": { "layer": "2AFCA91B14701583917564524", "minzoom": 2, "maxzoom": 8 }, "properties": { "halo": 1.6, "title": "昌戈人", "fontsize": 12, "tyid": "304001", "oid": "103:1576575162385", "color": "#0056E7" }, "geometry": { "type": "Point", "coordinates": [ -69.960938, -23.725012 ] } }
{"year": "AD194",  "type": "Feature", "tippecanoe": { "layer": "2AFCA91B14701583917564524", "minzoom": 2, "maxzoom": 8 },