{ "type": "Feature", "tippecanoe": { "layer": "2AFCA09D40801583917275620", "minzoom": 2, "maxzoom": 8 }, "properties": { "halo": 1.6, "title": "古白令海文化", "fontsize": 12, "tyid": "304002", "oid": "103:1576575149462", "color": "#0056E7" }, "geometry": { "type": "Point", "coordinates": [ -170.332031, 63.470145 ] } }
{ "type": "Feature", "tippecanoe": { "layer": "2AFCA09D40801583917275620", "minzoom": 2, "maxzoom": 8 }, "properties": { "halo": 1.6, "title": "梅奥人", "fontsize": 12, "tyid": "304001", "oid": "103:1576575149782", "color": "#0056E7" }, "geometry": { "type": "Point", "coordinates": [ -109.160156, 26.667096 ] } }
{ "type": "Feature", "tippecanoe": { "layer": "2AFCA09D40801583917275620", "minzoom": 2, "maxzoom": 8 }, "properties": { "halo": 1.6, "title": "查尔奇维特斯文化", "fontsize": 12, "tyid": "304002", "oid": "103:1576575149578", "color": "#0056E7" }, "geometry": { "type": "Point", "coordinates": [ -103.974609, 23.483401 ] } }
{ "type": "Feature", "tippecanoe": { "layer": "2AFCA09D40801583917275620", "minzoom": 2, "maxzoom": 8 }, "properties": { "halo": 1.6, "title": "查普卡洛文化", "fontsize": 12, "tyid": "304002", "oid": "103:1576575149575", "color": "#0056E7" }, "geometry": { "type": "Point", "coordinates": [ -99.931641, 20.303418 ] } }
{ "type": "Feature", "tippecanoe": { "layer": "2AFCA09D40801583917275620", "minzoom": 2, "maxzoom": 8 }, "properties": { "halo": 1.6, "title": "特奥蒂瓦坎", "fontsize": 12, "tyid": "304002", "oid": "103:1576575149770", "color": "#0056E7" }, "geometry": { "type": "Point", "coordinates": [ -99.404297, 19.808054 ] } }
{ "type": "Feature", "tippecanoe": { "layer": "2AFCA09D40801583917275620", "minzoom": 2, "maxzoom": 8 }, "properties": { "halo": 1.6, "title": "古韦拉克鲁斯文化", "fontsize": 12, "tyid": "304002", "oid": "103:1576575149560", "color": "#0056E7" }, "geometry": { "type": "Point", "coordinates": [ -96.767578, 19.642588 ] } }
{ "type": "Feature", "tippecanoe": { "layer": "2AFCA09D40801583917275620", "minzoom": 2, "maxzoom": 8 }, "properties": { "halo": 1.6, "title": "米斯特克人", "fontsize": 12, "tyid": "304001", "oid": "103:1576575149845", "color": "#0056E7" }, "geometry": { "type": "Point", "coordinates": [ -98.349609, 17.224758 ] } }
{ "type": "Feature", "tippecanoe": { "layer": "2AFCA09D40801583917275620", "minzoom": 2, "maxzoom": 8 }, "properties": { "halo": 1.6, "title": "特里克人", "fontsize": 12, "tyid": "304001", "oid": "103:1576575149612", "color": "#0056E7" }, "geometry": { "type": "Point", "coordinates": [ -97.294922, 17.644022 ] } }
{ "type": "Feature", "tippecanoe": { "layer": "2AFCA09D40801583917275620", "minzoom": 2, "maxzoom": 8 }, "properties": { "halo": 1.6, "title": "洛瓦贾达斯文化", "fontsize": 12, "tyid": "304002", "oid": "103:1576575149539", "color": "#0056E7" }, "geometry": { "type": "Point", "coordinates": [ -96.416016, 19.145168 ] } }
{ "type": "Feature", "tippecanoe": { "layer": "2AFCA09D40801583917275620", "minzoom": 2, "maxzoom": 8 }, "properties": { "halo": 1.6, "title": "麦克斯人", "fontsize": 12, "tyid": "304001", "oid": "103:1576575149754", "color": "#0056E7" }, "geometry": { "type": "Point", "coordinates": [ -96.328125, 18.062312 ] } }
{ "type": "Feature", "tippecanoe": { "layer": "2AFCA09D40801583917275620", "minzoom": 2, "maxzoom": 8 }, "properties": { "halo": 1.6, "title": "后奥尔梅克文化", "fontsize": 12, "tyid": "304002", "oid": "103:1576575149614", "color": "#0056E7" }, "geometry": { "type": "Point", "coordinates": [ -95.625000, 18.479609 ] } }
{ "type": "Feature", "tippecanoe": { "layer": "2AFCA09D40801583917275620", "minzoom": 2, "maxzoom": 8 }, "properties": { "halo": 1.6, "title": "佐齐尔人", "fontsize": 12, "tyid": "304001", "oid": "103:1576575149564", "color": "#0056E7" }, "geometry": { "type": "Point", "coordinates": [ -93.339844, 16.551962 ] } }
{ "type": "Feature", "tippecanoe": { "layer": "2AFCA09D40801583917275620", "minzoom": 2, "maxzoom": 8 }, "properties": { "halo": 1.6, "title": "祖赫人", "fontsize": 12, "tyid": "304001", "oid": "103:1576575149671", "color": "#0056E7" }, "geometry": { "type": "Point", "coordinates": [ -92.109375, 16.045813 ] } }
{ "type": "Feature", "tippecanoe": { "layer": "2AFCA09D40801583917275620", "minzoom": 2, "maxzoom": 8 }, "properties": { "halo": 1.6, "title": "基切人", "fontsize": 12, "tyid": "304001", "oid": "103:1576575149711", "color": "#0056E7" }, "geometry": { "type": "Point", "coordinates": [ -90.966797, 15.029686 ] } }
{ "type": "Feature", "tippecanoe": { "layer": "2AFCA09D40801583917275620", "minzoom": 2, "maxzoom": 8 }, "properties": { "halo": 1.6, "title": "怒溪文化", "fontsize": 12, "tyid": "304002", "oid": "103:1576575149421", "color": "#0056E7" }, "geometry": { "type": "Point", "coordinates": [ -72.421875, 41.574361 ] } }
{ "type": "Feature", "tippecanoe": { "layer": "2AFCA09D40801583917275620", "minzoom": 2, "maxzoom": 8 }, "properties": { "halo": 1.6, "title": "埃里森-拉莫特文化", "fontsize": 12, "tyid": "304002", "oid": "103:1576575149678", "color": "#0056E7" }, "geometry": { "type": "Point", "coordinates": [ -87.626953, 39.095963 ] } }
{ "type": "Feature", "tippecanoe": { "layer": "2AFCA09D40801583917275620", "minzoom": 2, "maxzoom": 8 }, "properties": { "halo": 1.6, "title": "科佩纳文化", "fontsize": 12, "tyid": "304002", "oid": "103:1576575149842", "color": "#0056E7" }, "geometry": { "type": "Point", "coordinates": [ -87.539062, 34.669359 ] } }
{ "type": "Feature", "tippecanoe": { "layer": "2AFCA09D40801583917275620", "minzoom": 2, "maxzoom": 8 }, "properties": { "halo": 1.6, "title": "米勒文化", "fontsize": 12, "tyid": "304002", "oid": "103:1576575149596", "color": "#0056E7" }, "geometry": { "type": "Point", "coordinates": [ -88.417969, 34.234512 ] } }
{ "type": "Feature", "tippecanoe": { "layer": "2AFCA09D40801583917275620", "minzoom": 2, "maxzoom": 8 }, "properties": { "halo": 1.6, "title": "威廉文化", "fontsize": 12, "tyid": "304002", "oid": "103:1576575149579", "color": "#0056E7" }, "geometry": { "type": "Point", "coordinates": [ -80.771484, 39.639538 ] } }
{ "type": "Feature", "tippecanoe": { "layer": "2AFCA09D40801583917275620", "minzoom": 2, "maxzoom": 8 }, "properties": { "halo": 1.6, "title": "山地霍普维尔文化", "fontsize": 12, "tyid": "304002", "oid": "103:1576575149740", "color": "#0056E7" }, "geometry": { "type": "Point", "coordinates": [ -79.980469, 39.300299 ] } }
{ "type": "Feature", "tippecanoe": { "layer": "2AFCA09D40801583917275620", "minzoom": 2, "maxzoom": 8 }, "properties": { "halo": 1.6, "title": "凯兹池塘文化", "fontsize": 12, "tyid": "304002", "oid": "103:1576575149469", "color": "#0056E7" }, "geometry": { "type": "Point", "coordinates": [ -82.265625, 29.535230 ] } }
{ "type": "Feature", "tippecanoe": { "layer": "2AFCA09D40801583917275620", "minzoom": 2, "maxzoom": 8 }, "properties": { "halo": 1.6, "title": "玛纳索塔文化", "fontsize": 12, "tyid": "304002", "oid": "103:1576575149645", "color": "#0056E7" }, "geometry": { "type": "Point", "coordinates": [ -82.441406, 27.683528 ] } }
{ "type": "Feature", "tippecanoe": { "layer": "2AFCA09D40801583917275620", "minzoom": 2, "maxzoom": 8 }, "properties": { "halo": 1.6, "title": "卡卢萨人", "fontsize": 12, "tyid": "304001", "oid": "103:1576575149838", "color": "#0056E7" }, "geometry": { "type": "Point", "coordinates": [ -81.650391, 27.137368 ] } }
{ "type": "Feature", "tippecanoe": { "layer": "2AFCA09D40801583917275620", "minzoom": 2, "maxzoom": 8 }, "properties": { "halo": 1.6, "title": "圣约翰文化", "fontsize": 12, "tyid": "304002", "oid": "103:1576575149388", "color": "#0056E7" }, "geometry": { "type": "Point", "coordinates": [ -81.474609, 29.382175 ] } }
{ "type": "Feature", "tippecanoe": { "layer": "2AFCA09D40801583917275620", "minzoom": 2, "maxzoom": 8 }, "properties": { "halo": 1.6, "title": "贝尔格莱德文化", "fontsize": 12, "tyid": "304002", "oid": "103:1576575149669", "color": "#0056E7" }, "geometry": { "type": "Point", "coordinates": [ -80.859375, 27.449790 ] } }
{ "type": "Feature", "tippecanoe": { "layer": "2AFCA09D40801583917275620", "minzoom": 2, "maxzoom": 8 }, "properties": { "halo": 1.6, "title": "格莱兹文化", "fontsize": 12, "tyid": "304002", "oid": "103:1576575149390", "color": "#0056E7" }, "geometry": { "type": "Point", "coordinates": [ -80.859375, 26.037042 ] } }
{ "type": "Feature", "tippecanoe": { "layer": "2AFCA09D40801583917275620", "minzoom": 2, "maxzoom": 8 }, "properties": { "halo": 1.6, "title": "德贵斯塔族", "fontsize": 12, "tyid": "304001", "oid": "103:1576575149648", "color": "#0056E7" }, "geometry": { "type": "Point", "coordinates": [ -80.419922, 25.641526 ] } }
{ "type": "Feature", "tippecanoe": { "layer": "2AFCA09D40801583917275620", "minzoom": 2, "maxzoom": 8 }, "properties": { "halo": 1.6, "title": "雷卡人", "fontsize": 12, "tyid": "304001", "oid": "103:1576575149541", "color": "#0056E7" }, "geometry": { "type": "Point", "coordinates": [ -87.802734, 13.752725 ] } }
{ "type": "Feature", "tippecanoe": { "layer": "2AFCA09D40801583917275620", "minzoom": 2, "maxzoom": 8 }, "properties": { "halo": 1.6, "title": "格兰科克勒文化", "fontsize": 12, "tyid": "304002", "oid": "103:1576575149496", "color": "#0056E7" }, "geometry": { "type": "Point", "coordinates": [ -80.507812, 8.581021 ] } }
{ "type": "Feature", "tippecanoe": { "layer": "2AFCA09D40801583917275620", "minzoom": 2, "maxzoom": 8 }, "properties": { "halo": 1.6, "title": "泰罗纳", "fontsize": 12, "tyid": "304002", "oid": "103:1576575149369", "color": "#0056E7" }, "geometry": { "type": "Point", "coordinates": [ -73.564453, 10.833306 ] } }
{ "type": "Feature", "tippecanoe": { "layer": "2AFCA09D40801583917275620", "minzoom": 2, "maxzoom": 8 }, "properties": { "halo": 1.6, "title": "约托科文化", "fontsize": 12, "tyid": "304002", "oid": "103:1576575149745", "color": "#0056E7" }, "geometry": { "type": "Point", "coordinates": [ -76.289062, 4.302591 ] } }
{ "type": "Feature", "tippecanoe": { "layer": "2AFCA09D40801583917275620", "minzoom": 2, "maxzoom": 8 }, "properties": { "halo": 1.6, "title": "卡利玛文化", "fontsize": 12, "tyid": "304002", "oid": "103:1576575149729", "color": "#0056E7" }, "geometry": { "type": "Point", "coordinates": [ -76.728516, 4.214943 ] } }
{ "type": "Feature", "tippecanoe": { "layer": "2AFCA09D40801583917275620", "minzoom": 2, "maxzoom": 8 }, "properties": { "halo": 1.6, "title": "马拉加纳文化", "fontsize": 12, "tyid": "304002", "oid": "103:1576575149482", "color": "#0056E7" }, "geometry": { "type": "Point", "coordinates": [ -76.289062, 3.425692 ] } }
{ "type": "Feature", "tippecanoe": { "layer": "2AFCA09D40801583917275620", "minzoom": 2, "maxzoom": 8 }, "properties": { "halo": 1.6, "title": "昆巴雅文明", "fontsize": 12, "tyid": "304002", "oid": "103:1576575149571", "color": "#0056E7" }, "geometry": { "type": "Point", "coordinates": [ -75.761719, 5.090944 ] } }
{ "type": "Feature", "tippecanoe": { "layer": "2AFCA09D40801583917275620", "minzoom": 2, "maxzoom": 8 }, "properties": { "halo": 1.6, "title": "大庄园文化", "fontsize": 12, "tyid": "304002", "oid": "103:1576575149658", "color": "#0056E7" }, "geometry": { "type": "Point", "coordinates": [ -65.917969, 18.396230 ] } }
{ "type": "Feature", "tippecanoe": { "layer": "2AFCA09D40801583917275620", "minzoom": 2, "maxzoom": 8 }, "properties": { "halo": 1.6, "title": "萨拉杜文化", "fontsize": 12, "tyid": "304002", "oid": "103:1576575149769", "color": "#0056E7" }, "geometry": { "type": "Point", "coordinates": [ -61.699219, 16.214675 ] } }
{ "type": "Feature", "tippecanoe": { "layer": "2AFCA09D40801583917275620", "minzoom": 2, "maxzoom": 8 }, "properties": { "halo": 1.6, "title": "皮克特人", "fontsize": 12, "tyid": "304001", "oid": "103:1576575149440", "color": "#0056E7" }, "geometry": { "type": "Point", "coordinates": [ -1.406250, 60.326948 ] } }
{ "type": "Feature", "tippecanoe": { "layer": "2AFCA09D40801583917275620", "minzoom": 2, "maxzoom": 8 }, "properties": { "halo": 1.6, "title": "凯雷尼人", "fontsize": 12, "tyid": "304001", "oid": "103:1576575149368", "color": "#0056E7" }, "geometry": { "type": "Point", "coordinates": [ -5.097656, 58.077876 ] } }
{ "type": "Feature", "tippecanoe": { "layer": "2AFCA09D40801583917275620", "minzoom": 2, "maxzoom": 8 }, "properties": { "halo": 1.6, "title": "卡诺奈卡人", "fontsize": 12, "tyid": "304001", "oid": "103:1576575149447", "color": "#0056E7" }, "geometry": { "type": "Point", "coordinates": [ -5.537109, 57.657158 ] } }
{ "type": "Feature", "tippecanoe": { "layer": "2AFCA09D40801583917275620", "minzoom": 2, "maxzoom": 8 }, "properties": { "halo": 1.6, "title": "斯梅尔泰人", "fontsize": 12, "tyid": "304001", "oid": "103:1576575149379", "color": "#0056E7" }, "geometry": { "type": "Point", "coordinates": [ -4.746094, 57.984808 ] } }
{ "type": "Feature", "tippecanoe": { "layer": "2AFCA09D40801583917275620", "minzoom": 2, "maxzoom": 8 }, "properties": { "halo": 1.6, "title": "卢吉人", "fontsize": 12, "tyid": "304001", "oid": "103:1576575149747", "color": "#0056E7" }, "geometry": { "type": "Point", "coordinates": [ -4.130859, 58.124320 ] } }
{ "type": "Feature", "tippecanoe": { "layer": "2AFCA09D40801583917275620", "minzoom": 2, "maxzoom": 8 }, "properties": { "halo": 1.6, "title": "克洛维人[凯瑟尼斯]", "fontsize": 12, "tyid": "304001", "oid": "103:1576575149334", "color": "#0056E7" }, "geometry": { "type": "Point", "coordinates": [ -3.867188, 58.447733 ] } }
{ "type": "Feature", "tippecanoe": { "layer": "2AFCA09D40801583917275620", "minzoom": 2, "maxzoom": 8 }, "properties": { "halo": 1.6, "title": "德坎泰人", "fontsize": 12, "tyid": "304001", "oid": "103:1576575149442", "color": "#0056E7" }, "geometry": { "type": "Point", "coordinates": [ -4.218750, 57.610107 ] } }
{ "type": "Feature", "tippecanoe": { "layer": "2AFCA09D40801583917275620", "minzoom": 2, "maxzoom": 8 }, "properties": { "halo": 1.6, "title": "维格梅京人", "fontsize": 12, "tyid": "304001", "oid": "103:1576575149468", "color": "#0056E7" }, "geometry": { "type": "Point", "coordinates": [ -3.339844, 57.515823 ] } }
{ "type": "Feature", "tippecanoe": { "layer": "2AFCA09D40801583917275620", "minzoom": 2, "maxzoom": 8 }, "properties": { "halo": 1.6, "title": "克鲁尼人", "fontsize": 12, "tyid": "304001", "oid": "103:1576575149438", "color": "#0056E7" }, "geometry": { "type": "Point", "coordinates": [ -5.449219, 57.040730 ] } }
{ "type": "Feature", "tippecanoe": { "layer": "2AFCA09D40801583917275620", "minzoom": 2, "maxzoom": 8 }, "properties": { "halo": 1.6, "title": "维尼科内人", "fontsize": 12, "tyid": "304001", "oid": "103:1576575149654", "color": "#0056E7" }, "geometry": { "type": "Point", "coordinates": [ -3.691406, 56.218923 ] } }
{ "type": "Feature", "tippecanoe": { "layer": "2AFCA09D40801583917275620", "minzoom": 2, "maxzoom": 8 }, "properties": { "halo": 1.6, "title": "德克萨利人", "fontsize": 12, "tyid": "304001", "oid": "103:1576575149676", "color": "#0056E7" }, "geometry": { "type": "Point", "coordinates": [ -2.197266, 57.326521 ] } }
{ "type": "Feature", "tippecanoe": { "layer": "2AFCA09D40801583917275620", "minzoom": 2, "maxzoom": 8 }, "properties": { "halo": 1.8, "title": "奥斯拉尔王国", "fontsize": 12, "tyid": "304000", "oid": "103:1576575149601", "color": "#0056E7" }, "geometry": { "type": "Point", "coordinates": [ -7.470703, 52.802761 ] } }
{ "type": "Feature", "tippecanoe": { "layer": "2AFCA09D40801583917275620", "minzoom": 2, "maxzoom": 8 }, "properties": { "halo": 1.6, "title": "埃皮迪人", "fontsize": 12, "tyid": "304001", "oid": "103:1576575149478", "color": "#0056E7" }, "geometry": { "type": "Point", "coordinates": [ -5.537109, 55.677584 ] } }
{ "type": "Feature", "tippecanoe": { "layer": "2AFCA09D40801583917275620", "minzoom": 2, "maxzoom": 8 }, "properties": { "halo": 1.6, "title": "关切人", "fontsize": 12, "tyid": "304001", "oid": "103:1576575149458", "color": "#0056E7" }, "geometry": { "type": "Point", "coordinates": [ -16.611328, 28.304381 ] } }
{ "type": "Feature", "tippecanoe": { "layer": "2AFCA09D40801583917275620", "minzoom": 2, "maxzoom": 8 }, "properties": { "halo": 1.6, "title": "瓜纳加拉文化", "fontsize": 12, "tyid": "304002", "oid": "103:1576575149378", "color": "#0056E7" }, "geometry": { "type": "Point", "coordinates": [ -80.595703, -1.669686 ] } }
{ "type": "Feature", "tippecanoe": { "layer": "2AFCA09D40801583917275620", "minzoom": 2, "maxzoom": 8 }, "properties": { "halo": 1.6, "title": "巴伊亚文化", "fontsize": 12, "tyid": "304002", "oid": "103:1576575149548", "color": "#0056E7" }, "geometry": { "type": "Point", "coordinates": [ -80.068359, -0.527336 ] } }
{ "type": "Feature", "tippecanoe": { "layer": "2AFCA09D40801583917275620", "minzoom": 2, "maxzoom": 8 }, "properties": { "halo": 1.6, "title": "维克斯文化", "fontsize": 12, "tyid": "304002", "oid": "103:1576575149577", "color": "#0056E7" }, "geometry": { "type": "Point", "coordinates": [ -80.419922, -5.878332 ] } }
{ "type": "Feature", "tippecanoe": { "layer": "2AFCA09D40801583917275620", "minzoom": 2, "maxzoom": 8 }, "properties": { "halo": 1.6, "title": "萨利纳尔文化", "fontsize": 12, "tyid": "304002", "oid": "103:1576575149533", "color": "#0056E7" }, "geometry": { "type": "Point", "coordinates": [ -78.925781, -7.798079 ] } }
{ "type": "Feature", "tippecanoe": { "layer": "2AFCA09D40801583917275620", "minzoom": 2, "maxzoom": 8 }, "properties": { "halo": 1.6, "title": "莫切文明", "fontsize": 12, "tyid": "304002", "oid": "103:1576575149639", "color": "#0056E7" }, "geometry": { "type": "Point", "coordinates": [ -79.013672, -8.146243 ] } }
{ "type": "Feature", "tippecanoe": { "layer": "2AFCA09D40801583917275620", "minzoom": 2, "maxzoom": 8 }, "properties": { "halo": 1.6, "title": "维鲁文化", "fontsize": 12, "tyid": "304002", "oid": "103:1576575149394", "color": "#0056E7" }, "geometry": { "type": "Point", "coordinates": [ -78.837891, -8.320212 ] } }
{ "type": "Feature", "tippecanoe": { "layer": "2AFCA09D40801583917275620", "minzoom": 2, "maxzoom": 8 }, "properties": { "halo": 1.6, "title": "瑞克文化", "fontsize": 12, "tyid": "304002", "oid": "103:1576575149702", "color": "#0056E7" }, "geometry": { "type": "Point", "coordinates": [ -77.607422, -9.622414 ] } }
{ "type": "Feature", "tippecanoe": { "layer": "2AFCA09D40801583917275620", "minzoom": 2, "maxzoom": 8 }, "properties": { "halo": 1.6, "title": "加伊纳索文化", "fontsize": 12, "tyid": "304002", "oid": "103:1576575149411", "color": "#0056E7" }, "geometry": { "type": "Point", "coordinates": [ -77.080078, -11.092166 ] } }
{ "type": "Feature", "tippecanoe": { "layer": "2AFCA09D40801583917275620", "minzoom": 2, "maxzoom": 8 }, "properties": { "halo": 1.6, "title": "利马文化", "fontsize": 12, "tyid": "304002", "oid": "103:1576575149479", "color": "#0056E7" }, "geometry": { "type": "Point", "coordinates": [ -76.289062, -12.382928 ] } }
{ "type": "Feature", "tippecanoe": { "layer": "2AFCA09D40801583917275620", "minzoom": 2, "maxzoom": 8 }, "properties": { "halo": 1.6, "title": "华帕文化", "fontsize": 12, "tyid": "304002", "oid": "103:1576575149780", "color": "#0056E7" }, "geometry": { "type": "Point", "coordinates": [ -74.179688, -13.581921 ] } }
{ "type": "Feature", "tippecanoe": { "layer": "2AFCA09D40801583917275620", "minzoom": 2, "maxzoom": 8 }, "properties": { "halo": 1.6, "title": "纳斯卡文化", "fontsize": 12, "tyid": "304002", "oid": "103:1576575149589", "color": "#0056E7" }, "geometry": { "type": "Point", "coordinates": [ -75.058594, -14.944785 ] } }
{ "type": "Feature", "tippecanoe": { "layer": "2AFCA09D40801583917275620", "minzoom": 2, "maxzoom": 8 }, "properties": { "halo": 1.6, "title": "塔夫文化", "fontsize": 12, "tyid": "304002", "oid": "103:1576575149537", "color": "#0056E7" }, "geometry": { "type": "Point", "coordinates": [ -65.654297, -26.980829 ] } }
{ "type": "Feature", "tippecanoe": { "layer": "2AFCA09D40801583917275620", "minzoom": 2, "maxzoom": 8 }, "properties": { "halo": 1.6, "title": "豪什人", "fontsize": 12, "tyid": "304001", "oid": "103:1576575149349", "color": "#0056E7" }, "geometry": { "type": "Point", "coordinates": [ -65.917969, -54.724620 ] } }
{ "type": "Feature", "tippecanoe": { "layer": "2AFCA09D40801583917275620", "minzoom": 2, "maxzoom": 8 }, "properties": { "halo": 1.6, "title": "哥得兰人", "fontsize": 12, "tyid": "304001", "oid": "103:1576575149412", "color": "#0056E7" }, "geometry": { "type": "Point", "coordinates": [ 18.457031, 57.515823 ] } }
{ "type": "Feature", "tippecanoe": { "layer": "2AFCA09D40801583917275620", "minzoom": 2, "maxzoom": 8 }, "properties": { "halo": 1.6, "title": "弗里西人", "fontsize": 12, "tyid": "304001", "oid": "103:1576575149808", "color": "#0056E7" }, "geometry": { "type": "Point", "coordinates": [ 6.679688, 52.643063 ] } }
{ "type": "Feature", "tippecanoe": { "layer": "2AFCA09D40801583917275620", "minzoom": 2, "maxzoom": 8 }, "properties": { "halo": 1.6, "title": "盎格鲁人", "fontsize": 12, "tyid": "304001", "oid": "103:1576575149485", "color": "#0056E7" }, "geometry": { "type": "Point", "coordinates": [ 9.316406, 54.622978 ] } }
{ "type": "Feature", "tippecanoe": { "layer": "2AFCA09D40801583917275620", "minzoom": 2, "maxzoom": 8 }, "properties": { "halo": 1.6, "title": "萨克森人", "fontsize": 12, "tyid": "304001", "oid": "103:1576575149661", "color": "#0056E7" }, "geometry": { "type": "Point", "coordinates": [ 10.019531, 54.007769 ] } }
{ "type": "Feature", "tippecanoe": { "layer": "2AFCA09D40801583917275620", "minzoom": 2, "maxzoom": 8 }, "properties": { "halo": 1.6, "title": "查马维人", "fontsize": 12, "tyid": "304001", "oid": "103:1576575149815", "color": "#0056E7" }, "geometry": { "type": "Point", "coordinates": [ 7.119141, 51.944265 ] } }
{ "type": "Feature", "tippecanoe": { "layer": "2AFCA09D40801583917275620", "minzoom": 2, "maxzoom": 8 }, "properties": { "halo": 1.6, "title": "辛坎布雷人", "fontsize": 12, "tyid": "304001", "oid": "103:1576575149655", "color": "#0056E7" }, "geometry": { "type": "Point", "coordinates": [ 7.646484, 51.289406 ] } }
{ "type": "Feature", "tippecanoe": { "layer": "2AFCA09D40801583917275620", "minzoom": 2, "maxzoom": 8 }, "properties": { "halo": 1.6, "title": "布鲁克特人", "fontsize": 12, "tyid": "304001", "oid": "103:1576575149819", "color": "#0056E7" }, "geometry": { "type": "Point", "coordinates": [ 8.437500, 51.998410 ] } }
{ "type": "Feature", "tippecanoe": { "layer": "2AFCA09D40801583917275620", "minzoom": 2, "maxzoom": 8 }, "properties": { "halo": 1.6, "title": "奥耶塞利人", "fontsize": 12, "tyid": "304001", "oid": "103:1576575149406", "color": "#0056E7" }, "geometry": { "type": "Point", "coordinates": [ 22.500000, 58.447733 ] } }
{ "type": "Feature", "tippecanoe": { "layer": "2AFCA09D40801583917275620", "minzoom": 2, "maxzoom": 8 }, "properties": { "halo": 1.6, "title": "科斯多波克人", "fontsize": 12, "tyid": "304001", "oid": "103:1576575149694", "color": "#0056E7" }, "geometry": { "type": "Point", "coordinates": [ 27.597656, 48.166085 ] } }
{ "type": "Feature", "tippecanoe": { "layer": "2AFCA09D40801583917275620", "minzoom": 2, "maxzoom": 8 }, "properties": { "halo": 1.6, "title": "奥里维亚", "fontsize": 12, "tyid": "304002", "oid": "103:1576575149429", "color": "#0056E7" }, "geometry": { "type": "Point", "coordinates": [ 31.816406, 46.679594 ] } }
{ "type": "Feature", "tippecanoe": { "layer": "2AFCA09D40801583917275620", "minzoom": 2, "maxzoom": 8 }, "properties": { "halo": 1.6, "title": "科尔基斯山中诸部", "fontsize": 12, "tyid": "304002", "oid": "103:1576575149693", "color": "#0056E7" }, "geometry": { "type": "Point", "coordinates": [ 41.132812, 43.133061 ] } }
{ "type": "Feature", "tippecanoe": { "layer": "2AFCA09D40801583917275620", "minzoom": 2, "maxzoom": 8 }, "properties": { "halo": 1.8, "title": "埃米萨王朝", "fontsize": 12, "tyid": "304000", "oid": "103:1576575149864", "color": "#0056E7" }, "geometry": { "type": "Point", "coordinates": [ 36.650391, 34.741612 ] } }
{ "type": "Feature", "tippecanoe": { "layer": "2AFCA09D40801583917275620", "minzoom": 2, "maxzoom": 8 }, "properties": { "halo": 1.8, "title": "阿拉巴王国", "fontsize": 12, "tyid": "304000", "oid": "103:1576575149866", "color": "#0056E7" }, "geometry": { "type": "Point", "coordinates": [ 42.363281, 35.532226 ] } }
{ "type": "Feature", "tippecanoe": { "layer": "2AFCA09D40801583917275620", "minzoom": 2, "maxzoom": 8 }, "properties": { "halo": 1.6, "title": "列兹金人", "fontsize": 12, "tyid": "304001", "oid": "103:1576575149642", "color": "#0056E7" }, "geometry": { "type": "Point", "coordinates": [ 47.812500, 41.640078 ] } }
{ "type": "Feature", "tippecanoe": { "layer": "2AFCA09D40801583917275620", "minzoom": 2, "maxzoom": 8 }, "properties": { "halo": 1.8, "title": "西且弥国", "fontsize": 12, "tyid": "304000", "oid": "103:1576575149790", "color": "#0056E7" }, "geometry": { "type": "Point", "coordinates": [ 86.220703, 43.834527 ] } }
{ "type": "Feature", "tippecanoe": { "layer": "2AFCA09D40801583917275620", "minzoom": 2, "maxzoom": 8 }, "properties": { "halo": 1.8, "title": "东且弥国", "fontsize": 12, "tyid": "304000", "oid": "103:1576575149793", "color": "#0056E7" }, "geometry": { "type": "Point", "coordinates": [ 86.923828, 43.707594 ] } }
{ "type": "Feature", "tippecanoe": { "layer": "2AFCA09D40801583917275620", "minzoom": 2, "maxzoom": 8 }, "properties": { "halo": 1.8, "title": "劫国", "fontsize": 12, "tyid": "304000", "oid": "103:1576575149762", "color": "#0056E7" }, "geometry": { "type": "Point", "coordinates": [ 87.802734, 44.150681 ] } }
{ "type": "Feature", "tippecanoe": { "layer": "2AFCA09D40801583917275620", "minzoom": 2, "maxzoom": 8 }, "properties": { "halo": 1.8, "title": "卑陆国", "fontsize": 12, "tyid": "304000", "oid": "103:1576575149399", "color": "#0056E7" }, "geometry": { "type": "Point", "coordinates": [ 87.539062, 43.644026 ] } }
{ "type": "Feature", "tippecanoe": { "layer": "2AFCA09D40801583917275620", "minzoom": 2, "maxzoom": 8 }, "properties": { "halo": 1.8, "title": "依耐国", "fontsize": 12, "tyid": "304000", "oid": "103:1576575149768", "color": "#0056E7" }, "geometry": { "type": "Point", "coordinates": [ 75.937500, 38.616870 ] } }
{ "type": "Feature", "tippecanoe": { "layer": "2AFCA09D40801583917275620", "minzoom": 2, "maxzoom": 8 }, "properties": { "halo": 1.8, "title": "罗昂", "fontsize": 12, "tyid": "304000", "oid": "103:1576575149505", "color": "#0056E7" }, "geometry": { "type": "Point", "coordinates": [ 89.208984, 29.152161 ] } }
{ "type": "Feature", "tippecanoe": { "layer": "2AFCA09D40801583917275620", "minzoom": 2, "maxzoom": 8 }, "properties": { "halo": 1.8, "title": "藏", "fontsize": 12, "tyid": "304000", "oid": "103:1576575149444", "color": "#0056E7" }, "geometry": { "type": "Point", "coordinates": [ 89.736328, 28.844674 ] } }
{ "type": "Feature", "tippecanoe": { "layer": "2AFCA09D40801583917275620", "minzoom": 2, "maxzoom": 8 }, "properties": { "halo": 1.8, "title": "卓木南木松", "fontsize": 12, "tyid": "304000", "oid": "103:1576575149494", "color": "#0056E7" }, "geometry": { "type": "Point", "coordinates": [ 88.945312, 27.839076 ] } }
{ "type": "Feature", "tippecanoe": { "layer": "2AFCA09D40801583917275620", "minzoom": 2, "maxzoom": 8 }, "properties": { "halo": 1.8, "title": "牟湿迦王国", "fontsize": 12, "tyid": "304000", "oid": "103:1576575149500", "color": "#0056E7" }, "geometry": { "type": "Point", "coordinates": [ 75.322266, 12.640338 ] } }
{ "type": "Feature", "tippecanoe": { "layer": "2AFCA09D40801583917275620", "minzoom": 2, "maxzoom": 8 }, "properties": { "halo": 1.8, "title": "阿伊王国", "fontsize": 12, "tyid": "304000", "oid": "103:1576575149827", "color": "#0056E7" }, "geometry": { "type": "Point", "coordinates": [ 77.080078, 8.667918 ] } }
{ "type": "Feature", "tippecanoe": { "layer": "2AFCA09D40801583917275620", "minzoom": 2, "maxzoom": 8 }, "properties": { "halo": 1.8, "title": "吉", "fontsize": 12, "tyid": "304000", "oid": "103:1576575149402", "color": "#0056E7" }, "geometry": { "type": "Point", "coordinates": [ 91.406250, 29.764377 ] } }
{ "type": "Feature", "tippecanoe": { "layer": "2AFCA09D40801583917275620", "minzoom": 2, "maxzoom": 8 }, "properties": { "halo": 1.8, "title": "琛", "fontsize": 12, "tyid": "304000", "oid": "103:1576575149330", "color": "#0056E7" }, "geometry": { "type": "Point", "coordinates": [ 91.230469, 29.382175 ] } }
{ "type": "Feature", "tippecanoe": { "layer": "2AFCA09D40801583917275620", "minzoom": 2, "maxzoom": 8 }, "properties": { "halo": 1.8, "title": "悉补野", "fontsize": 12, "tyid": "304000", "oid": "103:1576575149717", "color": "#0056E7" }, "geometry": { "type": "Point", "coordinates": [ 91.845703, 29.152161 ] } }
{ "type": "Feature", "tippecanoe": { "layer": "2AFCA09D40801583917275620", "minzoom": 2, "maxzoom": 8 }, "properties": { "halo": 1.8, "title": "俄玉邦噶", "fontsize": 12, "tyid": "304000", "oid": "103:1576575149499", "color": "#0056E7" }, "geometry": { "type": "Point", "coordinates": [ 92.548828, 29.152161 ] } }
{ "type": "Feature", "tippecanoe": { "layer": "2AFCA09D40801583917275620", "minzoom": 2, "maxzoom": 8 }, "properties": { "halo": 1.8, "title": "娘", "fontsize": 12, "tyid": "304000", "oid": "103:1576575149419", "color": "#0056E7" }, "geometry": { "type": "Point", "coordinates": [ 93.339844, 29.916852 ] } }
{ "type": "Feature", "tippecanoe": { "layer": "2AFCA09D40801583917275620", "minzoom": 2, "maxzoom": 8 }, "properties": { "halo": 1.8, "title": "贡", "fontsize": 12, "tyid": "304000", "oid": "103:1576575149628", "color": "#0056E7" }, "geometry": { "type": "Point", "coordinates": [ 94.482422, 29.688053 ] } }
{ "type": "Feature", "tippecanoe": { "layer": "2AFCA09D40801583917275620", "minzoom": 2, "maxzoom": 8 }, "properties": { "halo": 1.8, "title": "达", "fontsize": 12, "tyid": "304000", "oid": "103:1576575149397", "color": "#0056E7" }, "geometry": { "type": "Point", "coordinates": [ 93.603516, 29.152161 ] } }
{ "type": "Feature", "tippecanoe": { "layer": "2AFCA09D40801583917275620", "minzoom": 2, "maxzoom": 8 }, "properties": { "halo": 1.6, "title": "宋建", "fontsize": 12, "tyid": "304002", "oid": "103:1576575149817", "color": "#0056E7" }, "geometry": { "type": "Point", "coordinates": [ 102.919922, 35.532226 ] } }
{ "type": "Feature", "tippecanoe": { "layer": "2AFCA09D40801583917275620", "minzoom": 2, "maxzoom": 8 }, "properties": { "halo": 1.8, "title": "狼牙脩国", "fontsize": 12, "tyid": "304000", "oid": "103:1576575149472", "color": "#0056E7" }, "geometry": { "type": "Point", "coordinates": [ 100.810547, 6.140555 ] } }
{ "type": "Feature", "tippecanoe": { "layer": "2AFCA09D40801583917275620", "minzoom": 2, "maxzoom": 8 }, "properties": { "halo": 1.8, "title": "刚迦王国", "fontsize": 12, "tyid": "304000", "oid": "103:1576575149623", "color": "#0056E7" }, "geometry": { "type": "Point", "coordinates": [ 101.074219, 4.828260 ] } }
{ "type": "Feature", "tippecanoe": { "layer": "2AFCA09D40801583917275620", "minzoom": 2, "maxzoom": 8 }, "properties": { "halo": 1.6, "title": "石坛文化", "fontsize": 12, "tyid": "304002", "oid": "103:1576575149492", "color": "#0056E7" }, "geometry": { "type": "Point", "coordinates": [ 103.359375, 19.559790 ] } }
{ "type": "Feature", "tippecanoe": { "layer": "2AFCA09D40801583917275620", "minzoom": 2, "maxzoom": 8 }, "properties": { "halo": 1.6, "title": "番仔园文化", "fontsize": 12, "tyid": "304002", "oid": "103:1576575149851", "color": "#0056E7" }, "geometry": { "type": "Point", "coordinates": [ 120.673828, 24.287027 ] } }
{ "type": "Feature", "tippecanoe": { "layer": "2AFCA09D40801583917275620", "minzoom": 2, "maxzoom": 8 }, "properties": { "halo": 1.6, "title": "茑松文化", "fontsize": 12, "tyid": "304002", "oid": "103:1576575149850", "color": "#0056E7" }, "geometry": { "type": "Point", "coordinates": [ 120.322266, 23.079732 ] } }
{ "type": "Feature", "tippecanoe": { "layer": "2AFCA09D40801583917275620", "minzoom": 2, "maxzoom": 8 }, "properties": { "halo": 1.6, "title": "龟山文化", "fontsize": 12, "tyid": "304002", "oid": "103:1576575149521", "color": "#0056E7" }, "geometry": { "type": "Point", "coordinates": [ 120.673828, 22.512557 ] } }
{ "type": "Feature", "tippecanoe": { "layer": "2AFCA09D40801583917275620", "minzoom": 2, "maxzoom": 8 }, "properties": { "halo": 1.6, "title": "十三行文化", "fontsize": 12, "tyid": "304002", "oid": "103:1576575149524", "color": "#0056E7" }, "geometry": { "type": "Point", "coordinates": [ 121.376953, 24.846565 ] } }
{ "type": "Feature", "tippecanoe": { "layer": "2AFCA09D40801583917275620", "minzoom": 2, "maxzoom": 8 }, "properties": { "halo": 1.6, "title": "静浦文化", "fontsize": 12, "tyid": "304002", "oid": "103:1576575149522", "color": "#0056E7" }, "geometry": { "type": "Point", "coordinates": [ 121.025391, 22.917923 ] } }
{ "type": "Feature", "tippecanoe": { "layer": "2AFCA09D40801583917275620", "minzoom": 2, "maxzoom": 8 }, "properties": { "halo": 1.8, "title": "百济", "fontsize": 12, "tyid": "304000", "oid": "103:1576575149700", "color": "#0056E7" }, "geometry": { "type": "Point", "coordinates": [ 127.089844, 37.300275 ] } }
{ "type": "Feature", "tippecanoe": { "layer": "2AFCA09D40801583917275620", "minzoom": 2, "maxzoom": 8 }, "properties": { "halo": 1.8, "title": "耽罗国", "fontsize": 12, "tyid": "304000", "oid": "103:1576575149504", "color": "#0056E7" }, "geometry": { "type": "Point", "coordinates": [ 126.474609, 33.431441 ] } }
{ "type": "Feature", "tippecanoe": { "layer": "2AFCA09D40801583917275620", "minzoom": 2, "maxzoom": 8 }, "properties": { "halo": 1.6, "title": "弁韩", "fontsize": 12, "tyid": "304001", "oid": "103:1576575149734", "color": "#0056E7" }, "geometry": { "type": "Point", "coordinates": [ 127.968750, 35.317366 ] } }
{ "type": "Feature", "tippecanoe": { "layer": "2AFCA09D40801583917275620", "minzoom": 2, "maxzoom": 8 }, "properties": { "halo": 1.8, "title": "伽倻", "fontsize": 12, "tyid": "304000", "oid": "103:1576575149407", "color": "#0056E7" }, "geometry": { "type": "Point", "coordinates": [ 128.847656, 35.245619 ] } }
{ "type": "Feature", "tippecanoe": { "layer": "2AFCA09D40801583917275620", "minzoom": 2, "maxzoom": 8 }, "properties": { "halo": 1.8, "title": "对马国", "fontsize": 12, "tyid": "304000", "oid": "103:1576575149712", "color": "#0056E7" }, "geometry": { "type": "Point", "coordinates": [ 129.287109, 34.524661 ] } }
{ "type": "Feature", "tippecanoe": { "layer": "2AFCA09D40801583917275620", "minzoom": 2, "maxzoom": 8 }, "properties": { "halo": 1.8, "title": "一支国", "fontsize": 12, "tyid": "304000", "oid": "103:1576575149395", "color": "#0056E7" }, "geometry": { "type": "Point", "coordinates": [ 129.638672, 33.797409 ] } }
{ "type": "Feature", "tippecanoe": { "layer": "2AFCA09D40801583917275620", "minzoom": 2, "maxzoom": 8 }, "properties": { "halo": 1.8, "title": "末卢国", "fontsize": 12, "tyid": "304000", "oid": "103:1576575149484", "color": "#0056E7" }, "geometry": { "type": "Point", "coordinates": [ 129.902344, 33.431441 ] } }
{ "type": "Feature", "tippecanoe": { "layer": "2AFCA09D40801583917275620", "minzoom": 2, "maxzoom": 8 }, "properties": { "halo": 1.8, "title": "伊都国", "fontsize": 12, "tyid": "304000", "oid": "103:1576575149415", "color": "#0056E7" }, "geometry": { "type": "Point", "coordinates": [ 130.166016, 33.578015 ] } }
{ "type": "Feature", "tippecanoe": { "layer": "2AFCA09D40801583917275620", "minzoom": 2, "maxzoom": 8 }, "properties": { "halo": 1.8, "title": "奴国", "fontsize": 12, "tyid": "304000", "oid": "103:1576575149825", "color": "#0056E7" }, "geometry": { "type": "Point", "coordinates": [ 130.605469, 33.724340 ] } }
{ "type": "Feature", "tippecanoe": { "layer": "2AFCA09D40801583917275620", "minzoom": 2, "maxzoom": 8 }, "properties": { "halo": 1.8, "title": "不弥国", "fontsize": 12, "tyid": "304000", "oid": "103:1576575149708", "color": "#0056E7" }, "geometry": { "type": "Point", "coordinates": [ 130.957031, 33.651208 ] } }
{ "type": "Feature", "tippecanoe": { "layer": "2AFCA09D40801583917275620", "minzoom": 2, "maxzoom": 8 }, "properties": { "halo": 1.8, "title": "邪马台国", "fontsize": 12, "tyid": "304000", "oid": "103:1576575149382", "color": "#0056E7" }, "geometry": { "type": "Point", "coordinates": [ 130.869141, 33.137551 ] } }
{ "type": "Feature", "tippecanoe": { "layer": "2AFCA09D40801583917275620", "minzoom": 2, "maxzoom": 8 }, "properties": { "halo": 1.8, "title": "投马国", "fontsize": 12, "tyid": "304000", "oid": "103:1576575149837", "color": "#0056E7" }, "geometry": { "type": "Point", "coordinates": [ 131.220703, 32.249974 ] } }
{ "type": "Feature", "tippecanoe": { "layer": "2AFCA09D40801583917275620", "minzoom": 2, "maxzoom": 8 }, "properties": { "halo": 1.8, "title": "狗奴国", "fontsize": 12, "tyid": "304000", "oid": "103:1576575149498", "color": "#0056E7" }, "geometry": { "type": "Point", "coordinates": [ 130.605469, 31.952162 ] } }
{ "type": "Feature", "tippecanoe": { "layer": "2AFCA09D40801583917275620", "minzoom": 2, "maxzoom": 8 }, "properties": { "halo": 1.6, "title": "尼格利陀人", "fontsize": 12, "tyid": "304001", "oid": "103:1576575149726", "color": "#0056E7" }, "geometry": { "type": "Point", "coordinates": [ 122.431641, 11.264612 ] } }
{ "type": "Feature", "tippecanoe": { "layer": "2AFCA09D40801583917275620", "minzoom": 2, "maxzoom": 8 }, "properties": { "halo": 1.6, "title": "托雷斯海峡岛民", "fontsize": 12, "tyid": "304001", "oid": "103:1576575149475", "color": "#0056E7" }, "geometry": { "type": "Point", "coordinates": [ 142.382812, -11.264612 ] } }
{ "type": "Feature", "tippecanoe": { "layer": "2AFCA0EF4F601583917275623", "minzoom": 2, "maxzoom": 8 }, "properties": { "halo": 0.8, "title": "图勒人", "fontsize": 12, "tyid": "304001", "oid": "103:1576575149844", "color": "#262626" }, "geometry": { "type": "Point", "coordinates": [ -130.781250, 68.942607 ] } }
{ "type": "Feature", "tippecanoe": { "layer": "2AFCA0EF4F601583917275623", "minzoom": 2, "maxzoom": 8 }, "properties": { "halo": 0.8, "title": "诺顿文化", "fontsize": 12, "tyid": "304002", "oid": "103:1576575149463", "color": "#262626" }, "geometry": { "type": "Point", "coordinates": [ -163.740234, 65.330178 ] } }
{ "type": "Feature", "tippecanoe": { "layer": "2AFCA0EF4F601583917275623", "minzoom": 2, "maxzoom": 8 }, "properties": { "halo": 0.8, "title": "尤皮克人", "fontsize": 12, "tyid": "304001", "oid": "103:1576575149515", "color": "#262626" }, "geometry": { "type": "Point", "coordinates": [ -159.169922, 60.630102 ] } }
{ "type": "Feature", "tippecanoe": { "layer": "2AFCA0EF4F601583917275623", "minzoom": 2, "maxzoom": 8 }, "properties": { "halo": 0.8, "title": "因纽皮雅特人", "fontsize": 12, "tyid": "304001", "oid": "103:1576575149480", "color": "#262626" }, "geometry": { "type": "Point", "coordinates": [ -150.908203, 65.476508 ] } }
{ "type": "Feature", "tippecanoe": { "layer": "2AFCA0EF4F601583917275623", "minzoom": 2, "maxzoom": 8 }, "properties": { "halo": 0.8, "title": "阿留申人", "fontsize": 12, "tyid": "304001", "oid": "103:1576575149489", "color": "#262626" }, "geometry": { "type": "Point", "coordinates": [ -152.226562, 61.312452 ] } }
{ "type": "Feature", "tippecanoe": { "layer": "2AFCA0EF4F601583917275623", "minzoom": 2, "maxzoom": 8 }, "properties": { "halo": 0.8, "title": "因纽特人", "fontsize": 12, "tyid": "304001", "oid": "103:1576575149527", "color": "#262626" }, "geometry": { "type": "Point", "coordinates": [ -100.195312, 65.802776 ] } }
{ "type": "Feature", "tippecanoe": { "layer": "2AFCA0EF4F601583917275623", "minzoom": 2, "maxzoom": 8 }, "properties": { "halo": 0.8, "title": "泰萨勒页岩文化", "fontsize": 12, "tyid": "304002", "oid": "103:1576575149531", "color": "#262626" }, "geometry": { "type": "Point", "coordinates": [ -99.316406, 56.800878 ] } }
{ "type": "Feature", "tippecanoe": { "layer": "2AFCA0EF4F601583917275623", "minzoom": 2, "maxzoom": 8 }, "properties": { "halo": 0.8, "title": "坎贝尔文化", "fontsize": 12, "tyid": "304002", "oid": "103:1576575149370", "color": "#262626" }, "geometry": { "type": "Point", "coordinates": [ -121.289062, 38.685510 ] } }
{ "type": "Feature", "tippecanoe": { "layer": "2AFCA0EF4F601583917275623", "minzoom": 2, "maxzoom": 8 }, "properties": { "halo": 0.8, "title": "多赛特文化", "fontsize": 12, "tyid": "304002", "oid": "103:1576575149568", "color": "#262626" }, "geometry": { "type": "Point", "coordinates": [ -69.960938, 67.875541 ] } }
{ "type": "Feature", "tippecanoe": { "layer": "2AFCA0EF4F601583917275623", "minzoom": 2, "maxzoom": 8 }, "properties": { "halo": 0.8, "title": "波茵特半岛文化", "fontsize": 12, "tyid": "304002", "oid": "103:1576575149755", "color": "#262626" }, "geometry": { "type": "Point", "coordinates": [ -76.816406, 45.336702 ] } }
{ "type": "Feature", "tippecanoe": { "layer": "2AFCA0EF4F601583917275623", "minzoom": 2, "maxzoom": 8 }, "properties": { "halo": 0.8, "title": "古海洋文化", "fontsize": 12, "tyid": "304002", "oid": "103:1576575149529", "color": "#262626" }, "geometry": { "type": "Point", "coordinates": [ -66.972656, 46.920255 ] } }
{ "type": "Feature", "tippecanoe": { "layer": "2AFCA0EF4F601583917275623", "minzoom": 2, "maxzoom": 8 }, "properties": { "halo": 0.8, "title": "巴富尔人", "fontsize": 12, "tyid": "304001", "oid": "103:1576575149372", "color": "#262626" }, "geometry": { "type": "Point", "coordinates": [ -8.261719, 22.755921 ] } }
{ "type": "Feature", "tippecanoe": { "layer": "2AFCA0EF4F601583917275623", "minzoom": 2, "maxzoom": 8 }, "properties": { "halo": 0.8, "title": "索宁克人", "fontsize": 12, "tyid": "304001", "oid": "103:1576575149435", "color": "#262626" }, "geometry": { "type": "Point", "coordinates": [ -10.195312, 16.551962 ] } }
{ "type": "Feature", "tippecanoe": { "layer": "2AFCA0EF4F601583917275623", "minzoom": 2, "maxzoom": 8 }, "properties": { "halo": 0.8, "title": "曼德人", "fontsize": 12, "tyid": "304001", "oid": "103:1576575149687", "color": "#262626" }, "geometry": { "type": "Point", "coordinates": [ -7.558594, 8.146243 ] } }
{ "type": "Feature", "tippecanoe": { "layer": "2AFCA0EF4F601583917275623", "minzoom": 2, "maxzoom": 8 }, "properties": { "halo": 0.8, "title": "图皮人", "fontsize": 12, "tyid": "304001", "oid": "103:1576575149760", "color": "#262626" }, "geometry": { "type": "Point", "coordinates": [ -47.812500, -23.966176 ] } }
{ "type": "Feature", "tippecanoe": { "layer": "2AFCA0EF4F601583917275623", "minzoom": 2, "maxzoom": 8 }, "properties": { "halo": 0.8, "title": "萨米人", "fontsize": 12, "tyid": "304001", "oid": "103:1576575149759", "color": "#262626" }, "geometry": { "type": "Point", "coordinates": [ 25.400391, 68.171555 ] } }
{ "type": "Feature", "tippecanoe": { "layer": "2AFCA0EF4F601583917275623", "minzoom": 2, "maxzoom": 8 }, "properties": { "halo": 0.8, "title": "原始日耳曼人", "fontsize": 12, "tyid": "304001", "oid": "103:1576575149562", "color": "#262626" }, "geometry": { "type": "Point", "coordinates": [ 8.437500, 60.500525 ] } }
{ "type": "Feature", "tippecanoe": { "layer": "2AFCA0EF4F601583917275623", "minzoom": 2, "maxzoom": 8 }, "properties": { "halo": 0.8, "title": "古瑞典人", "fontsize": 12, "tyid": "304001", "oid": "103:1576575149779", "color": "#262626" }, "geometry": { "type": "Point", "coordinates": [ 15.820312, 61.312452 ] } }
{ "type": "Feature", "tippecanoe": { "layer": "2AFCA0EF4F601583917275623", "minzoom": 2, "maxzoom": 8 }, "properties": { "halo": 0.8, "title": "罗马帝国", "fontsize": 12, "tyid": "304000", "oid": "103:1576575149681", "color": "#202020" }, "geometry": { "type": "Point", "coordinates": [ 10.107422, 46.860191 ] } }
{ "type": "Feature", "tippecanoe": { "layer": "2AFCA0EF4F601583917275623", "minzoom": 2, "maxzoom": 8 }, "properties": { "halo": 0.8, "title": "芬尼人", "fontsize": 12, "tyid": "304001", "oid": "103:1576575149774", "color": "#262626" }, "geometry": { "type": "Point", "coordinates": [ 29.970703, 64.510643 ] } }
{ "type": "Feature", "tippecanoe": { "layer": "2AFCA0EF4F601583917275623", "minzoom": 2, "maxzoom": 8 }, "properties": { "halo": 0.8, "title": "第聂伯河波罗的人", "fontsize": 12, "tyid": "304001", "oid": "103:1576575149772", "color": "#262626" }, "geometry": { "type": "Point", "coordinates": [ 33.222656, 56.413901 ] } }
{ "type": "Feature", "tippecanoe": { "layer": "2AFCA0EF4F601583917275623", "minzoom": 2, "maxzoom": 8 }, "properties": { "halo": 0.8, "title": "波罗的人", "fontsize": 12, "tyid": "304002", "oid": "103:1576575149556", "color": "#262626" }, "geometry": { "type": "Point", "coordinates": [ 24.521484, 54.724620 ] } }
{ "type": "Feature", "tippecanoe": { "layer": "2AFCA0EF4F601583917275623", "minzoom": 2, "maxzoom": 8 }, "properties": { "halo": 0.8, "title": "维内德人", "fontsize": 12, "tyid": "304001", "oid": "103:1576575149587", "color": "#262626" }, "geometry": { "type": "Point", "coordinates": [ 28.125000, 51.672555 ] } }
{ "type": "Feature", "tippecanoe": { "layer": "2AFCA0EF4F601583917275623", "minzoom": 2, "maxzoom": 8 }, "properties": { "halo": 0.8, "title": "伏尔加芬兰人", "fontsize": 12, "tyid": "304001", "oid": "103:1576575149584", "color": "#262626" }, "geometry": { "type": "Point", "coordinates": [ 42.890625, 55.528631 ] } }
{ "type": "Feature", "tippecanoe": { "layer": "2AFCA0EF4F601583917275623", "minzoom": 2, "maxzoom": 8 }, "properties": { "halo": 0.8, "title": "柏柏尔人诸部", "fontsize": 12, "tyid": "304001", "oid": "103:1576575149427", "color": "#262626" }, "geometry": { "type": "Point", "coordinates": [ 2.900391, 25.165173 ] } }
{ "type": "Feature", "tippecanoe": { "layer": "2AFCA0EF4F601583917275623", "minzoom": 2, "maxzoom": 8 }, "properties": { "halo": 0.8, "title": "加拉曼特人", "fontsize": 12, "tyid": "304001", "oid": "103:1576575149403", "color": "#262626" }, "geometry": { "type": "Point", "coordinates": [ 18.544922, 26.980829 ] } }
{ "type": "Feature", "tippecanoe": { "layer": "2AFCA0EF4F601583917275623", "minzoom": 2, "maxzoom": 8 }, "properties": { "halo": 0.8, "title": "诺克文化", "fontsize": 12, "tyid": "304002", "oid": "103:1576575149644", "color": "#262626" }, "geometry": { "type": "Point", "coordinates": [ 7.119141, 10.574222 ] } }
{ "type": "Feature", "tippecanoe": { "layer": "2AFCA0EF4F601583917275623", "minzoom": 2, "maxzoom": 8 }, "properties": { "halo": 0.8, "title": "萨奥文明", "fontsize": 12, "tyid": "304002", "oid": "103:1576575149698", "color": "#262626" }, "geometry": { "type": "Point", "coordinates": [ 15.380859, 13.325485 ] } }
{ "type": "Feature", "tippecanoe": { "layer": "2AFCA0EF4F601583917275623", "minzoom": 2, "maxzoom": 8 }, "properties": { "halo": 0.8, "title": "巴卡人", "fontsize": 12, "tyid": "304001", "oid": "103:1576575149667", "color": "#262626" }, "geometry": { "type": "Point", "coordinates": [ 18.105469, 5.441022 ] } }
{ "type": "Feature", "tippecanoe": { "layer": "2AFCA0EF4F601583917275623", "minzoom": 2, "maxzoom": 8 }, "properties": { "halo": 0.8, "title": "亚美尼亚阿萨息斯王朝", "fontsize": 12, "tyid": "304000", "oid": "103:1576575149852", "color": "#202020" }, "geometry": { "type": "Point", "coordinates": [ 43.505859, 39.300299 ] } }
{ "type": "Feature", "tippecanoe": { "layer": "2AFCA0EF4F601583917275623", "minzoom": 2, "maxzoom": 8 }, "properties": { "halo": 0.8, "title": "塔努联盟", "fontsize": 12, "tyid": "304002", "oid": "103:1576575149636", "color": "#262626" }, "geometry": { "type": "Point", "coordinates": [ 39.902344, 32.768800 ] } }
{ "type": "Feature", "tippecanoe": { "layer": "2AFCA0EF4F601583917275623", "minzoom": 2, "maxzoom": 8 }, "properties": { "halo": 0.8, "title": "贝都因人", "fontsize": 12, "tyid": "304001", "oid": "103:1576575149633", "color": "#262626" }, "geometry": { "type": "Point", "coordinates": [ 40.957031, 26.745610 ] } }
{ "type": "Feature", "tippecanoe": { "layer": "2AFCA0EF4F601583917275623", "minzoom": 2, "maxzoom": 8 }, "properties": { "halo": 0.8, "title": "北非贝都因人", "fontsize": 12, "tyid": "304001", "oid": "103:1576575149696", "color": "#262626" }, "geometry": { "type": "Point", "coordinates": [ 22.763672, 20.879343 ] } }
{ "type": "Feature", "tippecanoe": { "layer": "2AFCA0EF4F601583917275623", "minzoom": 2, "maxzoom": 8 }, "properties": { "halo": 0.8, "title": "札加瓦人", "fontsize": 12, "tyid": "304001", "oid": "103:1576575149425", "color": "#262626" }, "geometry": { "type": "Point", "coordinates": [ 22.675781, 15.538376 ] } }
{ "type": "Feature", "tippecanoe": { "layer": "2AFCA0EF4F601583917275623", "minzoom": 2, "maxzoom": 8 }, "properties": { "halo": 0.8, "title": "富尔人", "fontsize": 12, "tyid": "304001", "oid": "103:1576575149417", "color": "#262626" }, "geometry": { "type": "Point", "coordinates": [ 26.015625, 12.983148 ] } }
{ "type": "Feature", "tippecanoe": { "layer": "2AFCA0EF4F601583917275623", "minzoom": 2, "maxzoom": 8 }, "properties": { "halo": 0.8, "title": "库施王国", "fontsize": 12, "tyid": "304000", "oid": "103:1576575149404", "color": "#202020" }, "geometry": { "type": "Point", "coordinates": [ 32.255859, 18.729502 ] } }
{ "type": "Feature", "tippecanoe": { "layer": "2AFCA0EF4F601583917275623", "minzoom": 2, "maxzoom": 8 }, "properties": { "halo": 0.8, "title": "尼罗特人", "fontsize": 12, "tyid": "304001", "oid": "103:1576575149383", "color": "#262626" }, "geometry": { "type": "Point", "coordinates": [ 33.134766, 1.406109 ] } }
{ "type": "Feature", "tippecanoe": { "layer": "2AFCA0EF4F601583917275623", "minzoom": 2, "maxzoom": 8 }, "properties": { "halo": 0.8, "title": "阿克苏姆王国", "fontsize": 12, "tyid": "304000", "oid": "103:1576575149835", "color": "#202020" }, "geometry": { "type": "Point", "coordinates": [ 39.990234, 13.325485 ] } }
{ "type": "Feature", "tippecanoe": { "layer": "2AFCA0EF4F601583917275623", "minzoom": 2, "maxzoom": 8 }, "properties": { "halo": 0.8, "title": "卢欧诸部", "fontsize": 12, "tyid": "304001", "oid": "103:1576575149455", "color": "#262626" }, "geometry": { "type": "Point", "coordinates": [ 35.068359, 8.581021 ] } }
{ "type": "Feature", "tippecanoe": { "layer": "2AFCA0EF4F601583917275623", "minzoom": 2, "maxzoom": 8 }, "properties": { "halo": 0.8, "title": "库希特人", "fontsize": 12, "tyid": "304001", "oid": "103:1576575149709", "color": "#262626" }, "geometry": { "type": "Point", "coordinates": [ 44.736328, 5.703448 ] } }
{ "type": "Feature", "tippecanoe": { "layer": "2AFCA0EF4F601583917275623", "minzoom": 2, "maxzoom": 8 }, "properties": { "halo": 0.8, "title": "阿扎尼亚诸城邦", "fontsize": 12, "tyid": "304002", "oid": "103:1576575149724", "color": "#262626" }, "geometry": { "type": "Point", "coordinates": [ 40.166016, 0.087891 ] } }
{ "type": "Feature", "tippecanoe": { "layer": "2AFCA0EF4F601583917275623", "minzoom": 2, "maxzoom": 8 }, "properties": { "halo": 0.8, "title": "彼尔姆人", "fontsize": 12, "tyid": "304001", "oid": "103:1576575149662", "color": "#262626" }, "geometry": { "type": "Point", "coordinates": [ 55.722656, 57.704147 ] } }
{ "type": "Feature", "tippecanoe": { "layer": "2AFCA0EF4F601583917275623", "minzoom": 2, "maxzoom": 8 }, "properties": { "halo": 0.8, "title": "东马扎尔人", "fontsize": 12, "tyid": "304001", "oid": "103:1576575149848", "color": "#262626" }, "geometry": { "type": "Point", "coordinates": [ 59.238281, 61.396719 ] } }
{ "type": "Feature", "tippecanoe": { "layer": "2AFCA0EF4F601583917275623", "minzoom": 2, "maxzoom": 8 }, "properties": { "halo": 0.8, "title": "萨尔马提亚人", "fontsize": 12, "tyid": "304001", "oid": "103:1576575149797", "color": "#262626" }, "geometry": { "type": "Point", "coordinates": [ 52.382812, 53.067627 ] } }
{ "type": "Feature", "tippecanoe": { "layer": "2AFCA0EF4F601583917275623", "minzoom": 2, "maxzoom": 8 }, "properties": { "halo": 0.8, "title": "阿兰人", "fontsize": 12, "tyid": "304001", "oid": "103:1576575149545", "color": "#262626" }, "geometry": { "type": "Point", "coordinates": [ 49.570312, 48.864715 ] } }
{ "type": "Feature", "tippecanoe": { "layer": "2AFCA0EF4F601583917275623", "minzoom": 2, "maxzoom": 8 }, "properties": { "halo": 0.8, "title": "康居国", "fontsize": 12, "tyid": "304001", "oid": "103:1576575149757", "color": "#262626" }, "geometry": { "type": "Point", "coordinates": [ 67.324219, 45.767523 ] } }
{ "type": "Feature", "tippecanoe": { "layer": "2AFCA0EF4F601583917275623", "minzoom": 2, "maxzoom": 8 }, "properties": { "halo": 0.8, "title": "汉特人", "fontsize": 12, "tyid": "304001", "oid": "103:1576575149775", "color": "#262626" }, "geometry": { "type": "Point", "coordinates": [ 70.048828, 61.606396 ] } }
{ "type": "Feature", "tippecanoe": { "layer": "2AFCA0EF4F601583917275623", "minzoom": 2, "maxzoom": 8 }, "properties": { "halo": 0.8, "title": "曼西人", "fontsize": 12, "tyid": "304001", "oid": "103:1576575149581", "color": "#262626" }, "geometry": { "type": "Point", "coordinates": [ 67.675781, 57.562995 ] } }
{ "type": "Feature", "tippecanoe": { "layer": "2AFCA0EF4F601583917275623", "minzoom": 2, "maxzoom": 8 }, "properties": { "halo": 0.8, "title": "库莱文化", "fontsize": 12, "tyid": "304002", "oid": "103:1576575149557", "color": "#262626" }, "geometry": { "type": "Point", "coordinates": [ 82.968750, 57.562995 ] } }
{ "type": "Feature", "tippecanoe": { "layer": "2AFCA0EF4F601583917275623", "minzoom": 2, "maxzoom": 8 }, "properties": { "halo": 0.8, "title": "萨迦蒂安文化", "fontsize": 12, "tyid": "304002", "oid": "103:1576575149551", "color": "#262626" }, "geometry": { "type": "Point", "coordinates": [ 70.751953, 53.278353 ] } }
{ "type": "Feature", "tippecanoe": { "layer": "2AFCA0EF4F601583917275623", "minzoom": 2, "maxzoom": 8 }, "properties": { "halo": 0.8, "title": "悦般国", "fontsize": 12, "tyid": "304000", "oid": "103:1576575149640", "color": "#202020" }, "geometry": { "type": "Point", "coordinates": [ 81.123047, 46.619261 ] } }
{ "type": "Feature", "tippecanoe": { "layer": "2AFCA0EF4F601583917275623", "minzoom": 2, "maxzoom": 8 }, "properties": { "halo": 0.8, "title": "乌孙国", "fontsize": 12, "tyid": "304000", "oid": "103:1576575149338", "color": "#202020" }, "geometry": { "type": "Point", "coordinates": [ 79.716797, 43.133061 ] } }
{ "type": "Feature", "tippecanoe": { "layer": "2AFCA0EF4F601583917275623", "minzoom": 2, "maxzoom": 8 }, "properties": { "halo": 0.8, "title": "帕提亚帝国", "fontsize": 12, "tyid": "304000", "oid": "103:1576575149873", "color": "#202020" }, "geometry": { "type": "Point", "coordinates": [ 54.404297, 33.797409 ] } }
{ "type": "Feature", "tippecanoe": { "layer": "2AFCA0EF4F601583917275623", "minzoom": 2, "maxzoom": 8 }, "properties": { "halo": 0.8, "title": "肯德部落", "fontsize": 12, "tyid": "304001", "oid": "103:1576575149632", "color": "#262626" }, "geometry": { "type": "Point", "coordinates": [ 45.703125, 22.024546 ] } }
{ "type": "Feature", "tippecanoe": { "layer": "2AFCA0EF4F601583917275623", "minzoom": 2, "maxzoom": 8 }, "properties": { "halo": 0.8, "title": "索马里诸城邦", "fontsize": 12, "tyid": "304002", "oid": "103:1576575149743", "color": "#262626" }, "geometry": { "type": "Point", "coordinates": [ 47.636719, 8.928487 ] } }
{ "type": "Feature", "tippecanoe": { "layer": "2AFCA0EF4F601583917275623", "minzoom": 2, "maxzoom": 8 }, "properties": { "halo": 0.8, "title": "贵霜帝国", "fontsize": 12, "tyid": "304000", "oid": "103:1576575149357", "color": "#202020" }, "geometry": { "type": "Point", "coordinates": [ 71.630859, 30.069094 ] } }
{ "type": "Feature", "tippecanoe": { "layer": "2AFCA0EF4F601583917275623", "minzoom": 2, "maxzoom": 8 }, "properties": { "halo": 0.8, "title": "鄯善国", "fontsize": 12, "tyid": "304000", "oid": "103:1576575149783", "color": "#202020" }, "geometry": { "type": "Point", "coordinates": [ 87.978516, 38.410558 ] } }
{ "type": "Feature", "tippecanoe": { "layer": "2AFCA0EF4F601583917275623", "minzoom": 2, "maxzoom": 8 }, "properties": { "halo": 0.8, "title": "唐旄国", "fontsize": 12, "tyid": "304000", "oid": "103:1576575149436", "color": "#202020" }, "geometry": { "type": "Point", "coordinates": [ 87.011719, 34.161818 ] } }
{ "type": "Feature", "tippecanoe": { "layer": "2AFCA0EF4F601583917275623", "minzoom": 2, "maxzoom": 8 }, "properties": { "halo": 0.8, "title": "象雄王国", "fontsize": 12, "tyid": "304000", "oid": "103:1576575149333", "color": "#202020" }, "geometry": { "type": "Point", "coordinates": [ 81.562500, 31.877558 ] } }
{ "type": "Feature", "tippecanoe": { "layer": "2AFCA0EF4F601583917275623", "minzoom": 2, "maxzoom": 8 }, "properties": { "halo": 0.8, "title": "百乘王朝", "fontsize": 12, "tyid": "304000", "oid": "103:1576575149692", "color": "#202020" }, "geometry": { "type": "Point", "coordinates": [ 78.046875, 18.895893 ] } }
{ "type": "Feature", "tippecanoe": { "layer": "2AFCA0EF4F601583917275623", "minzoom": 2, "maxzoom": 8 }, "properties": { "halo": 0.8, "title": "坚昆", "fontsize": 12, "tyid": "304001", "oid": "103:1576575149396", "color": "#262626" }, "geometry": { "type": "Point", "coordinates": [ 92.724609, 54.059388 ] } }
{ "type": "Feature", "tippecanoe": { "layer": "2AFCA0EF4F601583917275623", "minzoom": 2, "maxzoom": 8 }, "properties": { "halo": 0.8, "title": "丁零", "fontsize": 12, "tyid": "304001", "oid": "103:1576575149491", "color": "#262626" }, "geometry": { "type": "Point", "coordinates": [ 110.830078, 53.067627 ] } }
{ "type": "Feature", "tippecanoe": { "layer": "2AFCA0EF4F601583917275623", "minzoom": 2, "maxzoom": 8 }, "properties": { "halo": 0.8, "title": "鲜卑", "fontsize": 12, "tyid": "304001", "oid": "103:1576575149549", "color": "#262626" }, "geometry": { "type": "Point", "coordinates": [ 105.468750, 45.398450 ] } }
{ "type": "Feature", "tippecanoe": { "layer": "2AFCA0EF4F601583917275623", "minzoom": 2, "maxzoom": 8 }, "properties": { "halo": 0.8, "title": "通古斯人", "fontsize": 12, "tyid": "304001", "oid": "103:1576575149626", "color": "#262626" }, "geometry": { "type": "Point", "coordinates": [ 116.718750, 60.759160 ] } }
{ "type": "Feature", "tippecanoe": { "layer": "2AFCA0EF4F601583917275623", "minzoom": 2, "maxzoom": 8 }, "properties": { "halo": 0.8, "title": "扶余", "fontsize": 12, "tyid": "304000", "oid": "103:1576575149737", "color": "#202020" }, "geometry": { "type": "Point", "coordinates": [ 124.892578, 45.089036 ] } }
{ "type": "Feature", "tippecanoe": { "layer": "2AFCA0EF4F601583917275623", "minzoom": 2, "maxzoom": 8 }, "properties": { "halo": 0.8, "title": "挹娄", "fontsize": 12, "tyid": "304001", "oid": "103:1576575149673", "color": "#262626" }, "geometry": { "type": "Point", "coordinates": [ 132.451172, 47.100045 ] } }
{ "type": "Feature", "tippecanoe": { "layer": "2AFCA0EF4F601583917275623", "minzoom": 2, "maxzoom": 8 }, "properties": { "halo": 0.8, "title": "苏毗", "fontsize": 12, "tyid": "304001", "oid": "103:1576575149332", "color": "#262626" }, "geometry": { "type": "Point", "coordinates": [ 93.515625, 33.137551 ] } }
{ "type": "Feature", "tippecanoe": { "layer": "2AFCA0EF4F601583917275623", "minzoom": 2, "maxzoom": 8 }, "properties": { "halo": 0.8, "title": "古羌人", "fontsize": 12, "tyid": "304001", "oid": "103:1576575149609", "color": "#262626" }, "geometry": { "type": "Point", "coordinates": [ 100.458984, 32.175612 ] } }
{ "type": "Feature", "tippecanoe": { "layer": "2AFCA0EF4F601583917275623", "minzoom": 2, "maxzoom": 8 }, "properties": { "halo": 0.8, "title": "刘璋", "fontsize": 12, "tyid": "304002", "oid": "103:1576575149624", "color": "#262626" }, "geometry": { "type": "Point", "coordinates": [ 105.644531, 30.372875 ] } }
{ "type": "Feature", "tippecanoe": { "layer": "2AFCA0EF4F601583917275623", "minzoom": 2, "maxzoom": 8 }, "properties": { "halo": 0.8, "title": "东汉", "fontsize": 12, "tyid": "304000", "oid": "103:1576575149616", "color": "#202020" }, "geometry": { "type": "Point", "coordinates": [ 105.380859, 25.244696 ] } }
{ "type": "Feature", "tippecanoe": { "layer": "2AFCA0EF4F601583917275623", "minzoom": 2, "maxzoom": 8 }, "properties": { "halo": 0.8, "title": "刘备", "fontsize": 12, "tyid": "304002", "oid": "103:1576575149622", "color": "#262626" }, "geometry": { "type": "Point", "coordinates": [ 111.708984, 28.536275 ] } }
{ "type": "Feature", "tippecanoe": { "layer": "2AFCA0EF4F601583917275623", "minzoom": 2, "maxzoom": 8 }, "properties": { "halo": 0.8, "title": "扶南王国", "fontsize": 12, "tyid": "304000", "oid": "103:1576575149354", "color": "#202020" }, "geometry": { "type": "Point", "coordinates": [ 103.710938, 12.468760 ] } }
{ "type": "Feature", "tippecanoe": { "layer": "2AFCA0EF4F601583917275623", "minzoom": 2, "maxzoom": 8 }, "properties": { "halo": 0.8, "title": "曹操", "fontsize": 12, "tyid": "304002", "oid": "103:1576575149619", "color": "#262626" }, "geometry": { "type": "Point", "coordinates": [ 115.751953, 35.675147 ] } }
{ "type": "Feature", "tippecanoe": { "layer": "2AFCA0EF4F601583917275623", "minzoom": 2, "maxzoom": 8 }, "properties": { "halo": 0.8, "title": "孙权", "fontsize": 12, "tyid": "304002", "oid": "103:1576575149630", "color": "#262626" }, "geometry": { "type": "Point", "coordinates": [ 117.861328, 27.994401 ] } }
{ "type": "Feature", "tippecanoe": { "layer": "2AFCA0EF4F601583917275623", "minzoom": 2, "maxzoom": 8 }, "properties": { "halo": 0.8, "title": "南岛人", "fontsize": 12, "tyid": "304001", "oid": "103:1576575149526", "color": "#262626" }, "geometry": { "type": "Point", "coordinates": [ 114.169922, 0.878872 ] } }
{ "type": "Feature", "tippecanoe": { "layer": "2AFCA0EF4F601583917275623", "minzoom": 2, "maxzoom": 8 }, "properties": { "halo": 0.8, "title": "尤卡吉尔人", "fontsize": 12, "tyid": "304001", "oid": "103:1576575149362", "color": "#262626" }, "geometry": { "type": "Point", "coordinates": [ 155.214844, 64.886265 ] } }
{ "type": "Feature", "tippecanoe": { "layer": "2AFCA0EF4F601583917275623", "minzoom": 2, "maxzoom": 8 }, "properties": { "halo": 0.8, "title": "尼夫赫人", "fontsize": 12, "tyid": "304001", "oid": "103:1576575149513", "color": "#262626" }, "geometry": { "type": "Point", "coordinates": [ 138.779297, 51.890054 ] } }
{ "type": "Feature", "tippecanoe": { "layer": "2AFCA0EF4F601583917275623", "minzoom": 2, "maxzoom": 8 }, "properties": { "halo": 0.8, "title": "科里亚克族", "fontsize": 12, "tyid": "304001", "oid": "103:1576575149822", "color": "#262626" }, "geometry": { "type": "Point", "coordinates": [ 164.882812, 61.814664 ] } }
{ "type": "Feature", "tippecanoe": { "layer": "2AFCA0EF4F601583917275623", "minzoom": 2, "maxzoom": 8 }, "properties": { "halo": 0.8, "title": "楚科奇人", "fontsize": 12, "tyid": "304001", "oid": "103:1576575149459", "color": "#262626" }, "geometry": { "type": "Point", "coordinates": [ 171.035156, 66.443107 ] } }
{ "type": "Feature", "tippecanoe": { "layer": "2AFCA0EF4F601583917275623", "minzoom": 2, "maxzoom": 8 }, "properties": { "halo": 0.8, "title": "西北班图人诸部", "fontsize": 12, "tyid": "304001", "oid": "103:1576575149727", "color": "#262626" }, "geometry": { "type": "Point", "coordinates": [ 20.742188, -0.527336 ] } }
{ "type": "Feature", "tippecanoe": { "layer": "2AFCA0EF4F601583917275623", "minzoom": 2, "maxzoom": 8 }, "properties": { "halo": 0.8, "title": "西班图人诸部", "fontsize": 12, "tyid": "304001", "oid": "103:1576575149647", "color": "#262626" }, "geometry": { "type": "Point", "coordinates": [ 21.621094, -9.709057 ] } }
{ "type": "Feature", "tippecanoe": { "layer": "2AFCA0EF4F601583917275623", "minzoom": 2, "maxzoom": 8 }, "properties": { "halo": 0.8, "title": "科伊桑人", "fontsize": 12, "tyid": "304001", "oid": "103:1576575149451", "color": "#262626" }, "geometry": { "type": "Point", "coordinates": [ 22.148438, -24.126702 ] } }
{ "type": "Feature", "tippecanoe": { "layer": "2AFCA0EF4F601583917275623", "minzoom": 2, "maxzoom": 8 }, "properties": { "halo": 0.8, "title": "东班图人诸部", "fontsize": 12, "tyid": "304001", "oid": "103:1576575149341", "color": "#262626" }, "geometry": { "type": "Point", "coordinates": [ 32.167969, -13.496473 ] } }
{ "type": "Feature", "tippecanoe": { "layer": "2AFCA0EF4F601583917275623", "minzoom": 2, "maxzoom": 8 }, "properties": { "halo": 0.8, "title": "澳洲原住民", "fontsize": 12, "tyid": "304001", "oid": "103:1576575149392", "color": "#262626" }, "geometry": { "type": "Point", "coordinates": [ 134.296875, -25.562265 ] } }
{ "type": "Feature", "tippecanoe": { "layer": "2AFCA0EF4F601583917275623", "minzoom": 2, "maxzoom": 8 }, "properties": { "halo": 0.8, "title": "巴布亚人", "fontsize": 12, "tyid": "304001", "oid": "103:1576575149327", "color": "#262626" }, "geometry": { "type": "Point", "coordinates": [ 140.888672, -5.266008 ] } }
{ "type": "Feature", "tippecanoe": { "layer": "2AFCA12C24701583917275635", "minzoom": 2, "maxzoom": 8 }, "properties": { "tyid": "410000", "centroid": "{\"type\":\"Point\",\"coordinates\":[102.890655519,50.32448578]}", "opacity": 1, "oid": "103:1582721307215", "color": "#A11300", "width": 3 }, "geometry": { "type": "MultiLineString", "coordinates": [ [ [ 108.017578, 21.616579 ], [ 106.611328, 22.024546 ], [ 106.523438, 22.512557 ], [ 106.699219, 22.836946 ], [ 105.820312, 22.998852 ], [ 105.205078, 23.402765 ], [ 103.886719, 22.512557 ], [ 103.535156, 22.836946 ], [ 103.183594, 22.105999 ], [ 102.480469, 22.512557 ], [ 101.777344, 21.861499 ], [ 101.689453, 21.207459 ], [ 101.162109, 21.207459 ], [ 100.986328, 21.779905 ], [ 100.195312, 21.534847 ], [ 99.843750, 22.105999 ], [ 99.140625, 22.187405 ], [ 99.228516, 22.917923 ], [ 98.437500, 23.079732 ], [ 98.701172, 23.402765 ], [ 98.349609, 23.966176 ], [ 98.525391, 24.206890 ], [ 97.294922, 23.805450 ], [ 97.470703, 25.324167 ], [ 98.261719, 26.431228 ], [ 98.701172, 26.667096 ], [ 98.613281, 27.605671 ], [ 98.261719, 27.605671 ], [ 98.085938, 28.226970 ], [ 97.558594, 28.536275 ], [ 97.031250, 27.761330 ], [ 96.240234, 28.304381 ], [ 95.625000, 28.304381 ], [ 94.218750, 27.605671 ], [ 93.691406, 27.059126 ], [ 92.988281, 26.902477 ], [ 92.021484, 26.902477 ], [ 92.109375, 27.371767 ], [ 91.494141, 27.605671 ], [ 91.494141, 27.916767 ], [ 90.791016, 28.071980 ] ], [ [ 130.605469, 42.293564 ], [ 130.166016, 42.940339 ], [ 129.814453, 43.004647 ], [ 129.638672, 42.488302 ], [ 129.287109, 42.423457 ], [ 128.847656, 42.032974 ], [ 127.968750, 42.032974 ], [ 128.232422, 41.574361 ], [ 128.056641, 41.442726 ], [ 127.177734, 41.508577 ], [ 126.826172, 41.836828 ], [ 125.947266, 40.913513 ], [ 124.804688, 40.513799 ], [ 124.277344, 40.044438 ] ], [ [ 135.263672, 54.775346 ], [ 132.978516, 54.162434 ], [ 130.517578, 54.110943 ], [ 131.835938, 54.927142 ], [ 131.044922, 55.677584 ], [ 129.462891, 55.776573 ], [ 128.759766, 55.528631 ], [ 127.705078, 55.727110 ], [ 126.123047, 55.627996 ], [ 125.859375, 55.825973 ], [ 124.804688, 55.924586 ], [ 123.134766, 54.775346 ], [ 121.376953, 54.265224 ], [ 121.025391, 54.521081 ], [ 120.234375, 54.162434 ], [ 119.267578, 54.007769 ], [ 119.003906, 53.383328 ], [ 119.179688, 53.120405 ], [ 120.058594, 53.488046 ], [ 121.201172, 53.540307 ], [ 121.376953, 53.383328 ], [ 120.761719, 53.278353 ], [ 119.970703, 52.802761 ], [ 120.058594, 52.589701 ], [ 120.673828, 52.536273 ], [ 120.673828, 51.998410 ], [ 120.058594, 51.672555 ], [ 119.091797, 50.401515 ], [ 119.355469, 50.401515 ], [ 119.267578, 50.120578 ], [ 118.037109, 49.610710 ], [ 116.191406, 50.064192 ], [ 115.312500, 49.951220 ], [ 114.960938, 50.233152 ], [ 114.257812, 50.289339 ], [ 112.675781, 49.496675 ], [ 110.654297, 49.152970 ], [ 108.457031, 49.382373 ], [ 107.929688, 49.724479 ], [ 107.929688, 49.951220 ], [ 107.050781, 50.064192 ], [ 106.523438, 50.345460 ], [ 105.292969, 50.513427 ], [ 103.974609, 50.176898 ], [ 103.271484, 50.233152 ], [ 102.216797, 50.625073 ], [ 102.041016, 51.399206 ], [ 98.964844, 52.106505 ], [ 98.613281, 52.482780 ], [ 98.876953, 52.908902 ], [ 99.140625, 52.961875 ], [ 98.789062, 53.173119 ], [ 98.173828, 53.120405 ], [ 96.767578, 53.800651 ], [ 96.416016, 53.592505 ], [ 94.658203, 53.435719 ], [ 94.394531, 52.961875 ], [ 94.130859, 52.908902 ], [ 93.515625, 52.214339 ], [ 92.812500, 51.890054 ], [ 91.054688, 51.890054 ], [ 90.175781, 52.696361 ], [ 87.802734, 53.383328 ], [ 86.396484, 53.173119 ], [ 86.132812, 52.908902 ], [ 83.056641, 51.618017 ], [ 82.617188, 51.179343 ], [ 83.056641, 50.958427 ], [ 83.232422, 50.513427 ], [ 82.529297, 49.724479 ], [ 82.529297, 49.325122 ], [ 81.298828, 48.690960 ], [ 81.035156, 48.166085 ], [ 79.628906, 47.694974 ], [ 79.453125, 46.800059 ], [ 78.750000, 46.800059 ], [ 78.750000, 46.619261 ], [ 78.574219, 46.800059 ], [ 78.222656, 46.498392 ], [ 77.783203, 46.679594 ], [ 74.531250, 46.800059 ], [ 73.564453, 46.134170 ], [ 73.388672, 45.706179 ], [ 72.070312, 44.964798 ], [ 70.488281, 44.402392 ], [ 69.521484, 43.452919 ], [ 70.927734, 42.293564 ], [ 73.212891, 42.163403 ], [ 73.916016, 41.836828 ], [ 74.003906, 41.574361 ], [ 73.300781, 41.508577 ], [ 73.828125, 41.046217 ], [ 73.212891, 40.847060 ], [ 72.949219, 40.446947 ], [ 73.125000, 40.044438 ], [ 72.773438, 39.842286 ], [ 72.861328, 39.368279 ], [ 72.421875, 39.436193 ], [ 72.070312, 39.095963 ], [ 72.246094, 38.548165 ], [ 71.894531, 38.272689 ], [ 72.158203, 37.649034 ], [ 71.718750, 36.738884 ], [ 73.476562, 37.509726 ], [ 73.740234, 37.439974 ], [ 73.740234, 37.160317 ], [ 74.531250, 37.090240 ], [ 75.673828, 36.385913 ], [ 75.761719, 36.031332 ], [ 74.882812, 35.817813 ], [ 75.322266, 35.173808 ], [ 75.146484, 34.669359 ], [ 76.113281, 33.578015 ], [ 77.080078, 32.990236 ], [ 77.080078, 32.472695 ], [ 77.871094, 31.802893 ], [ 78.662109, 31.728167 ], [ 79.013672, 31.052934 ], [ 79.892578, 30.826781 ], [ 80.683594, 30.145127 ], [ 82.001953, 30.145127 ], [ 83.583984, 29.228890 ], [ 83.935547, 29.305561 ], [ 84.462891, 28.536275 ], [ 85.605469, 28.226970 ], [ 85.869141, 27.916767 ], [ 87.714844, 27.839076 ], [ 88.681641, 28.071980 ], [ 88.945312, 27.215556 ], [ 89.560547, 28.226970 ], [ 90.791016, 28.071980 ] ] ] } }
{ "type": "Feature", "tippecanoe": { "layer": "2AFCA12C24701583917275635", "minzoom": 2, "maxzoom": 8 }, "properties": { "tyid": "410000", "centroid": "{\"type\":\"Point\",\"coordinates\":[118.9965612163,11.9748626986]}", "opacity": 1, "oid": "103:1582721307213", "color": "#A11300", "width": 3 }, "geometry": { "type": "MultiLineString", "coordinates": [ [ [ 122.695312, 24.447150 ], [ 122.431641, 23.402765 ] ], [ [ 120.849609, 20.550509 ], [ 121.728516, 21.616579 ] ], [ [ 119.355469, 17.727759 ], [ 119.794922, 18.895893 ] ], [ [ 118.916016, 14.689881 ], [ 118.916016, 16.045813 ] ], [ [ 118.476562, 10.833306 ], [ 119.003906, 12.039321 ] ], [ [ 115.312500, 7.013668 ], [ 116.191406, 8.059230 ] ], [ [ 111.708984, 3.425692 ], [ 112.939453, 3.864255 ] ], [ [ 108.281250, 5.965754 ], [ 108.193359, 7.362467 ] ], [ [ 110.039062, 11.264612 ], [ 110.214844, 12.468760 ] ], [ [ 109.775391, 15.029686 ], [ 109.248047, 16.214675 ] ] ] } }
{ "type": "Feature", "tippecanoe": { "layer": "2AFCA12C2E801583917275629", "minzoom": 2, "maxzoom": 8 }, "properties": { "halo": 1.6, "title": "图勒人", "fontsize": 12, "tyid": "304001", "oid": "103:1576575149844", "color": "#0056E7" }, "geometry": { "type": "Point", "coordinates": [ -130.781250, 68.942607 ] } }
{ "type": "Feature", "tippecanoe": { "layer": "2AFCA12C2E801583917275629", "minzoom": 2, "maxzoom": 8 }, "properties": { "halo": 1.6, "title": "诺顿文化", "fontsize": 12, "tyid": "304002", "oid": "103:1576575149463", "color": "#0056E7" }, "geometry": { "type": "Point", "coordinates": [ -163.740234, 65.330178 ] } }
{ "type": "Feature", "tippecanoe": { "layer": "2AFCA12C2E801583917275629", "minzoom": 2, "maxzoom": 8 }, "properties": { "halo": 1.6, "title": "尤皮克人", "fontsize": 12, "tyid": "304001", "oid": "103:1576575149515", "color": "#0056E7" }, "geometry": { "type": "Point", "coordinates": [ -159.169922, 60.630102 ] } }
{ "type": "Feature", "tippecanoe": { "layer": "2AFCA12C2E801583917275629", "minzoom": 2, "maxzoom": 8 }, "properties": { "halo": 1.6, "title": "因纽皮雅特人", "fontsize": 12, "tyid": "304001", "oid": "103:1576575149480", "color": "#0056E7" }, "geometry": { "type": "Point", "coordinates": [ -150.908203, 65.476508 ] } }
{ "type": "Feature", "tippecanoe": { "layer": "2AFCA12C2E801583917275629", "minzoom": 2, "maxzoom": 8 }, "properties": { "halo": 1.6, "title": "阿留申人", "fontsize": 12, "tyid": "304001", "oid": "103:1576575149489", "color": "#0056E7" }, "geometry": { "type": "Point", "coordinates": [ -152.226562, 61.312452 ] } }
{ "type": "Feature", "tippecanoe": { "layer": "2AFCA12C2E801583917275629", "minzoom": 2, "maxzoom": 8 }, "properties": { "halo": 1.6, "title": "因纽特人", "fontsize": 12, "tyid": "304001", "oid": "103:1576575149527", "color": "#0056E7" }, "geometry": { "type": "Point", "coordinates": [ -100.195312, 65.802776 ] } }
{ "type": "Feature", "tippecanoe": { "layer": "2AFCA12C2E801583917275629", "minzoom": 2, "maxzoom": 8 }, "properties": { "halo": 1.6, "title": "泰萨勒页岩文化", "fontsize": 12, "tyid": "304002", "oid": "103:1576575149531", "color": "#0056E7" }, "geometry": { "type": "Point", "coordinates": [ -99.316406, 56.800878 ] } }
{ "type": "Feature", "tippecanoe": { "layer": "2AFCA12C2E801583917275629", "minzoom": 2, "maxzoom": 8 }, "properties": { "halo": 1.6, "title": "坎贝尔文化", "fontsize": 12, "tyid": "304002", "oid": "103:1576575149370", "color": "#0056E7" }, "geometry": { "type": "Point", "coordinates": [ -121.289062, 38.685510 ] } }
{ "type": "Feature", "tippecanoe": { "layer": "2AFCA12C2E801583917275629", "minzoom": 2, "maxzoom": 8 }, "properties": { "halo": 1.6, "title": "多赛特文化", "fontsize": 12, "tyid": "304002", "oid": "103:1576575149568", "color": "#0056E7" }, "geometry": { "type": "Point", "coordinates": [ -69.960938, 67.875541 ] } }
{ "type": "Feature", "tippecanoe": { "layer": "2AFCA12C2E801583917275629", "minzoom": 2, "maxzoom": 8 }, "properties": { "halo": 1.6, "title": "波茵特半岛文化", "fontsize": 12, "tyid": "304002", "oid": "103:1576575149755", "color": "#0056E7" }, "geometry": { "type": "Point", "coordinates": [ -76.816406, 45.336702 ] } }
{ "type": "Feature", "tippecanoe": { "layer": "2AFCA12C2E801583917275629", "minzoom": 2, "maxzoom": 8 }, "properties": { "halo": 1.6, "title": "古海洋文化", "fontsize": 12, "tyid": "304002", "oid": "103:1576575149529", "color": "#0056E7" }, "geometry": { "type": "Point", "coordinates": [ -66.972656, 46.920255 ] } }
{ "type": "Feature", "tippecanoe": { "layer": "2AFCA12C2E801583917275629", "minzoom": 2, "maxzoom": 8 }, "properties": { "halo": 1.6, "title": "巴富尔人", "fontsize": 12, "tyid": "304001", "oid": "103:1576575149372", "color": "#0056E7" }, "geometry": { "type": "Point", "coordinates": [ -8.261719, 22.755921 ] } }
{ "type": "Feature", "tippecanoe": { "layer": "2AFCA12C2E801583917275629", "minzoom": 2, "maxzoom": 8 }, "properties": { "halo": 1.6, "title": "索宁克人", "fontsize": 12, "tyid": "304001", "oid": "103:1576575149435", "color": "#0056E7" }, "geometry": { "type": "Point", "coordinates": [ -10.195312, 16.551962 ] } }
{ "type": "Feature", "tippecanoe": { "layer": "2AFCA12C2E801583917275629", "minzoom": 2, "maxzoom": 8 }, "properties": { "halo": 1.6, "title": "曼德人", "fontsize": 12, "tyid": "304001", "oid": "103:1576575149687", "color": "#0056E7" }, "geometry": { "type": "Point", "coordinates": [ -7.558594, 8.146243 ] } }
{ "type": "Feature", "tippecanoe": { "layer": "2AFCA12C2E801583917275629", "minzoom": 2, "maxzoom": 8 }, "properties": { "halo": 1.6, "title": "图皮人", "fontsize": 12, "tyid": "304001", "oid": "103:1576575149760", "color": "#0056E7" }, "geometry": { "type": "Point", "coordinates": [ -47.812500, -23.966176 ] } }
{ "type": "Feature", "tippecanoe": { "layer": "2AFCA12C2E801583917275629", "minzoom": 2, "maxzoom": 8 }, "properties": { "halo": 1.6, "title": "萨米人", "fontsize": 12, "tyid": "304001", "oid": "103:1576575149759", "color": "#0056E7" }, "geometry": { "type": "Point", "coordinates": [ 25.400391, 68.171555 ] } }
{ "type": "Feature", "tippecanoe": { "layer": "2AFCA12C2E801583917275629", "minzoom": 2, "maxzoom": 8 }, "properties": { "halo": 1.6, "title": "原始日耳曼人", "fontsize": 12, "tyid": "304001", "oid": "103:1576575149562", "color": "#0056E7" }, "geometry": { "type": "Point", "coordinates": [ 8.437500, 60.500525 ] } }
{ "type": "Feature", "tippecanoe": { "layer": "2AFCA12C2E801583917275629", "minzoom": 2, "maxzoom": 8 }, "properties": { "halo": 1.6, "title": "古瑞典人", "fontsize": 12, "tyid": "304001", "oid": "103:1576575149779", "color": "#0056E7" }, "geometry": { "type": "Point", "coordinates": [ 15.820312, 61.312452 ] } }
{ "type": "Feature", "tippecanoe": { "layer": "2AFCA12C2E801583917275629", "minzoom": 2, "maxzoom": 8 }, "properties": { "halo": 1.8, "title": "罗马帝国", "fontsize": 12, "tyid": "304000", "oid": "103:1576575149681", "color": "#0056E7" }, "geometry": { "type": "Point", "coordinates": [ 10.107422, 46.860191 ] } }
{ "type": "Feature", "tippecanoe": { "layer": "2AFCA12C2E801583917275629", "minzoom": 2, "maxzoom": 8 }, "properties": { "halo": 1.6, "title": "芬尼人", "fontsize": 12, "tyid": "304001", "oid": "103:1576575149774", "color": "#0056E7" }, "geometry": { "type": "Point", "coordinates": [ 29.970703, 64.510643 ] } }
{ "type": "Feature", "tippecanoe": { "layer": "2AFCA12C2E801583917275629", "minzoom": 2, "maxzoom": 8 }, "properties": { "halo": 1.6, "title": "第聂伯河波罗的人", "fontsize": 12, "tyid": "304001", "oid": "103:1576575149772", "color": "#0056E7" }, "geometry": { "type": "Point", "coordinates": [ 33.222656, 56.413901 ] } }
{ "type": "Feature", "tippecanoe": { "layer": "2AFCA12C2E801583917275629", "minzoom": 2, "maxzoom": 8 }, "properties": { "halo": 1.6, "title": "波罗的人", "fontsize": 12, "tyid": "304002", "oid": "103:1576575149556", "color": "#0056E7" }, "geometry": { "type": "Point", "coordinates": [ 24.521484, 54.724620 ] } }
{ "type": "Feature", "tippecanoe": { "layer": "2AFCA12C2E801583917275629", "minzoom": 2, "maxzoom": 8 }, "properties": { "halo": 1.6, "title": "维内德人", "fontsize": 12, "tyid": "304001", "oid": "103:1576575149587", "color": "#0056E7" }, "geometry": { "type": "Point", "coordinates": [ 28.125000, 51.672555 ] } }
{ "type": "Feature", "tippecanoe": { "layer": "2AFCA12C2E801583917275629", "minzoom": 2, "maxzoom": 8 }, "properties": { "halo": 1.6, "title": "伏尔加芬兰人", "fontsize": 12, "tyid": "304001", "oid": "103:1576575149584", "color": "#0056E7" }, "geometry": { "type": "Point", "coordinates": [ 42.890625, 55.528631 ] } }
{ "type": "Feature", "tippecanoe": { "layer": "2AFCA12C2E801583917275629", "minzoom": 2, "maxzoom": 8 }, "properties": { "halo": 1.6, "title": "柏柏尔人诸部", "fontsize": 12, "tyid": "304001", "oid": "103:1576575149427", "color": "#0056E7" }, "geometry": { "type": "Point", "coordinates": [ 2.900391, 25.165173 ] } }
{ "type": "Feature", "tippecanoe": { "layer": "2AFCA12C2E801583917275629", "minzoom": 2, "maxzoom": 8 }, "properties": { "halo": 1.6, "title": "加拉曼特人", "fontsize": 12, "tyid": "304001", "oid": "103:1576575149403", "color": "#0056E7" }, "geometry": { "type": "Point", "coordinates": [ 18.544922, 26.980829 ] } }
{ "type": "Feature", "tippecanoe": { "layer": "2AFCA12C2E801583917275629", "minzoom": 2, "maxzoom": 8 }, "properties": { "halo": 1.6, "title": "诺克文化", "fontsize": 12, "tyid": "304002", "oid": "103:1576575149644", "color": "#0056E7" }, "geometry": { "type": "Point", "coordinates": [ 7.119141, 10.574222 ] } }
{ "type": "Feature", "tippecanoe": { "layer": "2AFCA12C2E801583917275629", "minzoom": 2, "maxzoom": 8 }, "properties": { "halo": 1.6, "title": "萨奥文明", "fontsize": 12, "tyid": "304002", "oid": "103:1576575149698", "color": "#0056E7" }, "geometry": { "type": "Point", "coordinates": [ 15.380859, 13.325485 ] } }
{ "type": "Feature", "tippecanoe": { "layer": "2AFCA12C2E801583917275629", "minzoom": 2, "maxzoom": 8 }, "properties": { "halo": 1.6, "title": "巴卡人", "fontsize": 12, "tyid": "304001", "oid": "103:1576575149667", "color": "#0056E7" }, "geometry": { "type": "Point", "coordinates": [ 18.105469, 5.441022 ] } }
{ "type": "Feature", "tippecanoe": { "layer": "2AFCA12C2E801583917275629", "minzoom": 2, "maxzoom": 8 }, "properties": { "halo": 1.8, "title": "亚美尼亚阿萨息斯王朝", "fontsize": 12, "tyid": "304000", "oid": "103:1576575149852", "color": "#0056E7" }, "geometry": { "type": "Point", "coordinates": [ 43.505859, 39.300299 ] } }
{ "type": "Feature", "tippecanoe": { "layer": "2AFCA12C2E801583917275629", "minzoom": 2, "maxzoom": 8 }, "properties": { "halo": 1.6, "title": "塔努联盟", "fontsize": 12, "tyid": "304002", "oid": "103:1576575149636", "color": "#0056E7" }, "geometry": { "type": "Point", "coordinates": [ 39.902344, 32.768800 ] } }
{ "type": "Feature", "tippecanoe": { "layer": "2AFCA12C2E801583917275629", "minzoom": 2, "maxzoom": 8 }, "properties": { "halo": 1.6, "title": "贝都因人", "fontsize": 12, "tyid": "304001", "oid": "103:1576575149633", "color": "#0056E7" }, "geometry": { "type": "Point", "coordinates": [ 40.957031, 26.745610 ] } }
{ "type": "Feature", "tippecanoe": { "layer": "2AFCA12C2E801583917275629", "minzoom": 2, "maxzoom": 8 }, "properties": { "halo": 1.6, "title": "北非贝都因人", "fontsize": 12, "tyid": "304001", "oid": "103:1576575149696", "color": "#0056E7" }, "geometry": { "type": "Point", "coordinates": [ 22.763672, 20.879343 ] } }
{ "type": "Feature", "tippecanoe": { "layer": "2AFCA12C2E801583917275629", "minzoom": 2, "maxzoom": 8 }, "properties": { "halo": 1.6, "title": "札加瓦人", "fontsize": 12, "tyid": "304001", "oid": "103:1576575149425", "color": "#0056E7" }, "geometry": { "type": "Point", "coordinates": [ 22.675781, 15.538376 ] } }
{ "type": "Feature", "tippecanoe": { "layer": "2AFCA12C2E801583917275629", "minzoom": 2, "maxzoom": 8 }, "properties": { "halo": 1.6, "title": "富尔人", "fontsize": 12, "tyid": "304001", "oid": "103:1576575149417", "color": "#0056E7" }, "geometry": { "type": "Point", "coordinates": [ 26.015625, 12.983148 ] } }
{ "type": "Feature", "tippecanoe": { "layer": "2AFCA12C2E801583917275629", "minzoom": 2, "maxzoom": 8 }, "properties": { "halo": 1.8, "title": "库施王国", "fontsize": 12, "tyid": "304000", "oid": "103:1576575149404", "color": "#0056E7" }, "geometry": { "type": "Point", "coordinates": [ 32.255859, 18.729502 ] } }
{ "type": "Feature", "tippecanoe": { "layer": "2AFCA12C2E801583917275629", "minzoom": 2, "maxzoom": 8 }, "properties": { "halo": 1.6, "title": "尼罗特人", "fontsize": 12, "tyid": "304001", "oid": "103:1576575149383", "color": "#0056E7" }, "geometry": { "type": "Point", "coordinates": [ 33.134766, 1.406109 ] } }
{ "type": "Feature", "tippecanoe": { "layer": "2AFCA12C2E801583917275629", "minzoom": 2, "maxzoom": 8 }, "properties": { "halo": 1.8, "title": "阿克苏姆王国", "fontsize": 12, "tyid": "304000", "oid": "103:1576575149835", "color": "#0056E7" }, "geometry": { "type": "Point", "coordinates": [ 39.990234, 13.325485 ] } }
{ "type": "Feature", "tippecanoe": { "layer": "2AFCA12C2E801583917275629", "minzoom": 2, "maxzoom": 8 }, "properties": { "halo": 1.6, "title": "卢欧诸部", "fontsize": 12, "tyid": "304001", "oid": "103:1576575149455", "color": "#0056E7" }, "geometry": { "type": "Point", "coordinates": [ 35.068359, 8.581021 ] } }
{ "type": "Feature", "tippecanoe": { "layer": "2AFCA12C2E801583917275629", "minzoom": 2, "maxzoom": 8 }, "properties": { "halo": 1.6, "title": "库希特人", "fontsize": 12, "tyid": "304001", "oid": "103:1576575149709", "color": "#0056E7" }, "geometry": { "type": "Point", "coordinates": [ 44.736328, 5.703448 ] } }
{ "type": "Feature", "tippecanoe": { "layer": "2AFCA12C2E801583917275629", "minzoom": 2, "maxzoom": 8 }, "properties": { "halo": 1.6, "title": "阿扎尼亚诸城邦", "fontsize": 12, "tyid": "304002", "oid": "103:1576575149724", "color": "#0056E7" }, "geometry": { "type": "Point", "coordinates": [ 40.166016, 0.087891 ] } }
{ "type": "Feature", "tippecanoe": { "layer": "2AFCA12C2E801583917275629", "minzoom": 2, "maxzoom": 8 }, "properties": { "halo": 1.6, "title": "彼尔姆人", "fontsize": 12, "tyid": "304001", "oid": "103:1576575149662", "color": "#0056E7" }, "geometry": { "type": "Point", "coordinates": [ 55.722656, 57.704147 ] } }
{ "type": "Feature", "tippecanoe": { "layer": "2AFCA12C2E801583917275629", "minzoom": 2, "maxzoom": 8 }, "properties": { "halo": 1.6, "title": "东马扎尔人", "fontsize": 12, "tyid": "304001", "oid": "103:1576575149848", "color": "#0056E7" }, "geometry": { "type": "Point", "coordinates": [ 59.238281, 61.396719 ] } }
{ "type": "Feature", "tippecanoe": { "layer": "2AFCA12C2E801583917275629", "minzoom": 2, "maxzoom": 8 }, "properties": { "halo": 1.6, "title": "萨尔马提亚人", "fontsize": 12, "tyid": "304001", "oid": "103:1576575149797", "color": "#0056E7" }, "geometry": { "type": "Point", "coordinates": [ 52.382812, 53.067627 ] } }
{ "type": "Feature", "tippecanoe": { "layer": "2AFCA12C2E801583917275629", "minzoom": 2, "maxzoom": 8 }, "properties": { "halo": 1.6, "title": "阿兰人", "fontsize": 12, "tyid": "304001", "oid": "103:1576575149545", "color": "#0056E7" }, "geometry": { "type": "Point", "coordinates": [ 49.570312, 48.864715 ] } }
{ "type": "Feature", "tippecanoe": { "layer": "2AFCA12C2E801583917275629", "minzoom": 2, "maxzoom": 8 }, "properties": { "halo": 1.6, "title": "康居国", "fontsize": 12, "tyid": "304001", "oid": "103:1576575149757", "color": "#0056E7" }, "geometry": { "type": "Point", "coordinates": [ 67.324219, 45.767523 ] } }
{ "type": "Feature", "tippecanoe": { "layer": "2AFCA12C2E801583917275629", "minzoom": 2, "maxzoom": 8 }, "properties": { "halo": 1.6, "title": "汉特人", "fontsize": 12, "tyid": "304001", "oid": "103:1576575149775", "color": "#0056E7" }, "geometry": { "type": "Point", "coordinates": [ 70.048828, 61.606396 ] } }
{ "type": "Feature", "tippecanoe": { "layer": "2AFCA12C2E801583917275629", "minzoom": 2, "maxzoom": 8 }, "properties": { "halo": 1.6, "title": "曼西人", "fontsize": 12, "tyid": "304001", "oid": "103:1576575149581", "color": "#0056E7" }, "geometry": { "type": "Point", "coordinates": [ 67.675781, 57.562995 ] } }
{ "type": "Feature", "tippecanoe": { "layer": "2AFCA12C2E801583917275629", "minzoom": 2, "maxzoom": 8 }, "properties": { "halo": 1.6, "title": "库莱文化", "fontsize": 12, "tyid": "304002", "oid": "103:1576575149557", "color": "#0056E7" }, "geometry": { "type": "Point", "coordinates": [ 82.968750, 57.562995 ] } }
{ "type": "Feature", "tippecanoe": { "layer": "2AFCA12C2E801583917275629", "minzoom": 2, "maxzoom": 8 }, "properties": { "halo": 1.6, "title": "萨迦蒂安文化", "fontsize": 12, "tyid": "304002", "oid": "103:1576575149551", "color": "#0056E7" }, "geometry": { "type": "Point", "coordinates": [ 70.751953, 53.278353 ] } }
{ "type": "Feature", "tippecanoe": { "layer": "2AFCA12C2E801583917275629", "minzoom": 2, "maxzoom": 8 }, "properties": { "halo": 1.8, "title": "悦般国", "fontsize": 12, "tyid": "304000", "oid": "103:1576575149640", "color": "#0056E7" }, "geometry": { "type": "Point", "coordinates": [ 81.123047, 46.619261 ] } }
{ "type": "Feature", "tippecanoe": { "layer": "2AFCA12C2E801583917275629", "minzoom": 2, "maxzoom": 8 }, "properties": { "halo": 1.8, "title": "乌孙国", "fontsize": 12, "tyid": "304000", "oid": "103:1576575149338", "color": "#0056E7" }, "geometry": { "type": "Point", "coordinates": [ 79.716797, 43.133061 ] } }
{ "type": "Feature", "tippecanoe": { "layer": "2AFCA12C2E801583917275629", "minzoom": 2, "maxzoom": 8 }, "properties": { "halo": 1.8, "title": "帕提亚帝国", "fontsize": 12, "tyid": "304000", "oid": "103:1576575149873", "color": "#0056E7" }, "geometry": { "type": "Point", "coordinates": [ 54.404297, 33.797409 ] } }
{ "type": "Feature", "tippecanoe": { "layer": "2AFCA12C2E801583917275629", "minzoom": 2, "maxzoom": 8 }, "properties": { "halo": 1.6, "title": "肯德部落", "fontsize": 12, "tyid": "304001", "oid": "103:1576575149632", "color": "#0056E7" }, "geometry": { "type": "Point", "coordinates": [ 45.703125, 22.024546 ] } }
{ "type": "Feature", "tippecanoe": { "layer": "2AFCA12C2E801583917275629", "minzoom": 2, "maxzoom": 8 }, "properties": { "halo": 1.6, "title": "索马里诸城邦", "fontsize": 12, "tyid": "304002", "oid": "103:1576575149743", "color": "#0056E7" }, "geometry": { "type": "Point", "coordinates": [ 47.636719, 8.928487 ] } }
{ "type": "Feature", "tippecanoe": { "layer": "2AFCA12C2E801583917275629", "minzoom": 2, "maxzoom": 8 }, "properties": { "halo": 1.8, "title": "贵霜帝国", "fontsize": 12, "tyid": "304000", "oid": "103:1576575149357", "color": "#0056E7" }, "geometry": { "type": "Point", "coordinates": [ 71.630859, 30.069094 ] } }
{ "type": "Feature", "tippecanoe": { "layer": "2AFCA12C2E801583917275629", "minzoom": 2, "maxzoom": 8 }, "properties": { "halo": 1.8, "title": "鄯善国", "fontsize": 12, "tyid": "304000", "oid": "103:1576575149783", "color": "#0056E7" }, "geometry": { "type": "Point", "coordinates": [ 87.978516, 38.410558 ] } }
{ "type": "Feature", "tippecanoe": { "layer": "2AFCA12C2E801583917275629", "minzoom": 2, "maxzoom": 8 }, "properties": { "halo": 1.8, "title": "唐旄国", "fontsize": 12, "tyid": "304000", "oid": "103:1576575149436", "color": "#0056E7" }, "geometry": { "type": "Point", "coordinates": [ 87.011719, 34.161818 ] } }
{ "type": "Feature", "tippecanoe": { "layer": "2AFCA12C2E801583917275629", "minzoom": 2, "maxzoom": 8 }, "properties": { "halo": 1.8, "title": "象雄王国", "fontsize": 12, "tyid": "304000", "oid": "103:1576575149333", "color": "#0056E7" }, "geometry": { "type": "Point", "coordinates": [ 81.562500, 31.877558 ] } }
{ "type": "Feature", "tippecanoe": { "layer": "2AFCA12C2E801583917275629", "minzoom": 2, "maxzoom": 8 }, "properties": { "halo": 1.8, "title": "百乘王朝", "fontsize": 12, "tyid": "304000", "oid": "103:1576575149692", "color": "#0056E7" }, "geometry": { "type": "Point", "coordinates": [ 78.046875, 18.895893 ] } }
{ "type": "Feature", "tippecanoe": { "layer": "2AFCA12C2E801583917275629", "minzoom": 2, "maxzoom": 8 }, "properties": { "halo": 1.6, "title": "坚昆", "fontsize": 12, "tyid": "304001", "oid": "103:1576575149396", "color": "#0056E7" }, "geometry": { "type": "Point", "coordinates": [ 92.724609, 54.059388 ] } }
{ "type": "Feature", "tippecanoe": { "layer": "2AFCA12C2E801583917275629", "minzoom": 2, "maxzoom": 8 }, "properties": { "halo": 1.6, "title": "丁零", "fontsize": 12, "tyid": "304001", "oid": "103:1576575149491", "color": "#0056E7" }, "geometry": { "type": "Point", "coordinates": [ 110.830078, 53.067627 ] } }
{ "type": "Feature", "tippecanoe": { "layer": "2AFCA12C2E801583917275629", "minzoom": 2, "maxzoom": 8 }, "properties": { "halo": 1.6, "title": "鲜卑", "fontsize": 12, "tyid": "304001", "oid": "103:1576575149549", "color": "#0056E7" }, "geometry": { "type": "Point", "coordinates": [ 105.468750, 45.398450 ] } }
{ "type": "Feature", "tippecanoe": { "layer": "2AFCA12C2E801583917275629", "minzoom": 2, "maxzoom": 8 }, "properties": { "halo": 1.6, "title": "通古斯人", "fontsize": 12, "tyid": "304001", "oid": "103:1576575149626", "color": "#0056E7" }, "geometry": { "type": "Point", "coordinates": [ 116.718750, 60.759160 ] } }
{ "type": "Feature", "tippecanoe": { "layer": "2AFCA12C2E801583917275629", "minzoom": 2, "maxzoom": 8 }, "properties": { "halo": 1.8, "title": "扶余", "fontsize": 12, "tyid": "304000", "oid": "103:1576575149737", "color": "#0056E7" }, "geometry": { "type": "Point", "coordinates": [ 124.892578, 45.089036 ] } }
{ "type": "Feature", "tippecanoe": { "layer": "2AFCA12C2E801583917275629", "minzoom": 2, "maxzoom": 8 }, "properties": { "halo": 1.6, "title": "挹娄", "fontsize": 12, "tyid": "304001", "oid": "103:1576575149673", "color": "#0056E7" }, "geometry": { "type": "Point", "coordinates": [ 132.451172, 47.100045 ] } }
{ "type": "Feature", "tippecanoe": { "layer": "2AFCA12C2E801583917275629", "minzoom": 2, "maxzoom": 8 }, "properties": { "halo": 1.6, "title": "苏毗", "fontsize": 12, "tyid": "304001", "oid": "103:1576575149332", "color": "#0056E7" }, "geometry": { "type": "Point", "coordinates": [ 93.515625, 33.137551 ] } }
{ "type": "Feature", "tippecanoe": { "layer": "2AFCA12C2E801583917275629", "minzoom": 2, "maxzoom": 8 }, "properties": { "halo": 1.6, "title": "古羌人", "fontsize": 12, "tyid": "304001", "oid": "103:1576575149609", "color": "#0056E7" }, "geometry": { "type": "Point", "coordinates": [ 100.458984, 32.175612 ] } }
{ "type": "Feature", "tippecanoe": { "layer": "2AFCA12C2E801583917275629", "minzoom": 2, "maxzoom": 8 }, "properties": { "halo": 1.6, "title": "刘璋", "fontsize": 12, "tyid": "304002", "oid": "103:1576575149624", "color": "#0056E7" }, "geometry": { "type": "Point", "coordinates": [ 105.644531, 30.372875 ] } }
{ "type": "Feature", "tippecanoe": { "layer": "2AFCA12C2E801583917275629", "minzoom": 2, "maxzoom": 8 }, "properties": { "halo": 1.8, "title": "东汉", "fontsize": 12, "tyid": "304000", "oid": "103:1576575149616", "color": "#0056E7" }, "geometry": { "type": "Point", "coordinates": [ 105.380859, 25.244696 ] } }
{ "type": "Feature", "tippecanoe": { "layer": "2AFCA12C2E801583917275629", "minzoom": 2, "maxzoom": 8 }, "properties": { "halo": 1.6, "title": "刘备", "fontsize": 12, "tyid": "304002", "oid": "103:1576575149622", "color": "#0056E7" }, "geometry": { "type": "Point", "coordinates": [ 111.708984, 28.536275 ] } }
{ "type": "Feature", "tippecanoe": { "layer": "2AFCA12C2E801583917275629", "minzoom": 2, "maxzoom": 8 }, "properties": { "halo": 1.8, "title": "扶南王国", "fontsize": 12, "tyid": "304000", "oid": "103:1576575149354", "color": "#0056E7" }, "geometry": { "type": "Point", "coordinates": [ 103.710938, 12.468760 ] } }
{ "type": "Feature", "tippecanoe": { "layer": "2AFCA12C2E801583917275629", "minzoom": 2, "maxzoom": 8 }, "properties": { "halo": 1.6, "title": "曹操", "fontsize": 12, "tyid": "304002", "oid": "103:1576575149619", "color": "#0056E7" }, "geometry": { "type": "Point", "coordinates": [ 115.751953, 35.675147 ] } }
{ "type": "Feature", "tippecanoe": { "layer": "2AFCA12C2E801583917275629", "minzoom": 2, "maxzoom": 8 }, "properties": { "halo": 1.6, "title": "孙权", "fontsize": 12, "tyid": "304002", "oid": "103:1576575149630", "color": "#0056E7" }, "geometry": { "type": "Point", "coordinates": [ 117.861328, 27.994401 ] } }
{ "type": "Feature", "tippecanoe": { "layer": "2AFCA12C2E801583917275629", "minzoom": 2, "maxzoom": 8 }, "properties": { "halo": 1.6, "title": "南岛人", "fontsize": 12, "tyid": "304001", "oid": "103:1576575149526", "color": "#0056E7" }, "geometry": { "type": "Point", "coordinates": [ 114.169922, 0.878872 ] } }
{ "type": "Feature", "tippecanoe": { "layer": "2AFCA12C2E801583917275629", "minzoom": 2, "maxzoom": 8 }, "properties": { "halo": 1.6, "title": "尤卡吉尔人", "fontsize": 12, "tyid": "304001", "oid": "103:1576575149362", "color": "#0056E7" }, "geometry": { "type": "Point", "coordinates": [ 155.214844, 64.886265 ] } }
{ "type": "Feature", "tippecanoe": { "layer": "2AFCA12C2E801583917275629", "minzoom": 2, "maxzoom": 8 }, "properties": { "halo": 1.6, "title": "尼夫赫人", "fontsize": 12, "tyid": "304001", "oid": "103:1576575149513", "color": "#0056E7" }, "geometry": { "type": "Point", "coordinates": [ 138.779297, 51.890054 ] } }
{ "type": "Feature", "tippecanoe": { "layer": "2AFCA12C2E801583917275629", "minzoom": 2, "maxzoom": 8 }, "properties": { "halo": 1.6, "title": "科里亚克族", "fontsize": 12, "tyid": "304001", "oid": "103:1576575149822", "color": "#0056E7" }, "geometry": { "type": "Point", "coordinates": [ 164.882812, 61.814664 ] } }
{ "type": "Feature", "tippecanoe": { "layer": "2AFCA12C2E801583917275629", "minzoom": 2, "maxzoom": 8 }, "properties": { "halo": 1.6, "title": "楚科奇人", "fontsize": 12, "tyid": "304001", "oid": "103:1576575149459", "color": "#0056E7" }, "geometry": { "type": "Point", "coordinates": [ 171.035156, 66.443107 ] } }
{ "type": "Feature", "tippecanoe": { "layer": "2AFCA12C2E801583917275629", "minzoom": 2, "maxzoom": 8 }, "properties": { "halo": 1.6, "title": "西北班图人诸部", "fontsize": 12, "tyid": "304001", "oid": "103:1576575149727", "color": "#0056E7" }, "geometry": { "type": "Point", "coordinates": [ 20.742188, -0.527336 ] } }
{ "type": "Feature", "tippecanoe": { "layer": "2AFCA12C2E801583917275629", "minzoom": 2, "maxzoom": 8 }, "properties": { "halo": 1.6, "title": "西班图人诸部", "fontsize": 12, "tyid": "304001", "oid": "103:1576575149647", "color": "#0056E7" }, "geometry": { "type": "Point", "coordinates": [ 21.621094, -9.709057 ] } }
{ "type": "Feature", "tippecanoe": { "layer": "2AFCA12C2E801583917275629", "minzoom": 2, "maxzoom": 8 }, "properties": { "halo": 1.6, "title": "科伊桑人", "fontsize": 12, "tyid": "304001", "oid": "103:1576575149451", "color": "#0056E7" }, "geometry": { "type": "Point", "coordinates": [ 22.148438, -24.126702 ] } }
{ "type": "Feature", "tippecanoe": { "layer": "2AFCA12C2E801583917275629", "minzoom": 2, "maxzoom": 8 }, "properties": { "halo": 1.6, "title": "东班图人诸部", "fontsize": 12, "tyid": "304001", "oid": "103:1576575149341", "color": "#0056E7" }, "geometry": { "type": "Point", "coordinates": [ 32.167969, -13.496473 ] } }
{ "type": "Feature", "tippecanoe": { "layer": "2AFCA12C2E801583917275629", "minzoom": 2, "maxzoom": 8 }, "properties": { "halo": 1.6, "title": "澳洲原住民", "fontsize": 12, "tyid": "304001", "oid": "103:1576575149392", "color": "#0056E7" }, "geometry": { "type": "Point", "coordinates": [ 134.296875, -25.562265 ] } }
{ "type": "Feature", "tippecanoe": { "layer": "2AFCA12C2E801583917275629", "minzoom": 2, "maxzoom": 8 }, "properties": { "halo": 1.6, "title": "巴布亚人", "fontsize": 12, "tyid": "304001", "oid": "103:1576575149327", "color": "#0056E7" }, "geometry": { "type": "Point", "coordinates": [ 140.888672, -5.266008 ] } }
{ "type": "Feature", "tippecanoe": { "layer": "2AFCA12C2F281583917275631", "minzoom": 2, "maxzoom": 8 }, "properties": { "halo": 1.6, "title": "拉霍亚文化", "fontsize": 12, "tyid": "304002", "oid": "103:1576575149517", "color": "#0056E7" }, "geometry": { "type": "Point", "coordinates": [ -118.916016, 34.597042 ] } }
{ "type": "Feature", "tippecanoe": { "layer": "2AFCA12C2F281583917275631", "minzoom": 2, "maxzoom": 8 }, "properties": { "halo": 1.6, "title": "维珍阿纳萨齐人", "fontsize": 12, "tyid": "304001", "oid": "103:1576575149554", "color": "#0056E7" }, "geometry": { "type": "Point", "coordinates": [ -113.818359, 36.879621 ] } }
{ "type": "Feature", "tippecanoe": { "layer": "2AFCA12C2F281583917275631", "minzoom": 2, "maxzoom": 8 }, "properties": { "halo": 1.6, "title": "弗里蒙特文化", "fontsize": 12, "tyid": "304002", "oid": "103:1576575149565", "color": "#0056E7" }, "geometry": { "type": "Point", "coordinates": [ -111.533203, 38.134557 ] } }
{ "type": "Feature", "tippecanoe": { "layer": "2AFCA12C2F281583917275631", "minzoom": 2, "maxzoom": 8 }, "properties": { "halo": 1.6, "title": "奥沙拉文化", "fontsize": 12, "tyid": "304002", "oid": "103:1576575149637", "color": "#0056E7" }, "geometry": { "type": "Point", "coordinates": [ -107.841797, 37.509726 ] } }
{ "type": "Feature", "tippecanoe": { "layer": "2AFCA12C2F281583917275631", "minzoom": 2, "maxzoom": 8 }, "properties": { "halo": 1.6, "title": "古普韦布洛人", "fontsize": 12, "tyid": "304001", "oid": "103:1576575149732", "color": "#0056E7" }, "geometry": { "type": "Point", "coordinates": [ -109.951172, 36.527295 ] } }
{ "type": "Feature", "tippecanoe": { "layer": "2AFCA12C2F281583917275631", "minzoom": 2, "maxzoom": 8 }, "properties": { "halo": 1.6, "title": "奇瓦瓦文化", "fontsize": 12, "tyid": "304002", "oid": "103:1576575149703", "color": "#0056E7" }, "geometry": { "type": "Point", "coordinates": [ -107.226562, 32.768800 ] } }
{ "type": "Feature", "tippecanoe": { "layer": "2AFCA12C2F281583917275631", "minzoom": 2, "maxzoom": 8 }, "properties": { "halo": 1.6, "title": "瓜伊库拉人", "fontsize": 12, "tyid": "304001", "oid": "103:1576575149487", "color": "#0056E7" }, "geometry": { "type": "Point", "coordinates": [ -111.269531, 24.846565 ] } }
{ "type": "Feature", "tippecanoe": { "layer": "2AFCA12C2F281583917275631", "minzoom": 2, "maxzoom": 8 }, "properties": { "halo": 1.6, "title": "堪萨斯城霍普韦尔文化", "fontsize": 12, "tyid": "304002", "oid": "103:1576575149839", "color": "#0056E7" }, "geometry": { "type": "Point", "coordinates": [ -94.042969, 39.027719 ] } }
{ "type": "Feature", "tippecanoe": { "layer": "2AFCA12C2F281583917275631", "minzoom": 2, "maxzoom": 8 }, "properties": { "halo": 1.6, "title": "哈瓦那霍普韦尔文化", "fontsize": 12, "tyid": "304002", "oid": "103:1576575149680", "color": "#0056E7" }, "geometry": { "type": "Point", "coordinates": [ -91.054688, 40.446947 ] } }
{ "type": "Feature", "tippecanoe": { "layer": "2AFCA12C2F281583917275631", "minzoom": 2, "maxzoom": 8 }, "properties": { "halo": 1.6, "title": "喀多语密西西比文化", "fontsize": 12, "tyid": "304002", "oid": "103:1576575149508", "color": "#0056E7" }, "geometry": { "type": "Point", "coordinates": [ -94.482422, 35.960223 ] } }
{ "type": "Feature", "tippecanoe": { "layer": "2AFCA12C2F281583917275631", "minzoom": 2, "maxzoom": 8 }, "properties": { "halo": 1.6, "title": "福切马里尼文化", "fontsize": 12, "tyid": "304002", "oid": "103:1576575149413", "color": "#0056E7" }, "geometry": { "type": "Point", "coordinates": [ -94.306641, 33.358062 ] } }
{ "type": "Feature", "tippecanoe": { "layer": "2AFCA12C2F281583917275631", "minzoom": 2, "maxzoom": 8 }, "properties": { "halo": 1.6, "title": "华斯塔克文明", "fontsize": 12, "tyid": "304002", "oid": "103:1576575149511", "color": "#0056E7" }, "geometry": { "type": "Point", "coordinates": [ -98.613281, 22.105999 ] } }
{ "type": "Feature", "tippecanoe": { "layer": "2AFCA12C2F281583917275631", "minzoom": 2, "maxzoom": 8 }, "properties": { "halo": 1.6, "title": "奇蒂玛察人", "fontsize": 12, "tyid": "304001", "oid": "103:1576575149735", "color": "#0056E7" }, "geometry": { "type": "Point", "coordinates": [ -91.230469, 30.902225 ] } }
{ "type": "Feature", "tippecanoe": { "layer": "2AFCA12C2F281583917275631", "minzoom": 2, "maxzoom": 8 },