{"year": "AD215",  "type": "Feature", "tippecanoe": { "layer": "2AFC9E3FD7B81583917236077", "minzoom": 2, "maxzoom": 8 }, "properties": { "halo": 1.6, "title": "拉霍亚文化", "fontsize": 12, "tyid": "304002", "oid": "103:1576575179758", "color": "#0056E7" }, "geometry": { "type": "Point", "coordinates": [ -118.916016, 34.597042 ] } }
{"year": "AD215",  "type": "Feature", "tippecanoe": { "layer": "2AFC9E3FD7B81583917236077", "minzoom": 2, "maxzoom": 8 }, "properties": { "halo": 1.6, "title": "维珍阿纳萨齐人", "fontsize": 12, "tyid": "304001", "oid": "103:1576575179795", "color": "#0056E7" }, "geometry": { "type": "Point", "coordinates": [ -113.818359, 36.879621 ] } }
{"year": "AD215",  "type": "Feature", "tippecanoe": { "layer": "2AFC9E3FD7B81583917236077", "minzoom": 2, "maxzoom": 8 }, "properties": { "halo": 1.6, "title": "弗里蒙特文化", "fontsize": 12, "tyid": "304002", "oid": "103:1576575179805", "color": "#0056E7" }, "geometry": { "type": "Point", "coordinates": [ -111.533203, 38.134557 ] } }
{"year": "AD215",  "type": "Feature", "tippecanoe": { "layer": "2AFC9E3FD7B81583917236077", "minzoom": 2, "maxzoom": 8 }, "properties": { "halo": 1.6, "title": "奥沙拉文化", "fontsize": 12, "tyid": "304002", "oid": "103:1576575179872", "color": "#0056E7" }, "geometry": { "type": "Point", "coordinates": [ -107.841797, 37.509726 ] } }
{"year": "AD215",  "type": "Feature", "tippecanoe": { "layer": "2AFC9E3FD7B81583917236077", "minzoom": 2, "maxzoom": 8 }, "properties": { "halo": 1.6, "title": "古普韦布洛人", "fontsize": 12, "tyid": "304001", "oid": "103:1576575179965", "color": "#0056E7" }, "geometry": { "type": "Point", "coordinates": [ -109.951172, 36.527295 ] } }
{"year": "AD215",  "type": "Feature", "tippecanoe": { "layer": "2AFC9E3FD7B81583917236077", "minzoom": 2, "maxzoom": 8 }, "properties": { "halo": 1.6, "title": "奇瓦瓦文化", "fontsize": 12, "tyid": "304002", "oid": "103:1576575179937", "color": "#0056E7" }, "geometry": { "type": "Point", "coordinates": [ -107.226562, 32.768800 ] } }
{"year": "AD215",  "type": "Feature", "tippecanoe": { "layer": "2AFC9E3FD7B81583917236077", "minzoom": 2, "maxzoom": 8 }, "properties": { "halo": 1.6, "title": "瓜伊库拉人", "fontsize": 12, "tyid": "304001", "oid": "103:1576575179729", "color": "#0056E7" }, "geometry": { "type": "Point", "coordinates": [ -111.269531, 24.846565 ] } }
{"year": "AD215",  "type": "Feature", "tippecanoe": { "layer": "2AFC9E3FD7B81583917236077", "minzoom": 2, "maxzoom": 8 }, "properties": { "halo": 1.6, "title": "堪萨斯城霍普韦尔文化", "fontsize": 12, "tyid": "304002", "oid": "103:1576575180068", "color": "#0056E7" }, "geometry": { "type": "Point", "coordinates": [ -94.042969, 39.027719 ] } }
{"year": "AD215",  "type": "Feature", "tippecanoe": { "layer": "2AFC9E3FD7B81583917236077", "minzoom": 2, "maxzoom": 8 }, "properties": { "halo": 1.6, "title": "哈瓦那霍普韦尔文化", "fontsize": 12, "tyid": "304002", "oid": "103:1576575179913", "color": "#0056E7" }, "geometry": { "type": "Point", "coordinates": [ -91.054688, 40.446947 ] } }
{"year": "AD215",  "type": "Feature", "tippecanoe": { "layer": "2AFC9E3FD7B81583917236077", "minzoom": 2, "maxzoom": 8 }, "properties": { "halo": 1.6, "title": "喀多语密西西比文化", "fontsize": 12, "tyid": "304002", "oid": "103:1576575179750", "color": "#0056E7" }, "geometry": { "type": "Point", "coordinates": [ -94.482422, 35.960223 ] } }
{"year": "AD215",  "type": "Feature", "tippecanoe": { "layer": "2AFC9E3FD7B81583917236077", "minzoom": 2, "maxzoom": 8 }, "properties": { "halo": 1.6, "title": "福切马里尼文化", "fontsize": 12, "tyid": "304002", "oid": "103:1576575179661", "color": "#0056E7" }, "geometry": { "type": "Point", "coordinates": [ -94.306641, 33.358062 ] } }
{"year": "AD215",  "type": "Feature", "tippecanoe": { "layer": "2AFC9E3FD7B81583917236077", "minzoom": 2, "maxzoom": 8 }, "properties": { "halo": 1.6, "title": "华斯塔克文明", "fontsize": 12, "tyid": "304002", "oid": "103:1576575179752", "color": "#0056E7" }, "geometry": { "type": "Point", "coordinates": [ -98.613281, 22.105999 ] } }
{"year": "AD215",  "type": "Feature", "tippecanoe": { "layer": "2AFC9E3FD7B81583917236077", "minzoom": 2, "maxzoom": 8 }, "properties": { "halo": 1.6, "title": "奇蒂玛察人", "fontsize": 12, "tyid": "304001", "oid": "103:1576575179968", "color": "#0056E7" }, "geometry": { "type": "Point", "coordinates": [ -91.230469, 30.902225 ] } }
{"year": "AD215",  "type": "Feature", "tippecanoe": { "layer": "2AFC9E3FD7B81583917236077", "minzoom": 2, "maxzoom": 8 }, "properties": { "halo": 1.6, "title": "马克斯维尔文化", "fontsize": 12, "tyid": "304002", "oid": "103:1576575179633", "color": "#0056E7" }, "geometry": { "type": "Point", "coordinates": [ -90.878906, 29.764377 ] } }
{"year": "AD215",  "type": "Feature", "tippecanoe": { "layer": "2AFC9E3FD7B81583917236077", "minzoom": 2, "maxzoom": 8 }, "properties": { "halo": 1.6, "title": "萨波特克文明", "fontsize": 12, "tyid": "304002", "oid": "103:1576575179919", "color": "#0056E7" }, "geometry": { "type": "Point", "coordinates": [ -96.064453, 16.636192 ] } }
{"year": "AD215",  "type": "Feature", "tippecanoe": { "layer": "2AFC9E3FD7B81583917236077", "minzoom": 2, "maxzoom": 8 }, "properties": { "halo": 1.6, "title": "古德尔文化", "fontsize": 12, "tyid": "304002", "oid": "103:1576575179719", "color": "#0056E7" }, "geometry": { "type": "Point", "coordinates": [ -85.869141, 43.133061 ] } }
{"year": "AD215",  "type": "Feature", "tippecanoe": { "layer": "2AFC9E3FD7B81583917236077", "minzoom": 2, "maxzoom": 8 }, "properties": { "halo": 1.6, "title": "索根文化", "fontsize": 12, "tyid": "304002", "oid": "103:1576575180075", "color": "#0056E7" }, "geometry": { "type": "Point", "coordinates": [ -81.298828, 43.707594 ] } }
{"year": "AD215",  "type": "Feature", "tippecanoe": { "layer": "2AFC9E3FD7B81583917236077", "minzoom": 2, "maxzoom": 8 }, "properties": { "halo": 1.6, "title": "蟹园文化", "fontsize": 12, "tyid": "304002", "oid": "103:1576575179983", "color": "#0056E7" }, "geometry": { "type": "Point", "coordinates": [ -88.066406, 37.718590 ] } }
{"year": "AD215",  "type": "Feature", "tippecanoe": { "layer": "2AFC9E3FD7B81583917236077", "minzoom": 2, "maxzoom": 8 }, "properties": { "halo": 1.6, "title": "俄亥俄霍普韦尔文化", "fontsize": 12, "tyid": "304002", "oid": "103:1576575179948", "color": "#0056E7" }, "geometry": { "type": "Point", "coordinates": [ -83.056641, 39.774769 ] } }
{"year": "AD215",  "type": "Feature", "tippecanoe": { "layer": "2AFC9E3FD7B81583917236077", "minzoom": 2, "maxzoom": 8 }, "properties": { "halo": 1.6, "title": "阿姆斯特朗文化", "fontsize": 12, "tyid": "304002", "oid": "103:1576575179917", "color": "#0056E7" }, "geometry": { "type": "Point", "coordinates": [ -82.968750, 38.134557 ] } }
{"year": "AD215",  "type": "Feature", "tippecanoe": { "layer": "2AFC9E3FD7B81583917236077", "minzoom": 2, "maxzoom": 8 }, "properties": { "halo": 1.6, "title": "德普特福德文化", "fontsize": 12, "tyid": "304002", "oid": "103:1576575180062", "color": "#0056E7" }, "geometry": { "type": "Point", "coordinates": [ -79.628906, 33.431441 ] } }
{"year": "AD215",  "type": "Feature", "tippecanoe": { "layer": "2AFC9E3FD7B81583917236077", "minzoom": 2, "maxzoom": 8 }, "properties": { "halo": 1.6, "title": "圣罗莎-斯威夫特溪文化", "fontsize": 12, "tyid": "304002", "oid": "103:1576575179899", "color": "#0056E7" }, "geometry": { "type": "Point", "coordinates": [ -86.396484, 30.902225 ] } }
{"year": "AD215",  "type": "Feature", "tippecanoe": { "layer": "2AFC9E3FD7B81583917236077", "minzoom": 2, "maxzoom": 8 }, "properties": { "halo": 1.6, "title": "斯威夫特溪文化", "fontsize": 12, "tyid": "304002", "oid": "103:1576575179621", "color": "#0056E7" }, "geometry": { "type": "Point", "coordinates": [ -84.111328, 31.428663 ] } }
{"year": "AD215",  "type": "Feature", "tippecanoe": { "layer": "2AFC9E3FD7B81583917236077", "minzoom": 2, "maxzoom": 8 }, "properties": { "halo": 1.6, "title": "玛雅文明[前古典时期]", "fontsize": 12, "tyid": "304002", "oid": "103:1576575179585", "color": "#0056E7" }, "geometry": { "type": "Point", "coordinates": [ -89.296875, 17.056785 ] } }
{"year": "AD215",  "type": "Feature", "tippecanoe": { "layer": "2AFC9E3FD7B81583917236077", "minzoom": 2, "maxzoom": 8 }, "properties": { "halo": 1.6, "title": "兹努文化", "fontsize": 12, "tyid": "304002", "oid": "103:1576575179775", "color": "#0056E7" }, "geometry": { "type": "Point", "coordinates": [ -75.585938, 8.581021 ] } }
{"year": "AD215",  "type": "Feature", "tippecanoe": { "layer": "2AFC9E3FD7B81583917236077", "minzoom": 2, "maxzoom": 8 }, "properties": { "halo": 1.6, "title": "埃雷拉时期", "fontsize": 12, "tyid": "304002", "oid": "103:1576575180053", "color": "#0056E7" }, "geometry": { "type": "Point", "coordinates": [ -73.476562, 5.441022 ] } }
{"year": "AD215",  "type": "Feature", "tippecanoe": { "layer": "2AFC9E3FD7B81583917236077", "minzoom": 2, "maxzoom": 8 }, "properties": { "halo": 1.6, "title": "伊奈里人", "fontsize": 12, "tyid": "304001", "oid": "103:1576575179761", "color": "#0056E7" }, "geometry": { "type": "Point", "coordinates": [ -61.787109, 8.754795 ] } }
{"year": "AD215",  "type": "Feature", "tippecanoe": { "layer": "2AFC9E3FD7B81583917236077", "minzoom": 2, "maxzoom": 8 }, "properties": { "halo": 1.6, "title": "喀里多尼亚人", "fontsize": 12, "tyid": "304001", "oid": "103:1576575180037", "color": "#0056E7" }, "geometry": { "type": "Point", "coordinates": [ -4.042969, 56.992883 ] } }
{"year": "AD215",  "type": "Feature", "tippecanoe": { "layer": "2AFC9E3FD7B81583917236077", "minzoom": 2, "maxzoom": 8 }, "properties": { "halo": 1.6, "title": "盖尔人", "fontsize": 12, "tyid": "304001", "oid": "103:1576575179697", "color": "#0056E7" }, "geometry": { "type": "Point", "coordinates": [ -9.228516, 52.052490 ] } }
{"year": "AD215",  "type": "Feature", "tippecanoe": { "layer": "2AFC9E3FD7B81583917236077", "minzoom": 2, "maxzoom": 8 }, "properties": { "halo": 1.8, "title": "沃塔迪尼人", "fontsize": 12, "tyid": "304000", "oid": "103:1576575180035", "color": "#0056E7" }, "geometry": { "type": "Point", "coordinates": [ -3.164062, 55.528631 ] } }
{"year": "AD215",  "type": "Feature", "tippecanoe": { "layer": "2AFC9E3FD7B81583917236077", "minzoom": 2, "maxzoom": 8 }, "properties": { "halo": 1.6, "title": "杰内-杰诺文化二期", "fontsize": 12, "tyid": "304002", "oid": "103:1576575179736", "color": "#0056E7" }, "geometry": { "type": "Point", "coordinates": [ -5.097656, 13.752725 ] } }
{"year": "AD215",  "type": "Feature", "tippecanoe": { "layer": "2AFC9E3FD7B81583917236077", "minzoom": 2, "maxzoom": 8 }, "properties": { "halo": 1.6, "title": "楚真文化", "fontsize": 12, "tyid": "304002", "oid": "103:1576575180059", "color": "#0056E7" }, "geometry": { "type": "Point", "coordinates": [ -70.576172, -16.299051 ] } }
{"year": "AD215",  "type": "Feature", "tippecanoe": { "layer": "2AFC9E3FD7B81583917236077", "minzoom": 2, "maxzoom": 8 }, "properties": { "halo": 1.6, "title": "普加拉文化", "fontsize": 12, "tyid": "304002", "oid": "103:1576575179776", "color": "#0056E7" }, "geometry": { "type": "Point", "coordinates": [ -69.697266, -13.838080 ] } }
{"year": "AD215",  "type": "Feature", "tippecanoe": { "layer": "2AFC9E3FD7B81583917236077", "minzoom": 2, "maxzoom": 8 }, "properties": { "halo": 1.6, "title": "艾马拉人", "fontsize": 12, "tyid": "304001", "oid": "103:1576575179894", "color": "#0056E7" }, "geometry": { "type": "Point", "coordinates": [ -68.291016, -17.224758 ] } }
{"year": "AD215",  "type": "Feature", "tippecanoe": { "layer": "2AFC9E3FD7B81583917236077", "minzoom": 2, "maxzoom": 8 }, "properties": { "halo": 1.6, "title": "昌戈人", "fontsize": 12, "tyid": "304001", "oid": "103:1576575179610", "color": "#0056E7" }, "geometry": { "type": "Point", "coordinates": [ -69.960938, -23.725012 ] } }
{"year": "AD215",  "type": "Feature", "tippecanoe": { "layer": "2AFC9E3FD7B81583917236077", "minzoom": 2, "maxzoom": 8 }, "properties": { "halo": 1.6, "title": "阿拉米托文化", "fontsize": 12, "tyid": "304002", "oid": "103:1576575179923", "color": "#0056E7" }, "geometry": { "type": "Point", "coordinates": [ -67.851562, -26.588527 ] } }
{"year": "AD215",  "type": "Feature", "tippecanoe": { "layer": "2AFC9E3FD7B81583917236077", "minzoom": 2, "maxzoom": 8 }, "properties": { "halo": 1.6, "title": "埃尔莫尔文化", "fontsize": 12, "tyid": "304002", "oid": "103:1576575179783", "color": "#0056E7" }, "geometry": { "type": "Point", "coordinates": [ -70.927734, -30.675715 ] } }
{"year": "AD215",  "type": "Feature", "tippecanoe": { "layer": "2AFC9E3FD7B81583917236077", "minzoom": 2, "maxzoom": 8 }, "properties": { "halo": 1.6, "title": "安西尔塔文化", "fontsize": 12, "tyid": "304002", "oid": "103:1576575179692", "color": "#0056E7" }, "geometry": { "type": "Point", "coordinates": [ -68.818359, -31.353637 ] } }
{"year": "AD215",  "type": "Feature", "tippecanoe": { "layer": "2AFC9E3FD7B81583917236077", "minzoom": 2, "maxzoom": 8 }, "properties": { "halo": 1.6, "title": "巴托文化", "fontsize": 12, "tyid": "304002", "oid": "103:1576575179634", "color": "#0056E7" }, "geometry": { "type": "Point", "coordinates": [ -70.839844, -33.431441 ] } }
{"year": "AD215",  "type": "Feature", "tippecanoe": { "layer": "2AFC9E3FD7B81583917236077", "minzoom": 2, "maxzoom": 8 }, "properties": { "halo": 1.6, "title": "马普切人", "fontsize": 12, "tyid": "304001", "oid": "103:1576575179831", "color": "#0056E7" }, "geometry": { "type": "Point", "coordinates": [ -71.455078, -38.959409 ] } }
{"year": "AD215",  "type": "Feature", "tippecanoe": { "layer": "2AFC9E3FD7B81583917236077", "minzoom": 2, "maxzoom": 8 }, "properties": { "halo": 1.6, "title": "希德拉里卡文化", "fontsize": 12, "tyid": "304002", "oid": "103:1576575179963", "color": "#0056E7" }, "geometry": { "type": "Point", "coordinates": [ -66.005859, -12.297068 ] } }
{"year": "AD215",  "type": "Feature", "tippecanoe": { "layer": "2AFC9E3FD7B81583917236077", "minzoom": 2, "maxzoom": 8 }, "properties": { "halo": 1.6, "title": "摩克索人", "fontsize": 12, "tyid": "304001", "oid": "103:1576575179716", "color": "#0056E7" }, "geometry": { "type": "Point", "coordinates": [ -65.830078, -13.923404 ] } }
{"year": "AD215",  "type": "Feature", "tippecanoe": { "layer": "2AFC9E3FD7B81583917236077", "minzoom": 2, "maxzoom": 8 }, "properties": { "halo": 1.6, "title": "瓦卡拉尼文化", "fontsize": 12, "tyid": "304002", "oid": "103:1576575179657", "color": "#0056E7" }, "geometry": { "type": "Point", "coordinates": [ -64.951172, -17.811456 ] } }
{"year": "AD215",  "type": "Feature", "tippecanoe": { "layer": "2AFC9E3FD7B81583917236077", "minzoom": 2, "maxzoom": 8 }, "properties": { "halo": 1.6, "title": "康多拉瓦西文化", "fontsize": 12, "tyid": "304002", "oid": "103:1576575179938", "color": "#0056E7" }, "geometry": { "type": "Point", "coordinates": [ -66.708984, -27.293689 ] } }
{"year": "AD215",  "type": "Feature", "tippecanoe": { "layer": "2AFC9E3FD7B81583917236077", "minzoom": 2, "maxzoom": 8 }, "properties": { "halo": 1.6, "title": "拉斯梅塞德斯文化", "fontsize": 12, "tyid": "304002", "oid": "103:1576575180057", "color": "#0056E7" }, "geometry": { "type": "Point", "coordinates": [ -63.808594, -27.605671 ] } }
{"year": "AD215",  "type": "Feature", "tippecanoe": { "layer": "2AFC9E3FD7B81583917236077", "minzoom": 2, "maxzoom": 8 }, "properties": { "halo": 1.6, "title": "查鲁亚人", "fontsize": 12, "tyid": "304001", "oid": "103:1576575179940", "color": "#0056E7" }, "geometry": { "type": "Point", "coordinates": [ -57.128906, -32.398516 ] } }
{"year": "AD215",  "type": "Feature", "tippecanoe": { "layer": "2AFC9E3FD7B81583917236077", "minzoom": 2, "maxzoom": 8 }, "properties": { "halo": 1.6, "title": "特胡尔切人", "fontsize": 12, "tyid": "304001", "oid": "103:1576575179714", "color": "#0056E7" }, "geometry": { "type": "Point", "coordinates": [ -70.751953, -50.176898 ] } }
{"year": "AD215",  "type": "Feature", "tippecanoe": { "layer": "2AFC9E3FD7B81583917236077", "minzoom": 2, "maxzoom": 8 }, "properties": { "halo": 1.6, "title": "塞尔克南人", "fontsize": 12, "tyid": "304001", "oid": "103:1576575179947", "color": "#0056E7" }, "geometry": { "type": "Point", "coordinates": [ -68.378906, -53.696706 ] } }
{"year": "AD215",  "type": "Feature", "tippecanoe": { "layer": "2AFC9E3FD7B81583917236077", "minzoom": 2, "maxzoom": 8 }, "properties": { "halo": 1.6, "title": "雅干人", "fontsize": 12, "tyid": "304001", "oid": "103:1576575180042", "color": "#0056E7" }, "geometry": { "type": "Point", "coordinates": [ -68.554688, -54.521081 ] } }
{"year": "AD215",  "type": "Feature", "tippecanoe": { "layer": "2AFC9E3FD7B81583917236077", "minzoom": 2, "maxzoom": 8 }, "properties": { "halo": 1.6, "title": "朱特人", "fontsize": 12, "tyid": "304001", "oid": "103:1576575179884", "color": "#0056E7" }, "geometry": { "type": "Point", "coordinates": [ 9.316406, 56.267761 ] } }
{"year": "AD215",  "type": "Feature", "tippecanoe": { "layer": "2AFC9E3FD7B81583917236077", "minzoom": 2, "maxzoom": 8 }, "properties": { "halo": 1.6, "title": "耶阿特人", "fontsize": 12, "tyid": "304001", "oid": "103:1576575179924", "color": "#0056E7" }, "geometry": { "type": "Point", "coordinates": [ 13.710938, 57.657158 ] } }
{"year": "AD215",  "type": "Feature", "tippecanoe": { "layer": "2AFC9E3FD7B81583917236077", "minzoom": 2, "maxzoom": 8 }, "properties": { "halo": 1.6, "title": "赫鲁利人", "fontsize": 12, "tyid": "304001", "oid": "103:1576575179869", "color": "#0056E7" }, "geometry": { "type": "Point", "coordinates": [ 13.447266, 55.875311 ] } }
{"year": "AD215",  "type": "Feature", "tippecanoe": { "layer": "2AFC9E3FD7B81583917236077", "minzoom": 2, "maxzoom": 8 }, "properties": { "halo": 1.6, "title": "乔西人", "fontsize": 12, "tyid": "304001", "oid": "103:1576575179843", "color": "#0056E7" }, "geometry": { "type": "Point", "coordinates": [ 8.613281, 53.120405 ] } }
{"year": "AD215",  "type": "Feature", "tippecanoe": { "layer": "2AFC9E3FD7B81583917236077", "minzoom": 2, "maxzoom": 8 }, "properties": { "halo": 1.6, "title": "切鲁西人", "fontsize": 12, "tyid": "304001", "oid": "103:1576575179846", "color": "#0056E7" }, "geometry": { "type": "Point", "coordinates": [ 10.634766, 52.429222 ] } }
{"year": "AD215",  "type": "Feature", "tippecanoe": { "layer": "2AFC9E3FD7B81583917236077", "minzoom": 2, "maxzoom": 8 }, "properties": { "halo": 1.6, "title": "查蒂人", "fontsize": 12, "tyid": "304001", "oid": "103:1576575180043", "color": "#0056E7" }, "geometry": { "type": "Point", "coordinates": [ 8.964844, 50.736455 ] } }
{"year": "AD215",  "type": "Feature", "tippecanoe": { "layer": "2AFC9E3FD7B81583917236077", "minzoom": 2, "maxzoom": 8 }, "properties": { "halo": 1.6, "title": "赫门杜里人", "fontsize": 12, "tyid": "304001", "oid": "103:1576575180032", "color": "#0056E7" }, "geometry": { "type": "Point", "coordinates": [ 11.162109, 50.345460 ] } }
{"year": "AD215",  "type": "Feature", "tippecanoe": { "layer": "2AFC9E3FD7B81583917236077", "minzoom": 2, "maxzoom": 8 }, "properties": { "halo": 1.6, "title": "伦巴第人", "fontsize": 12, "tyid": "304001", "oid": "103:1576575179842", "color": "#0056E7" }, "geometry": { "type": "Point", "coordinates": [ 12.656250, 53.540307 ] } }
{"year": "AD215",  "type": "Feature", "tippecanoe": { "layer": "2AFC9E3FD7B81583917236077", "minzoom": 2, "maxzoom": 8 }, "properties": { "halo": 1.6, "title": "鲁基人", "fontsize": 12, "tyid": "304001", "oid": "103:1576575180010", "color": "#0056E7" }, "geometry": { "type": "Point", "coordinates": [ 16.611328, 53.748711 ] } }
{"year": "AD215",  "type": "Feature", "tippecanoe": { "layer": "2AFC9E3FD7B81583917236077", "minzoom": 2, "maxzoom": 8 }, "properties": { "halo": 1.6, "title": "苏维汇人", "fontsize": 12, "tyid": "304001", "oid": "103:1576575180044", "color": "#0056E7" }, "geometry": { "type": "Point", "coordinates": [ 13.271484, 51.672555 ] } }
{"year": "AD215",  "type": "Feature", "tippecanoe": { "layer": "2AFC9E3FD7B81583917236077", "minzoom": 2, "maxzoom": 8 }, "properties": { "halo": 1.6, "title": "马科曼尼人", "fontsize": 12, "tyid": "304001", "oid": "103:1576575180041", "color": "#0056E7" }, "geometry": { "type": "Point", "coordinates": [ 14.501953, 49.610710 ] } }
{"year": "AD215",  "type": "Feature", "tippecanoe": { "layer": "2AFC9E3FD7B81583917236077", "minzoom": 2, "maxzoom": 8 }, "properties": { "halo": 1.6, "title": "格皮德人", "fontsize": 12, "tyid": "304001", "oid": "103:1576575179832", "color": "#0056E7" }, "geometry": { "type": "Point", "coordinates": [ 19.687500, 53.278353 ] } }
{"year": "AD215",  "type": "Feature", "tippecanoe": { "layer": "2AFC9E3FD7B81583917236077", "minzoom": 2, "maxzoom": 8 }, "properties": { "halo": 1.6, "title": "勃艮第人", "fontsize": 12, "tyid": "304001", "oid": "103:1576575179845", "color": "#0056E7" }, "geometry": { "type": "Point", "coordinates": [ 17.929688, 52.375599 ] } }
{"year": "AD215",  "type": "Feature", "tippecanoe": { "layer": "2AFC9E3FD7B81583917236077", "minzoom": 2, "maxzoom": 8 }, "properties": { "halo": 1.6, "title": "西林吉人", "fontsize": 12, "tyid": "304001", "oid": "103:1576575179849", "color": "#0056E7" }, "geometry": { "type": "Point", "coordinates": [ 17.490234, 50.736455 ] } }
{"year": "AD215",  "type": "Feature", "tippecanoe": { "layer": "2AFC9E3FD7B81583917236077", "minzoom": 2, "maxzoom": 8 }, "properties": { "halo": 1.6, "title": "卢基人", "fontsize": 12, "tyid": "304001", "oid": "103:1576575180009", "color": "#0056E7" }, "geometry": { "type": "Point", "coordinates": [ 20.390625, 50.958427 ] } }
{"year": "AD215",  "type": "Feature", "tippecanoe": { "layer": "2AFC9E3FD7B81583917236077", "minzoom": 2, "maxzoom": 8 }, "properties": { "halo": 1.6, "title": "哥蒂尼人", "fontsize": 12, "tyid": "304001", "oid": "103:1576575179887", "color": "#0056E7" }, "geometry": { "type": "Point", "coordinates": [ 21.796875, 49.210420 ] } }
{"year": "AD215",  "type": "Feature", "tippecanoe": { "layer": "2AFC9E3FD7B81583917236077", "minzoom": 2, "maxzoom": 8 }, "properties": { "halo": 1.6, "title": "夸迪人", "fontsize": 12, "tyid": "304001", "oid": "103:1576575179823", "color": "#0056E7" }, "geometry": { "type": "Point", "coordinates": [ 18.369141, 48.864715 ] } }
{"year": "AD215",  "type": "Feature", "tippecanoe": { "layer": "2AFC9E3FD7B81583917236077", "minzoom": 2, "maxzoom": 8 }, "properties": { "halo": 1.6, "title": "埃阿热格人", "fontsize": 12, "tyid": "304001", "oid": "103:1576575179838", "color": "#0056E7" }, "geometry": { "type": "Point", "coordinates": [ 20.566406, 47.100045 ] } }
{"year": "AD215",  "type": "Feature", "tippecanoe": { "layer": "2AFC9E3FD7B81583917236077", "minzoom": 2, "maxzoom": 8 }, "properties": { "halo": 1.6, "title": "古爱沙尼亚人", "fontsize": 12, "tyid": "304001", "oid": "103:1576575179973", "color": "#0056E7" }, "geometry": { "type": "Point", "coordinates": [ 25.576172, 58.995311 ] } }
{"year": "AD215",  "type": "Feature", "tippecanoe": { "layer": "2AFC9E3FD7B81583917236077", "minzoom": 2, "maxzoom": 8 }, "properties": { "halo": 1.6, "title": "利沃尼亚人", "fontsize": 12, "tyid": "304001", "oid": "103:1576575179981", "color": "#0056E7" }, "geometry": { "type": "Point", "coordinates": [ 25.839844, 58.170702 ] } }
{"year": "AD215",  "type": "Feature", "tippecanoe": { "layer": "2AFC9E3FD7B81583917236077", "minzoom": 2, "maxzoom": 8 }, "properties": { "halo": 1.6, "title": "古拉脱维亚人", "fontsize": 12, "tyid": "304001", "oid": "103:1576575179807", "color": "#0056E7" }, "geometry": { "type": "Point", "coordinates": [ 26.630859, 56.848972 ] } }
{"year": "AD215",  "type": "Feature", "tippecanoe": { "layer": "2AFC9E3FD7B81583917236077", "minzoom": 2, "maxzoom": 8 }, "properties": { "halo": 1.6, "title": "沃茨人", "fontsize": 12, "tyid": "304001", "oid": "103:1576575179955", "color": "#0056E7" }, "geometry": { "type": "Point", "coordinates": [ 29.794922, 59.040555 ] } }
{"year": "AD215",  "type": "Feature", "tippecanoe": { "layer": "2AFC9E3FD7B81583917236077", "minzoom": 2, "maxzoom": 8 }, "properties": { "halo": 1.6, "title": "达契亚人", "fontsize": 12, "tyid": "304001", "oid": "103:1576575179885", "color": "#0056E7" }, "geometry": { "type": "Point", "coordinates": [ 24.960938, 47.635784 ] } }
{"year": "AD215",  "type": "Feature", "tippecanoe": { "layer": "2AFC9E3FD7B81583917236077", "minzoom": 2, "maxzoom": 8 }, "properties": { "halo": 1.6, "title": "哈斯丁基人", "fontsize": 12, "tyid": "304001", "oid": "103:1576575179851", "color": "#0056E7" }, "geometry": { "type": "Point", "coordinates": [ 25.576172, 48.632909 ] } }
{"year": "AD215",  "type": "Feature", "tippecanoe": { "layer": "2AFC9E3FD7B81583917236077", "minzoom": 2, "maxzoom": 8 }, "properties": { "halo": 1.6, "title": "卡尔皮人", "fontsize": 12, "tyid": "304001", "oid": "103:1576575180038", "color": "#0056E7" }, "geometry": { "type": "Point", "coordinates": [ 27.158203, 46.860191 ] } }
{"year": "AD215",  "type": "Feature", "tippecanoe": { "layer": "2AFC9E3FD7B81583917236077", "minzoom": 2, "maxzoom": 8 }, "properties": { "halo": 1.6, "title": "巴斯塔奈人", "fontsize": 12, "tyid": "304001", "oid": "103:1576575180047", "color": "#0056E7" }, "geometry": { "type": "Point", "coordinates": [ 28.564453, 48.516604 ] } }
{"year": "AD215",  "type": "Feature", "tippecanoe": { "layer": "2AFC9E3FD7B81583917236077", "minzoom": 2, "maxzoom": 8 }, "properties": { "halo": 1.6, "title": "哥特人", "fontsize": 12, "tyid": "304001", "oid": "103:1576575179834", "color": "#0056E7" }, "geometry": { "type": "Point", "coordinates": [ 31.464844, 47.694974 ] } }
{"year": "AD215",  "type": "Feature", "tippecanoe": { "layer": "2AFC9E3FD7B81583917236077", "minzoom": 2, "maxzoom": 8 }, "properties": { "halo": 1.8, "title": "博斯普鲁斯王国", "fontsize": 12, "tyid": "304000", "oid": "103:1576575180096", "color": "#0056E7" }, "geometry": { "type": "Point", "coordinates": [ 38.144531, 45.274886 ] } }
{"year": "AD215",  "type": "Feature", "tippecanoe": { "layer": "2AFC9E3FD7B81583917236077", "minzoom": 2, "maxzoom": 8 }, "properties": { "halo": 1.6, "title": "切尔克斯人", "fontsize": 12, "tyid": "304001", "oid": "103:1576575179813", "color": "#0056E7" }, "geometry": { "type": "Point", "coordinates": [ 41.748047, 43.771094 ] } }
{"year": "AD215",  "type": "Feature", "tippecanoe": { "layer": "2AFC9E3FD7B81583917236077", "minzoom": 2, "maxzoom": 8 }, "properties": { "halo": 1.8, "title": "拉基卡王国", "fontsize": 12, "tyid": "304000", "oid": "103:1576575180087", "color": "#0056E7" }, "geometry": { "type": "Point", "coordinates": [ 42.363281, 42.423457 ] } }
{"year": "AD215",  "type": "Feature", "tippecanoe": { "layer": "2AFC9E3FD7B81583917236077", "minzoom": 2, "maxzoom": 8 }, "properties": { "halo": 1.8, "title": "高加索伊比利亚王国", "fontsize": 12, "tyid": "304000", "oid": "103:1576575180090", "color": "#0056E7" }, "geometry": { "type": "Point", "coordinates": [ 44.560547, 41.967659 ] } }
{"year": "AD215",  "type": "Feature", "tippecanoe": { "layer": "2AFC9E3FD7B81583917236077", "minzoom": 2, "maxzoom": 8 }, "properties": { "halo": 1.8, "title": "加拉曼特王国", "fontsize": 12, "tyid": "304000", "oid": "103:1576575179664", "color": "#0056E7" }, "geometry": { "type": "Point", "coordinates": [ 13.886719, 26.902477 ] } }
{"year": "AD215",  "type": "Feature", "tippecanoe": { "layer": "2AFC9E3FD7B81583917236077", "minzoom": 2, "maxzoom": 8 }, "properties": { "halo": 1.6, "title": "约鲁巴人", "fontsize": 12, "tyid": "304001", "oid": "103:1576575179985", "color": "#0056E7" }, "geometry": { "type": "Point", "coordinates": [ 3.427734, 7.536764 ] } }
{"year": "AD215",  "type": "Feature", "tippecanoe": { "layer": "2AFC9E3FD7B81583917236077", "minzoom": 2, "maxzoom": 8 }, "properties": { "halo": 1.6, "title": "伊博人", "fontsize": 12, "tyid": "304001", "oid": "103:1576575179956", "color": "#0056E7" }, "geometry": { "type": "Point", "coordinates": [ 7.998047, 5.965754 ] } }
{"year": "AD215",  "type": "Feature", "tippecanoe": { "layer": "2AFC9E3FD7B81583917236077", "minzoom": 2, "maxzoom": 8 }, "properties": { "halo": 1.8, "title": "奥斯若恩王国", "fontsize": 12, "tyid": "304000", "oid": "103:1576575180088", "color": "#0056E7" }, "geometry": { "type": "Point", "coordinates": [ 38.759766, 36.949892 ] } }
{"year": "AD215",  "type": "Feature", "tippecanoe": { "layer": "2AFC9E3FD7B81583917236077", "minzoom": 2, "maxzoom": 8 }, "properties": { "halo": 1.8, "title": "帕尔米拉酋长国", "fontsize": 12, "tyid": "304000", "oid": "103:1576575180084", "color": "#0056E7" }, "geometry": { "type": "Point", "coordinates": [ 38.583984, 34.813803 ] } }
{"year": "AD215",  "type": "Feature", "tippecanoe": { "layer": "2AFC9E3FD7B81583917236077", "minzoom": 2, "maxzoom": 8 }, "properties": { "halo": 1.8, "title": "阿迪亚波纳王国", "fontsize": 12, "tyid": "304000", "oid": "103:1576575180091", "color": "#0056E7" }, "geometry": { "type": "Point", "coordinates": [ 43.945312, 36.597889 ] } }
{"year": "AD215",  "type": "Feature", "tippecanoe": { "layer": "2AFC9E3FD7B81583917236077", "minzoom": 2, "maxzoom": 8 }, "properties": { "halo": 1.6, "title": "瓦努拉赫姆", "fontsize": 12, "tyid": "304001", "oid": "103:1576575179891", "color": "#0056E7" }, "geometry": { "type": "Point", "coordinates": [ 43.417969, 32.546813 ] } }
{"year": "AD215",  "type": "Feature", "tippecanoe": { "layer": "2AFC9E3FD7B81583917236077", "minzoom": 2, "maxzoom": 8 }, "properties": { "halo": 1.6, "title": "布雷米耶国", "fontsize": 12, "tyid": "304001", "oid": "103:1576575180065", "color": "#0056E7" }, "geometry": { "type": "Point", "coordinates": [ 34.980469, 21.371244 ] } }
{"year": "AD215",  "type": "Feature", "tippecanoe": { "layer": "2AFC9E3FD7B81583917236077", "minzoom": 2, "maxzoom": 8 }, "properties": { "halo": 1.6, "title": "贝扎人", "fontsize": 12, "tyid": "304001", "oid": "103:1576575179810", "color": "#0056E7" }, "geometry": { "type": "Point", "coordinates": [ 35.595703, 16.299051 ] } }
{"year": "AD215",  "type": "Feature", "tippecanoe": { "layer": "2AFC9E3FD7B81583917236077", "minzoom": 2, "maxzoom": 8 }, "properties": { "halo": 1.6, "title": "赛莫德人", "fontsize": 12, "tyid": "304001", "oid": "103:1576575179670", "color": "#0056E7" }, "geometry": { "type": "Point", "coordinates": [ 42.451172, 21.779905 ] } }
{"year": "AD215",  "type": "Feature", "tippecanoe": { "layer": "2AFC9E3FD7B81583917236077", "minzoom": 2, "maxzoom": 8 }, "properties": { "halo": 1.6, "title": "巴基尔联盟", "fontsize": 12, "tyid": "304002", "oid": "103:1576575179877", "color": "#0056E7" }, "geometry": { "type": "Point", "coordinates": [ 43.505859, 15.876809 ] } }
{"year": "AD215",  "type": "Feature", "tippecanoe": { "layer": "2AFC9E3FD7B81583917236077", "minzoom": 2, "maxzoom": 8 }, "properties": { "halo": 1.6, "title": "派诺博尔斯基文化", "fontsize": 12, "tyid": "304002", "oid": "103:1576575179953", "color": "#0056E7" }, "geometry": { "type": "Point", "coordinates": [ 50.449219, 56.897004 ] } }
{"year": "AD215",  "type": "Feature", "tippecanoe": { "layer": "2AFC9E3FD7B81583917236077", "minzoom": 2, "maxzoom": 8 }, "properties": { "halo": 1.6, "title": "纳赫人", "fontsize": 12, "tyid": "304001", "oid": "103:1576575180034", "color": "#0056E7" }, "geometry": { "type": "Point", "coordinates": [ 45.878906, 42.875964 ] } }
{"year": "AD215",  "type": "Feature", "tippecanoe": { "layer": "2AFC9E3FD7B81583917236077", "minzoom": 2, "maxzoom": 8 }, "properties": { "halo": 1.6, "title": "塞迦人", "fontsize": 12, "tyid": "304001", "oid": "103:1576575180100", "color": "#0056E7" }, "geometry": { "type": "Point", "coordinates": [ 56.777344, 42.163403 ] } }
{"year": "AD215",  "type": "Feature", "tippecanoe": { "layer": "2AFC9E3FD7B81583917236077", "minzoom": 2, "maxzoom": 8 }, "properties": { "halo": 1.8, "title": "驩潜国", "fontsize": 12, "tyid": "304000", "oid": "103:1576575179708", "color": "#0056E7" }, "geometry": { "type": "Point", "coordinates": [ 59.765625, 42.488302 ] } }
{"year": "AD215",  "type": "Feature", "tippecanoe": { "layer": "2AFC9E3FD7B81583917236077", "minzoom": 2, "maxzoom": 8 }, "properties": { "halo": 1.8, "title": "龟兹国", "fontsize": 12, "tyid": "304000", "oid": "103:1576575180019", "color": "#0056E7" }, "geometry": { "type": "Point", "coordinates": [ 83.408203, 41.376809 ] } }
{"year": "AD215",  "type": "Feature", "tippecanoe": { "layer": "2AFC9E3FD7B81583917236077", "minzoom": 2, "maxzoom": 8 }, "properties": { "halo": 1.8, "title": "焉耆国", "fontsize": 12, "tyid": "304000", "oid": "103:1576575180060", "color": "#0056E7" }, "geometry": { "type": "Point", "coordinates": [ 85.693359, 41.640078 ] } }
{"year": "AD215",  "type": "Feature", "tippecanoe": { "layer": "2AFC9E3FD7B81583917236077", "minzoom": 2, "maxzoom": 8 }, "properties": { "halo": 1.8, "title": "车师前国", "fontsize": 12, "tyid": "304000", "oid": "103:1576575179593", "color": "#0056E7" }, "geometry": { "type": "Point", "coordinates": [ 89.296875, 43.452919 ] } }
{"year": "AD215",  "type": "Feature", "tippecanoe": { "layer": "2AFC9E3FD7B81583917236077", "minzoom": 2, "maxzoom": 8 }, "properties": { "halo": 1.8, "title": "危须国", "fontsize": 12, "tyid": "304000", "oid": "103:1576575179693", "color": "#0056E7" }, "geometry": { "type": "Point", "coordinates": [ 87.363281, 42.423457 ] } }
{"year": "AD215",  "type": "Feature", "tippecanoe": { "layer": "2AFC9E3FD7B81583917236077", "minzoom": 2, "maxzoom": 8 }, "properties": { "halo": 1.8, "title": "墨山国", "fontsize": 12, "tyid": "304000", "oid": "103:1576575179648", "color": "#0056E7" }, "geometry": { "type": "Point", "coordinates": [ 88.593750, 41.310824 ] } }
{"year": "AD215",  "type": "Feature", "tippecanoe": { "layer": "2AFC9E3FD7B81583917236077", "minzoom": 2, "maxzoom": 8 }, "properties": { "halo": 1.8, "title": "高加索阿尔巴尼亚王国", "fontsize": 12, "tyid": "304000", "oid": "103:1576575180026", "color": "#0056E7" }, "geometry": { "type": "Point", "coordinates": [ 48.076172, 40.580585 ] } }
{"year": "AD215",  "type": "Feature", "tippecanoe": { "layer": "2AFC9E3FD7B81583917236077", "minzoom": 2, "maxzoom": 8 }, "properties": { "halo": 1.8, "title": "阿特罗帕特尼王国", "fontsize": 12, "tyid": "304000", "oid": "103:1576575180082", "color": "#0056E7" }, "geometry": { "type": "Point", "coordinates": [ 47.900391, 37.996163 ] } }
{"year": "AD215",  "type": "Feature", "tippecanoe": { "layer": "2AFC9E3FD7B81583917236077", "minzoom": 2, "maxzoom": 8 }, "properties": { "halo": 1.8, "title": "查拉塞尼王国", "fontsize": 12, "tyid": "304000", "oid": "103:1576575180085", "color": "#0056E7" }, "geometry": { "type": "Point", "coordinates": [ 47.460938, 31.278551 ] } }
{"year": "AD215",  "type": "Feature", "tippecanoe": { "layer": "2AFC9E3FD7B81583917236077", "minzoom": 2, "maxzoom": 8 }, "properties": { "halo": 1.8, "title": "埃利迈斯王国", "fontsize": 12, "tyid": "304000", "oid": "103:1576575180099", "color": "#0056E7" }, "geometry": { "type": "Point", "coordinates": [ 49.130859, 31.653381 ] } }
{"year": "AD215",  "type": "Feature", "tippecanoe": { "layer": "2AFC9E3FD7B81583917236077", "minzoom": 2, "maxzoom": 8 }, "properties": { "halo": 1.8, "title": "塞巴王国", "fontsize": 12, "tyid": "304000", "oid": "103:1576575179908", "color": "#0056E7" }, "geometry": { "type": "Point", "coordinates": [ 45.351562, 16.045813 ] } }
{"year": "AD215",  "type": "Feature", "tippecanoe": { "layer": "2AFC9E3FD7B81583917236077", "minzoom": 2, "maxzoom": 8 }, "properties": { "halo": 1.8, "title": "希木叶尔王国", "fontsize": 12, "tyid": "304000", "oid": "103:1576575179682", "color": "#0056E7" }, "geometry": { "type": "Point", "coordinates": [ 45.351562, 14.093957 ] } }
{"year": "AD215",  "type": "Feature", "tippecanoe": { "layer": "2AFC9E3FD7B81583917236077", "minzoom": 2, "maxzoom": 8 }, "properties": { "halo": 1.8, "title": "阿德王国", "fontsize": 12, "tyid": "304000", "oid": "103:1576575179975", "color": "#0056E7" }, "geometry": { "type": "Point", "coordinates": [ 52.382812, 18.646245 ] } }
{"year": "AD215",  "type": "Feature", "tippecanoe": { "layer": "2AFC9E3FD7B81583917236077", "minzoom": 2, "maxzoom": 8 }, "properties": { "halo": 1.8, "title": "哈德拉毛王国", "fontsize": 12, "tyid": "304000", "oid": "103:1576575179655", "color": "#0056E7" }, "geometry": { "type": "Point", "coordinates": [ 50.976562, 16.299051 ] } }
{"year": "AD215",  "type": "Feature", "tippecanoe": { "layer": "2AFC9E3FD7B81583917236077", "minzoom": 2, "maxzoom": 8 }, "properties": { "halo": 1.8, "title": "大宛国", "fontsize": 12, "tyid": "304000", "oid": "103:1576575179996", "color": "#0056E7" }, "geometry": { "type": "Point", "coordinates": [ 71.455078, 40.713956 ] } }
{"year": "AD215",  "type": "Feature", "tippecanoe": { "layer": "2AFC9E3FD7B81583917236077", "minzoom": 2, "maxzoom": 8 }, "properties": { "halo": 1.8, "title": "休循国", "fontsize": 12, "tyid": "304000", "oid": "103:1576575179999", "color": "#0056E7" }, "geometry": { "type": "Point", "coordinates": [ 72.773438, 39.504041 ] } }
{"year": "AD215",  "type": "Feature", "tippecanoe": { "layer": "2AFC9E3FD7B81583917236077", "minzoom": 2, "maxzoom": 8 }, "properties": { "halo": 1.8, "title": "疏勒国", "fontsize": 12, "tyid": "304000", "oid": "103:1576575180023", "color": "#0056E7" }, "geometry": { "type": "Point", "coordinates": [ 75.322266, 39.842286 ] } }
{"year": "AD215",  "type": "Feature", "tippecanoe": { "layer": "2AFC9E3FD7B81583917236077", "minzoom": 2, "maxzoom": 8 }, "properties": { "halo": 1.8, "title": "无雷国", "fontsize": 12, "tyid": "304000", "oid": "103:1576575180017", "color": "#0056E7" }, "geometry": { "type": "Point", "coordinates": [ 73.476562, 38.065392 ] } }
{"year": "AD215",  "type": "Feature", "tippecanoe": { "layer": "2AFC9E3FD7B81583917236077", "minzoom": 2, "maxzoom": 8 }, "properties": { "halo": 1.8, "title": "尉头国", "fontsize": 12, "tyid": "304000", "oid": "103:1576575180021", "color": "#0056E7" }, "geometry": { "type": "Point", "coordinates": [ 78.222656, 40.313043 ] } }
{"year": "AD215",  "type": "Feature", "tippecanoe": { "layer": "2AFC9E3FD7B81583917236077", "minzoom": 2, "maxzoom": 8 }, "properties": { "halo": 1.8, "title": "乌秅国", "fontsize": 12, "tyid": "304000", "oid": "103:1576575179744", "color": "#0056E7" }, "geometry": { "type": "Point", "coordinates": [ 76.728516, 36.385913 ] } }
{"year": "AD215",  "type": "Feature", "tippecanoe": { "layer": "2AFC9E3FD7B81583917236077", "minzoom": 2, "maxzoom": 8 }, "properties": { "halo": 1.8, "title": "西萨特拉普王朝", "fontsize": 12, "tyid": "304000", "oid": "103:1576575179607", "color": "#0056E7" }, "geometry": { "type": "Point", "coordinates": [ 71.806641, 22.917923 ] } }
{"year": "AD215",  "type": "Feature", "tippecanoe": { "layer": "2AFC9E3FD7B81583917236077", "minzoom": 2, "maxzoom": 8 }, "properties": { "halo": 1.8, "title": "古宁陀王国", "fontsize": 12, "tyid": "304000", "oid": "103:1576575179672", "color": "#0056E7" }, "geometry": { "type": "Point", "coordinates": [ 76.816406, 31.503629 ] } }
{"year": "AD215",  "type": "Feature", "tippecanoe": { "layer": "2AFC9E3FD7B81583917236077", "minzoom": 2, "maxzoom": 8 }, "properties": { "halo": 1.8, "title": "姑墨国", "fontsize": 12, "tyid": "304000", "oid": "103:1576575179647", "color": "#0056E7" }, "geometry": { "type": "Point", "coordinates": [ 80.595703, 40.847060 ] } }
{"year": "AD215",  "type": "Feature", "tippecanoe": { "layer": "2AFC9E3FD7B81583917236077", "minzoom": 2, "maxzoom": 8 }, "properties": { "halo": 1.8, "title": "于阗国", "fontsize": 12, "tyid": "304000", "oid": "103:1576575179596", "color": "#0056E7" }, "geometry": { "type": "Point", "coordinates": [ 79.277344, 37.996163 ] } }
{"year": "AD215",  "type": "Feature", "tippecanoe": { "layer": "2AFC9E3FD7B81583917236077", "minzoom": 2, "maxzoom": 8 }, "properties": { "halo": 1.8, "title": "扜弥国", "fontsize": 12, "tyid": "304000", "oid": "103:1576575179577", "color": "#0056E7" }, "geometry": { "type": "Point", "coordinates": [ 81.914062, 38.616870 ] } }
{"year": "AD215",  "type": "Feature", "tippecanoe": { "layer": "2AFC9E3FD7B81583917236077", "minzoom": 2, "maxzoom": 8 }, "properties": { "halo": 1.8, "title": "般遮罗国", "fontsize": 12, "tyid": "304000", "oid": "103:1576575179594", "color": "#0056E7" }, "geometry": { "type": "Point", "coordinates": [ 79.541016, 28.690588 ] } }
{"year": "AD215",  "type": "Feature", "tippecanoe": { "layer": "2AFC9E3FD7B81583917236077", "minzoom": 2, "maxzoom": 8 }, "properties": { "halo": 1.8, "title": "克拉底王国", "fontsize": 12, "tyid": "304000", "oid": "103:1576575179599", "color": "#0056E7" }, "geometry": { "type": "Point", "coordinates": [ 84.199219, 28.071980 ] } }
{"year": "AD215",  "type": "Feature", "tippecanoe": { "layer": "2AFC9E3FD7B81583917236077", "minzoom": 2, "maxzoom": 8 }, "properties": { "halo": 1.8, "title": "耽摩栗底国", "fontsize": 12, "tyid": "304000", "oid": "103:1576575179605", "color": "#0056E7" }, "geometry": { "type": "Point", "coordinates": [ 88.593750, 22.593726 ] } }
{"year": "AD215",  "type": "Feature", "tippecanoe": { "layer": "2AFC9E3FD7B81583917236077", "minzoom": 2, "maxzoom": 8 }, "properties": { "halo": 1.8, "title": "楚图王朝", "fontsize": 12, "tyid": "304000", "oid": "103:1576575179623", "color": "#0056E7" }, "geometry": { "type": "Point", "coordinates": [ 75.058594, 15.368950 ] } }
{"year": "AD215",  "type": "Feature", "tippecanoe": { "layer": "2AFC9E3FD7B81583917236077", "minzoom": 2, "maxzoom": 8 }, "properties": { "halo": 1.8, "title": "哲罗国", "fontsize": 12, "tyid": "304000", "oid": "103:1576575179689", "color": "#0056E7" }, "geometry": { "type": "Point", "coordinates": [ 76.464844, 10.314919 ] } }
{"year": "AD215",  "type": "Feature", "tippecanoe": { "layer": "2AFC9E3FD7B81583917236077", "minzoom": 2, "maxzoom": 8 }, "properties": { "halo": 1.8, "title": "潘地亚王国", "fontsize": 12, "tyid": "304000", "oid": "103:1576575179592", "color": "#0056E7" }, "geometry": { "type": "Point", "coordinates": [ 77.958984, 9.535749 ] } }
{"year": "AD215",  "type": "Feature", "tippecanoe": { "layer": "2AFC9E3FD7B81583917236077", "minzoom": 2, "maxzoom": 8 }, "properties": { "halo": 1.8, "title": "朱罗国", "fontsize": 12, "tyid": "304000", "oid": "103:1576575179784", "color": "#0056E7" }, "geometry": { "type": "Point", "coordinates": [ 78.925781, 11.264612 ] } }
{"year": "AD215",  "type": "Feature", "tippecanoe": { "layer": "2AFC9E3FD7B81583917236077", "minzoom": 2, "maxzoom": 8 }, "properties": { "halo": 1.8, "title": "质多王朝", "fontsize": 12, "tyid": "304000", "oid": "103:1576575179898", "color": "#0056E7" }, "geometry": { "type": "Point", "coordinates": [ 84.375000, 20.385825 ] } }
{"year": "AD215",  "type": "Feature", "tippecanoe": { "layer": "2AFC9E3FD7B81583917236077", "minzoom": 2, "maxzoom": 8 }, "properties": { "halo": 1.8, "title": "阿努拉德普勒王国", "fontsize": 12, "tyid": "304000", "oid": "103:1576575180055", "color": "#0056E7" }, "geometry": { "type": "Point", "coordinates": [ 80.683594, 7.623887 ] } }
{"year": "AD215",  "type": "Feature", "tippecanoe": { "layer": "2AFC9E3FD7B81583917236077", "minzoom": 2, "maxzoom": 8 }, "properties": { "halo": 1.8, "title": "蒲类前国", "fontsize": 12, "tyid": "304000", "oid": "103:1576575179997", "color": "#0056E7" }, "geometry": { "type": "Point", "coordinates": [ 93.867188, 42.617791 ] } }
{"year": "AD215",  "type": "Feature", "tippecanoe": { "layer": "2AFC9E3FD7B81583917236077", "minzoom": 2, "maxzoom": 8 }, "properties": { "halo": 1.6, "title": "北沃沮", "fontsize": 12, "tyid": "304001", "oid": "103:1576575179742", "color": "#0056E7" }, "geometry": { "type": "Point", "coordinates": [ 128.935547, 41.967659 ] } }
{"year": "AD215",  "type": "Feature", "tippecanoe": { "layer": "2AFC9E3FD7B81583917236077", "minzoom": 2, "maxzoom": 8 }, "properties": { "halo": 1.6, "title": "烧当羌", "fontsize": 12, "tyid": "304001", "oid": "103:1576575180070", "color": "#0056E7" }, "geometry": { "type": "Point", "coordinates": [ 100.195312, 37.509726 ] } }
{"year": "AD215",  "type": "Feature", "tippecanoe": { "layer": "2AFC9E3FD7B81583917236077", "minzoom": 2, "maxzoom": 8 }, "properties": { "halo": 1.8, "title": "达纳瓦王朝", "fontsize": 12, "tyid": "304000", "oid": "103:1576575179788", "color": "#0056E7" }, "geometry": { "type": "Point", "coordinates": [ 92.724609, 25.958045 ] } }
{"year": "AD215",  "type": "Feature", "tippecanoe": { "layer": "2AFC9E3FD7B81583917236077", "minzoom": 2, "maxzoom": 8 }, "properties": { "halo": 1.8, "title": "三摩呾吒国", "fontsize": 12, "tyid": "304000", "oid": "103:1576575179971", "color": "#0056E7" }, "geometry": { "type": "Point", "coordinates": [ 91.054688, 23.725012 ] } }
{"year": "AD215",  "type": "Feature", "tippecanoe": { "layer": "2AFC9E3FD7B81583917236077", "minzoom": 2, "maxzoom": 8 }, "properties": { "halo": 1.8, "title": "古曼尼普尔王国", "fontsize": 12, "tyid": "304000", "oid": "103:1576575179616", "color": "#0056E7" }, "geometry": { "type": "Point", "coordinates": [ 93.867188, 24.766785 ] } }
{"year": "AD215",  "type": "Feature", "tippecanoe": { "layer": "2AFC9E3FD7B81583917236077", "minzoom": 2, "maxzoom": 8 }, "properties": { "halo": 1.6, "title": "南匈奴", "fontsize": 12, "tyid": "304001", "oid": "103:1576575179628", "color": "#0056E7" }, "geometry": { "type": "Point", "coordinates": [ 109.248047, 38.341656 ] } }
{"year": "AD215",  "type": "Feature", "tippecanoe": { "layer": "2AFC9E3FD7B81583917236077", "minzoom": 2, "maxzoom": 8 }, "properties": { "halo": 1.8, "title": "达雅瓦底王国", "fontsize": 12, "tyid": "304000", "oid": "103:1576575179743", "color": "#0056E7" }, "geometry": { "type": "Point", "coordinates": [ 93.339844, 20.550509 ] } }
{"year": "AD215",  "type": "Feature", "tippecanoe": { "layer": "2AFC9E3FD7B81583917236077", "minzoom": 2, "maxzoom": 8 }, "properties": { "halo": 1.8, "title": "骠国", "fontsize": 12, "tyid": "304000", "oid": "103:1576575179604", "color": "#0056E7" }, "geometry": { "type": "Point", "coordinates": [ 95.888672, 21.125498 ] } }
{"year": "AD215",  "type": "Feature", "tippecanoe": { "layer": "2AFC9E3FD7B81583917236077", "minzoom": 2, "maxzoom": 8 }, "properties": { "halo": 1.8, "title": "直通王国", "fontsize": 12, "tyid": "304000", "oid": "103:1576575179608", "color": "#0056E7" }, "geometry": { "type": "Point", "coordinates": [ 96.152344, 17.140790 ] } }
{"year": "AD215",  "type": "Feature", "tippecanoe": { "layer": "2AFC9E3FD7B81583917236077", "minzoom": 2, "maxzoom": 8 }, "properties": { "halo": 1.8, "title": "林邑国", "fontsize": 12, "tyid": "304000", "oid": "103:1576575179760", "color": "#0056E7" }, "geometry": { "type": "Point", "coordinates": [ 108.632812, 14.434680 ] } }
{"year": "AD215",  "type": "Feature", "tippecanoe": { "layer": "2AFC9E3FD7B81583917236077", "minzoom": 2, "maxzoom": 8 }, "properties": { "halo": 1.8, "title": "赤土国", "fontsize": 12, "tyid": "304000", "oid": "103:1576575179779", "color": "#0056E7" }, "geometry": { "type": "Point", "coordinates": [ 102.128906, 5.441022 ] } }
{"year": "AD215",  "type": "Feature", "tippecanoe": { "layer": "2AFC9E3FD7B81583917236077", "minzoom": 2, "maxzoom": 8 }, "properties": { "halo": 1.6, "title": "辽东公孙氏", "fontsize": 12, "tyid": "304002", "oid": "103:1576575179613", "color": "#0056E7" }, "geometry": { "type": "Point", "coordinates": [ 122.607422, 40.446947 ] } }
{"year": "AD215",  "type": "Feature", "tippecanoe": { "layer": "2AFC9E3FD7B81583917236077", "minzoom": 2, "maxzoom": 8 }, "properties": { "halo": 1.8, "title": "高句丽", "fontsize": 12, "tyid": "304000", "oid": "103:1576575179624", "color": "#0056E7" }, "geometry": { "type": "Point", "coordinates": [ 126.210938, 40.979898 ] } }
{"year": "AD215",  "type": "Feature", "tippecanoe": { "layer": "2AFC9E3FD7B81583917236077", "minzoom": 2, "maxzoom": 8 }, "properties": { "halo": 1.6, "title": "东濊", "fontsize": 12, "tyid": "304001", "oid": "103:1576575179854", "color": "#0056E7" }, "geometry": { "type": "Point", "coordinates": [ 127.792969, 38.065392 ] } }
{"year": "AD215",  "type": "Feature", "tippecanoe": { "layer": "2AFC9E3FD7B81583917236077", "minzoom": 2, "maxzoom": 8 }, "properties": { "halo": 1.6, "title": "马韩", "fontsize": 12, "tyid": "304001", "oid": "103:1576575179747", "color": "#0056E7" }, "geometry": { "type": "Point", "coordinates": [ 127.529297, 36.385913 ] } }
{"year": "AD215",  "type": "Feature", "tippecanoe": { "layer": "2AFC9E3FD7B81583917236077", "minzoom": 2, "maxzoom": 8 }, "properties": { "halo": 1.6, "title": "辰韩", "fontsize": 12, "tyid": "304001", "oid": "103:1576575179690", "color": "#0056E7" }, "geometry": { "type": "Point", "coordinates": [ 128.759766, 36.315125 ] } }
{"year": "AD215",  "type": "Feature", "tippecanoe": { "layer": "2AFC9E3FD7B81583917236077", "minzoom": 2, "maxzoom": 8 }, "properties": { "halo": 1.6, "title": "绳文人", "fontsize": 12, "tyid": "304001", "oid": "103:1576575179952", "color": "#0056E7" }, "geometry": { "type": "Point", "coordinates": [ 142.558594, 43.389082 ] } }
{"year": "AD215",  "type": "Feature", "tippecanoe": { "layer": "2AFC9E3FD7B81583917236077", "minzoom": 2, "maxzoom": 8 }, "properties": { "halo": 1.6, "title": "弥生人", "fontsize": 12, "tyid": "304001", "oid": "103:1576575180050", "color": "#0056E7" }, "geometry": { "type": "Point", "coordinates": [ 140.537109, 39.027719 ] } }
{"year": "AD215",  "type": "Feature", "tippecanoe": { "layer": "2AFC9E3FD7B81583917236077", "minzoom": 2, "maxzoom": 8 }, "properties": { "halo": 1.6, "title": "倭人诸邦", "fontsize": 12, "tyid": "304002", "oid": "103:1576575179678", "color": "#0056E7" }, "geometry": { "type": "Point", "coordinates": [ 138.339844, 36.102376 ] } }
{"year": "AD215",  "type": "Feature", "tippecanoe": { "layer": "2AFC9E3FD7B81583917236077", "minzoom": 2, "maxzoom": 8 }, "properties": { "halo": 1.6, "title": "乌莱维文明", "fontsize": 12, "tyid": "304002", "oid": "103:1576575180061", "color": "#0056E7" }, "geometry": { "type": "Point", "coordinates": [ 29.882812, -2.547988 ] } }
{"year": "AD215",  "type": "Feature", "tippecanoe": { "layer": "2AFC9E3FD7B81583917236077", "minzoom": 2, "maxzoom": 8 }, "properties": { "halo": 1.6, "title": "艾布兰文化五期", "fontsize": 12, "tyid": "304002", "oid": "103:1576575179748", "color": "#0056E7" }, "geometry": { "type": "Point", "coordinates": [ 36.474609, -0.175781 ] } }
{"year": "AD215",  "type": "Feature", "tippecanoe": { "layer": "2AFC9E3FD7B81583917236077", "minzoom": 2, "maxzoom": 8 }, "properties": { "halo": 1.8, "title": "挲叻珂奴葛逻王国", "fontsize": 12, "tyid": "304000", "oid": "103:1576575179734", "color": "#0056E7" }, "geometry": { "type": "Point", "coordinates": [ 107.226562, -6.751896 ] } }
{"year": "AD215",  "type": "Feature", "tippecanoe": { "layer": "2AFC9E3FD7B81583917236077", "minzoom": 2, "maxzoom": 8 }, "properties": { "halo": 1.6, "title": "巴拉瓦人", "fontsize": 12, "tyid": "304001", "oid": "103:1576575179602", "color": "#0056E7" }, "geometry": { "type": "Point", "coordinates": [ 146.513672, -41.967659 ] } }
{"year": "AD215",  "type": "Feature", "tippecanoe": { "layer": "2AFCA12C0A581583917236051", "minzoom": 2, "maxzoom": 8 }, "properties": { "halo": 0.8, "title": "古白令海文化", "fontsize": 12, "tyid": "304002", "oid": "103:1576575179705", "color": "#262626" }, "geometry": { "type": "Point", "coordinates": [ -170.332031, 63.470145 ] } }
{"year": "AD215",  "type": "Feature", "tippecanoe": { "layer": "2AFCA12C0A581583917236051", "minzoom": 2, "maxzoom": 8 }, "properties": { "halo": 0.8, "title": "梅奥人", "fontsize": 12, "tyid": "304001", "oid": "103:1576575180014", "color": "#262626" }, "geometry": { "type": "Point", "coordinates": [ -109.160156, 26.667096 ] } }
{"year": "AD215",  "type": "Feature", "tippecanoe": { "layer": "2AFCA12C0A581583917236051", "minzoom": 2, "maxzoom": 8 }, "properties": { "halo": 0.8, "title": "查尔奇维特斯文化", "fontsize": 12, "tyid": "304002", "oid": "103:1576575179819", "color": "#262626" }, "geometry": { "type": "Point", "coordinates": [ -103.974609, 23.483401 ] } }
{"year": "AD215",  "type": "Feature", "tippecanoe": { "layer": "2AFCA12C0A581583917236051", "minzoom": 2, "maxzoom": 8 }, "properties": { "halo": 0.8, "title": "查普卡洛文化", "fontsize": 12, "tyid": "304002", "oid": "103:1576575179816", "color": "#262626" }, "geometry": { "type": "Point", "coordinates": [ -99.931641, 20.303418 ] } }
{"year": "AD215",  "type": "Feature", "tippecanoe": { "layer": "2AFCA12C0A581583917236051", "minzoom": 2, "maxzoom": 8 }, "properties": { "halo": 0.8, "title": "特奥蒂瓦坎", "fontsize": 12, "tyid": "304002", "oid": "103:1576575180003", "color": "#262626" }, "geometry": { "type": "Point", "coordinates": [ -99.404297, 19.808054 ] } }
{"year": "AD215",  "type": "Feature", "tippecanoe": { "layer": "2AFCA12C0A581583917236051", "minzoom": 2, "maxzoom": 8 }, "properties": { "halo": 0.8, "title": "古韦拉克鲁斯文化", "fontsize": 12, "tyid": "304002", "oid": "103:1576575179801", "color": "#262626" }, "geometry": { "type": "Point", "coordinates": [ -96.767578, 19.642588 ] } }
{"year": "AD215",  "type": "Feature", "tippecanoe": { "layer": "2AFCA12C0A581583917236051", "minzoom": 2, "maxzoom": 8 }, "properties": { "halo": 0.8, "title": "米斯特克人", "fontsize": 12, "tyid": "304001", "oid": "103:1576575180074", "color": "#262626" }, "geometry": { "type": "Point", "coordinates": [ -98.349609, 17.224758 ] } }
{"year": "AD215",  "type": "Feature", "tippecanoe": { "layer": "2AFCA12C0A581583917236051", "minzoom": 2, "maxzoom": 8 }, "properties": { "halo": 0.8, "title": "特里克人", "fontsize": 12, "tyid": "304001", "oid": "103:1576575179850", "color": "#262626" }, "geometry": { "type": "Point", "coordinates": [ -97.294922, 17.644022 ] } }
{"year": "AD215",  "type": "Feature", "tippecanoe": { "layer": "2AFCA12C0A581583917236051", "minzoom": 2, "maxzoom": 8 }, "properties": { "halo": 0.8, "title": "洛瓦贾达斯文化", "fontsize": 12, "tyid": "304002", "oid": "103:1576575179780", "color": "#262626" }, "geometry": { "type": "Point", "coordinates": [ -96.416016, 19.145168 ] } }
{"year": "AD215",  "type": "Feature", "tippecanoe": { "layer": "2AFCA12C0A581583917236051", "minzoom": 2, "maxzoom": 8 }, "properties": { "halo": 0.8, "title": "麦克斯人", "fontsize": 12, "tyid": "304001", "oid": "103:1576575179987", "color": "#262626" }, "geometry": { "type": "Point", "coordinates": [ -96.328125, 18.062312 ] } }
{"year": "AD215",  "type": "Feature", "tippecanoe": { "layer": "2AFCA12C0A581583917236051", "minzoom": 2, "maxzoom": 8 }, "properties": { "halo": 0.8, "title": "后奥尔梅克文化", "fontsize": 12, "tyid": "304002", "oid": "103:1576575179853", "color": "#262626" }, "geometry": { "type": "Point", "coordinates": [ -95.625000, 18.479609 ] } }
{"year": "AD215",  "type": "Feature", "tippecanoe": { "layer": "2AFCA12C0A581583917236051", "minzoom": 2, "maxzoom": 8 }, "properties": { "halo": 0.8, "title": "佐齐尔人", "fontsize": 12, "tyid": "304001", "oid": "103:1576575179804", "color": "#262626" }, "geometry": { "type": "Point", "coordinates": [ -93.339844, 16.551962 ] } }
{"year": "AD215",  "type": "Feature", "tippecanoe": { "layer": "2AFCA12C0A581583917236051", "minzoom": 2, "maxzoom": 8 }, "properties": { "halo": 0.8, "title": "祖赫人", "fontsize": 12, "tyid": "304001", "oid": "103:1576575179905", "color": "#262626" }, "geometry": { "type": "Point", "coordinates": [ -92.109375, 16.045813 ] } }
{"year": "AD215",  "type": "Feature", "tippecanoe": { "layer": "2AFCA12C0A581583917236051", "minzoom": 2, "maxzoom": 8 }, "properties": { "halo": 0.8, "title": "基切人", "fontsize": 12, "tyid": "304001", "oid": "103:1576575179944", "color": "#262626" }, "geometry": { "type": "Point", "coordinates": [ -90.966797, 15.029686 ] } }
{"year": "AD215",  "type": "Feature", "tippecanoe": { "layer": "2AFCA12C0A581583917236051", "minzoom": 2, "maxzoom": 8 }, "properties": { "halo": 0.8, "title": "怒溪文化", "fontsize": 12, "tyid": "304002", "oid": "103:1576575179669", "color": "#262626" }, "geometry": { "type": "Point", "coordinates": [ -72.421875, 41.574361 ] } }
{"year": "AD215",  "type": "Feature", "tippecanoe": { "layer": "2AFCA12C0A581583917236051", "minzoom": 2, "maxzoom": 8 }, "properties": { "halo": 0.8, "title": "埃里森-拉莫特文化", "fontsize": 12, "tyid": "304002", "oid": "103:1576575179912", "color": "#262626" }, "geometry": { "type": "Point", "coordinates": [ -87.626953, 39.095963 ] } }
{"year": "AD215",  "type": "Feature", "tippecanoe": { "layer": "2AFCA12C0A581583917236051", "minzoom": 2, "maxzoom": 8 }, "properties": { "halo": 0.8, "title": "科佩纳文化", "fontsize": 12, "tyid": "304002", "oid": "103:1576575180071", "color": "#262626" }, "geometry": { "type": "Point", "coordinates": [ -87.539062, 34.669359 ] } }
{"year": "AD215",  "type": "Feature", "tippecanoe": { "layer": "2AFCA12C0A581583917236051", "minzoom": 2, "maxzoom": 8 }, "properties": { "halo": 0.8, "title": "米勒文化", "fontsize": 12, "tyid": "304002", "oid": "103:1576575179836", "color": "#262626" }, "geometry": { "type": "Point", "coordinates": [ -88.417969, 34.234512 ] } }
{"year": "AD215",  "type": "Feature", "tippecanoe": { "layer": "2AFCA12C0A581583917236051", "minzoom": 2, "maxzoom": 8 }, "properties": { "halo": 0.8, "title": "威廉文化", "fontsize": 12, "tyid": "304002", "oid": "103:1576575179820", "color": "#262626" }, "geometry": { "type": "Point", "coordinates": [ -80.771484, 39.639538 ] } }
{"year": "AD215",  "type": "Feature", "tippecanoe": { "layer": "2AFCA12C0A581583917236051", "minzoom": 2, "maxzoom": 8 }, "properties": { "halo": 0.8, "title": "山地霍普维尔文化", "fontsize": 12, "tyid": "304002", "oid": "103:1576575179974", "color": "#262626" }, "geometry": { "type": "Point", "coordinates": [ -79.980469, 39.300299 ] } }
{"year": "AD215",  "type": "Feature", "tippecanoe": { "layer": "2AFCA12C0A581583917236051", "minzoom": 2, "maxzoom": 8 }, "properties": { "halo": 0.8, "title": "凯兹池塘文化", "fontsize": 12, "tyid": "304002", "oid": "103:1576575179712", "color": "#262626" }, "geometry": { "type": "Point", "coordinates": [ -82.265625, 29.535230 ] } }
{"year": "AD215",  "type": "Feature", "tippecanoe": { "layer": "2AFCA12C0A581583917236051", "minzoom": 2, "maxzoom": 8 }, "properties": { "halo": 0.8, "title": "玛纳索塔文化", "fontsize": 12, "tyid": "304002", "oid": "103:1576575179879", "color": "#262626" }, "geometry": { "type": "Point", "coordinates": [ -82.441406, 27.683528 ] } }
{"year": "AD215",  "type": "Feature", "tippecanoe": { "layer": "2AFCA12C0A581583917236051", "minzoom": 2, "maxzoom": 8 }, "properties": { "halo": 0.8, "title": "卡卢萨人", "fontsize": 12, "tyid": "304001", "oid": "103:1576575180067", "color": "#262626" }, "geometry": { "type": "Point", "coordinates": [ -81.650391, 27.137368 ] } }
{"year": "AD215",  "type": "Feature", "tippecanoe": { "layer": "2AFCA12C0A581583917236051", "minzoom": 2, "maxzoom": 8 }, "properties": { "halo": 0.8, "title": "圣约翰文化", "fontsize": 12, "tyid": "304002", "oid": "103:1576575179636", "color": "#262626" }, "geometry": { "type": "Point", "coordinates": [ -81.474609, 29.382175 ] } }
{"year": "AD215",  "type": "Feature", "tippecanoe": { "layer": "2AFCA12C0A581583917236051", "minzoom": 2, "maxzoom": 8 }, "properties": { "halo": 0.8, "title": "贝尔格莱德文化", "fontsize": 12, "tyid": "304002", "oid": "103:1576575179903", "color": "#262626" }, "geometry": { "type": "Point", "coordinates": [ -80.859375, 27.449790 ] } }
{"year": "AD215",  "type": "Feature", "tippecanoe": { "layer": "2AFCA12C0A581583917236051", "minzoom": 2, "maxzoom": 8 }, "properties": { "halo": 0.8, "title": "格莱兹文化", "fontsize": 12, "tyid": "304002", "oid": "103:1576575179637", "color": "#262626" }, "geometry": { "type": "Point", "coordinates": [ -80.859375, 26.037042 ] } }
{"year": "AD215",  "type": "Feature", "tippecanoe": { "layer": "2AFCA12C0A581583917236051", "minzoom": 2, "maxzoom": 8 }, "properties": { "halo": 0.8, "title": "德贵斯塔族", "fontsize": 12, "tyid": "304001", "oid": "103:1576575179883", "color": "#262626" }, "geometry": { "type": "Point", "coordinates": [ -80.419922, 25.641526 ] } }
{"year": "AD215",  "type": "Feature", "tippecanoe": { "layer": "2AFCA12C0A581583917236051", "minzoom": 2, "maxzoom": 8 }, "properties": { "halo": 0.8, "title": "雷卡人", "fontsize": 12, "tyid": "304001", "oid": "103:1576575179782", "color": "#262626" }, "geometry": { "type": "Point", "coordinates": [ -87.802734, 13.752725 ] } }
{"year": "AD215",  "type": "Feature", "tippecanoe": { "layer": "2AFCA12C0A581583917236051", "minzoom": 2, "maxzoom": 8 }, "properties": { "halo": 0.8, "title": "格兰科克勒文化", "fontsize": 12, "tyid": "304002", "oid": "103:1576575179737", "color": "#262626" }, "geometry": { "type": "Point", "coordinates": [ -80.507812, 8.581021 ] } }
{"year": "AD215",  "type": "Feature", "tippecanoe": { "layer": "2AFCA12C0A581583917236051", "minzoom": 2, "maxzoom": 8 }, "properties": { "halo": 0.8, "title": "泰罗纳", "fontsize": 12, "tyid": "304002", "oid": "103:1576575179618", "color": "#262626" }, "geometry": { "type": "Point", "coordinates": [ -73.564453, 10.833306 ] } }
{"year": "AD215",  "type": "Feature", "tippecanoe": { "layer": "2AFCA12C0A581583917236051", "minzoom": 2, "maxzoom": 8 }, "properties": { "halo": 0.8, "title": "约托科文化", "fontsize": 12, "tyid": "304002", "oid": "103:1576575179979", "color": "#262626" }, "geometry": { "type": "Point", "coordinates": [ -76.289062, 4.302591 ] } }
{"year": "AD215",  "type": "Feature", "tippecanoe": { "layer": "2AFCA12C0A581583917236051", "minzoom": 2, "maxzoom": 8 }, "properties": { "halo": 0.8, "title": "卡利玛文化", "fontsize": 12, "tyid": "304002", "oid": "103:1576575179962", "color": "#262626" }, "geometry": { "type": "Point", "coordinates": [ -76.728516, 4.214943 ] } }
{"year": "AD215",  "type": "Feature", "tippecanoe": { "layer": "2AFCA12C0A581583917236051", "minzoom": 2, "maxzoom": 8 }, "properties": { "halo": 0.8, "title": "马拉加纳文化", "fontsize": 12, "tyid": "304002", "oid": "103:1576575179725", "color": "#262626" }, "geometry": { "type": "Point", "coordinates": [ -76.289062, 3.425692 ] } }
{"year": "AD215",  "type": "Feature", "tippecanoe": { "layer": "2AFCA12C0A581583917236051", "minzoom": 2, "maxzoom": 8 }, "properties": { "halo": 0.8, "title": "昆巴雅文明", "fontsize": 12, "tyid": "304002", "oid": "103:1576575179812", "color": "#262626" }, "geometry": { "type": "Point", "coordinates": [ -75.761719, 5.090944 ] } }
{"year": "AD215",  "type": "Feature", "tippecanoe": { "layer": "2AFCA12C0A581583917236051", "minzoom": 2, "maxzoom": 8 }, "properties": { "halo": 0.8, "title": "大庄园文化", "fontsize": 12, "tyid": "304002", "oid": "103:1576575179892", "color": "#262626" }, "geometry": { "type": "Point", "coordinates": [ -65.917969, 18.396230 ] } }
{"year": "AD215",  "type": "Feature", "tippecanoe": { "layer": "2AFCA12C0A581583917236051", "minzoom": 2, "maxzoom": 8 }, "properties": { "halo": 0.8, "title": "萨拉杜文化", "fontsize": 12, "tyid": "304002", "oid": "103:1576575180001", "color": "#262626" }, "geometry": { "type": "Point", "coordinates": [ -61.699219, 16.214675 ] } }
{"year": "AD215",  "type": "Feature", "tippecanoe": { "layer": "2AFCA12C0A581583917236051", "minzoom": 2, "maxzoom": 8 }, "properties": { "halo": 0.8, "title": "皮克特人", "fontsize": 12, "tyid": "304001", "oid": "103:1576575179684", "color": "#262626" }, "geometry": { "type": "Point", "coordinates": [ -1.406250, 60.326948 ] } }
{"year": "AD215",  "type": "Feature", "tippecanoe": { "layer": "2AFCA12C0A581583917236051", "minzoom": 2, "maxzoom": 8 }, "properties": { "halo": 0.8, "title": "凯雷尼人", "fontsize": 12, "tyid": "304001", "oid": "103:1576575179617", "color": "#262626" }, "geometry": { "type": "Point", "coordinates": [ -5.097656, 58.077876 ] } }
{"year": "AD215",  "type": "Feature", "tippecanoe": { "layer": "2AFCA12C0A581583917236051", "minzoom": 2, "maxzoom": 8 }, "properties": { "halo": 0.8, "title": "卡诺奈卡人", "fontsize": 12, "tyid": "304001", "oid": "103:1576575179691", "color": "#262626" }, "geometry": { "type": "Point", "coordinates": [ -5.537109, 57.657158 ] } }
{"year": "AD215",  "type": "Feature", "tippecanoe": { "layer": "2AFCA12C0A581583917236051", "minzoom": 2, "maxzoom": 8 }, "properties": { "halo": 0.8, "title": "斯梅尔泰人", "fontsize": 12, "tyid": "304001", "oid": "103:1576575179627", "color": "#262626" }, "geometry": { "type": "Point", "coordinates": [ -4.746094, 57.984808 ] } }
{"year": "AD215",  "type": "Feature", "tippecanoe": { "layer": "2AFCA12C0A581583917236051", "minzoom": 2, "maxzoom": 8 }, "properties": { "halo": 0.8, "title": "卢吉人", "fontsize": 12, "tyid": "304001", "oid": "103:1576575179980", "color": "#262626" }, "geometry": { "type": "Point", "coordinates": [ -4.130859, 58.124320 ] } }
{"year": "AD215",  "type": "Feature", "tippecanoe": { "layer": "2AFCA12C0A581583917236051", "minzoom": 2, "maxzoom": 8 }, "properties": { "halo": 0.8, "title": "克洛维人[凯瑟尼斯]", "fontsize": 12, "tyid": "304001", "oid": "103:1576575179583", "color": "#262626" }, "geometry": { "type": "Point", "coordinates": [ -3.867188, 58.447733 ] } }
{"year": "AD215",  "type": "Feature", "tippecanoe": { "layer": "2AFCA12C0A581583917236051", "minzoom": 2, "maxzoom": 8 }, "properties": { "halo": 0.8, "title": "德坎泰人", "fontsize": 12, "tyid": "304001", "oid": "103:1576575179686", "color": "#262626" }, "geometry": { "type": "Point", "coordinates": [ -4.218750, 57.610107 ] } }
{"year": "AD215",  "type": "Feature", "tippecanoe": { "layer": "2AFCA12C0A581583917236051", "minzoom": 2, "maxzoom": 8 }, "properties": { "halo": 0.8, "title": "维格梅京人", "fontsize": 12, "tyid": "304001", "oid": "103:1576575179711", "color": "#262626" }, "geometry": { "type": "Point", "coordinates": [ -3.339844, 57.515823 ] } }
{"year": "AD215",  "type": "Feature", "tippecanoe": { "layer": "2AFCA12C0A581583917236051", "minzoom": 2, "maxzoom": 8 }, "properties": { "halo": 0.8, "title": "克鲁尼人", "fontsize": 12, "tyid": "304001", "oid": "103:1576575179681", "color": "#262626" }, "geometry": { "type": "Point", "coordinates": [ -5.449219, 57.040730 ] } }
{"year": "AD215",  "type": "Feature", "tippecanoe": { "layer": "2AFCA12C0A581583917236051", "minzoom": 2, "maxzoom": 8 }, "properties": { "halo": 0.8, "title": "维尼科内人", "fontsize": 12, "tyid": "304001", "oid": "103:1576575179888", "color": "#262626" }, "geometry": { "type": "Point", "coordinates": [ -3.691406, 56.218923 ] } }
{"year": "AD215",  "type": "Feature", "tippecanoe": { "layer": "2AFCA12C0A581583917236051", "minzoom": 2, "maxzoom": 8 }, "properties": { "halo": 0.8, "title": "德克萨利人", "fontsize": 12, "tyid": "304001", "oid": "103:1576575179910", "color": "#262626" }, "geometry": { "type": "Point", "coordinates": [ -2.197266, 57.326521 ] } }
{"year": "AD215",  "type": "Feature", "tippecanoe": { "layer": "2AFCA12C0A581583917236051", "minzoom": 2, "maxzoom": 8 }, "properties": { "halo": 0.8, "title": "奥斯拉尔王国", "fontsize": 12, "tyid": "304000", "oid": "103:1576575179840", "color": "#202020" }, "geometry": { "type": "Point", "coordinates": [ -7.470703, 52.802761 ] } }
{"year": "AD215",  "type": "Feature", "tippecanoe": { "layer": "2AFCA12C0A581583917236051", "minzoom": 2, "maxzoom": 8 }, "properties": { "halo": 0.8, "title": "埃皮迪人", "fontsize": 12, "tyid": "304001", "oid": "103:1576575179721", "color": "#262626" }, "geometry": { "type": "Point", "coordinates": [ -5.537109, 55.677584 ] } }
{"year": "AD215",  "type": "Feature", "tippecanoe": { "layer": "2AFCA12C0A581583917236051", "minzoom": 2, "maxzoom": 8 }, "properties": { "halo": 0.8, "title": "关切人", "fontsize": 12, "tyid": "304001", "oid": "103:1576575179701", "color": "#262626" }, "geometry": { "type": "Point", "coordinates": [ -16.611328, 28.304381 ] } }
{"year": "AD215",  "type": "Feature", "tippecanoe": { "layer": "2AFCA12C0A581583917236051", "minzoom": 2, "maxzoom": 8 }, "properties": { "halo": 0.8, "title": "瓜纳加拉文化", "fontsize": 12, "tyid": "304002", "oid": "103:1576575179626", "color": "#262626" }, "geometry": { "type": "Point", "coordinates": [ -80.595703, -1.669686 ] } }
{"year": "AD215",  "type": "Feature", "tippecanoe": { "layer": "2AFCA12C0A581583917236051", "minzoom": 2, "maxzoom": 8 }, "properties": { "halo": 0.8, "title": "巴伊亚文化", "fontsize": 12, "tyid": "304002", "oid": "103:1576575179789", "color": "#262626" }, "geometry": { "type": "Point", "coordinates": [ -80.068359, -0.527336 ] } }
{"year": "AD215",  "type": "Feature", "tippecanoe": { "layer": "2AFCA12C0A581583917236051", "minzoom": 2, "maxzoom": 8 }, "properties": { "halo": 0.8, "title": "维克斯文化", "fontsize": 12, "tyid": "304002", "oid": "103:1576575179818", "color": "#262626" }, "geometry": { "type": "Point", "coordinates": [ -80.419922, -5.878332 ] } }
{"year": "AD215",  "type": "Feature", "tippecanoe": { "layer": "2AFCA12C0A581583917236051", "minzoom": 2, "maxzoom": 8 }, "properties": { "halo": 0.8, "title": "萨利纳尔文化", "fontsize": 12, "tyid": "304002", "oid": "103:1576575179773", "color": "#262626" }, "geometry": { "type": "Point", "coordinates": [ -78.925781, -7.798079 ] } }
{"year": "AD215",  "type": "Feature", "tippecanoe": { "layer": "2AFCA12C0A581583917236051", "minzoom": 2, "maxzoom": 8 }, "properties": { "halo": 0.8, "title": "莫切文明", "fontsize": 12, "tyid": "304002", "oid": "103:1576575179873", "color": "#262626" }, "geometry": { "type": "Point", "coordinates": [ -79.013672, -8.146243 ] } }
{"year": "AD215",  "type": "Feature", "tippecanoe": { "layer": "2AFCA12C0A581583917236051", "minzoom": 2, "maxzoom": 8 }, "properties": { "halo": 0.8, "title": "维鲁文化", "fontsize": 12, "tyid": "304002", "oid": "103:1576575179641", "color": "#262626" }, "geometry": { "type": "Point", "coordinates": [ -78.837891, -8.320212 ] } }
{"year": "AD215",  "type": "Feature", "tippecanoe": { "layer": "2AFCA12C0A581583917236051", "minzoom": 2, "maxzoom": 8 }, "properties": { "halo": 0.8, "title": "瑞克文化", "fontsize": 12, "tyid": "304002", "oid": "103:1576575179935", "color": "#262626" }, "geometry": { "type": "Point", "coordinates": [ -77.607422, -9.622414 ] } }
{"year": "AD215",  "type": "Feature", "tippecanoe": { "layer": "2AFCA12C0A581583917236051", "minzoom": 2, "maxzoom": 8 }, "properties": { "halo": 0.8, "title": "加伊纳索文化", "fontsize": 12, "tyid": "304002", "oid": "103:1576575179658", "color": "#262626" }, "geometry": { "type": "Point", "coordinates": [ -77.080078, -11.092166 ] } }
{"year": "AD215",  "type": "Feature", "tippecanoe": { "layer": "2AFCA12C0A581583917236051", "minzoom": 2, "maxzoom": 8 }, "properties": { "halo": 0.8, "title": "利马文化", "fontsize": 12, "tyid": "304002", "oid": "103:1576575179722", "color": "#262626" }, "geometry": { "type": "Point", "coordinates": [ -76.289062, -12.382928 ] } }
{"year": "AD215",  "type": "Feature", "tippecanoe": { "layer": "2AFCA12C0A581583917236051", "minzoom": 2, "maxzoom": 8 }, "properties": { "halo": 0.8, "title": "华帕文化", "fontsize": 12, "tyid": "304002", "oid": "103:1576575180013", "color": "#262626" }, "geometry": { "type": "Point", "coordinates": [ -74.179688, -13.581921 ] } }
{"year": "AD215",  "type": "Feature", "tippecanoe": { "layer": "2AFCA12C0A581583917236051", "minzoom": 2, "maxzoom": 8 }, "properties": { "halo": 0.8, "title": "纳斯卡文化", "fontsize": 12, "tyid": "304002", "oid": "103:1576575179829", "color": "#262626" }, "geometry": { "type": "Point", "coordinates": [ -75.058594, -14.944785 ] } }
{"year": "AD215",  "type": "Feature", "tippecanoe": { "layer": "2AFCA12C0A581583917236051", "minzoom": 2, "maxzoom": 8 }, "properties": { "halo": 0.8, "title": "塔夫文化", "fontsize": 12, "tyid": "304002", "oid": "103:1576575179778", "color": "#262626" }, "geometry": { "type": "Point", "coordinates": [ -65.654297, -26.980829 ] } }
{"year": "AD215",  "type": "Feature", "tippecanoe": { "layer": "2AFCA12C0A581583917236051", "minzoom": 2, "maxzoom": 8 }, "properties": { "halo": 0.8, "title": "豪什人", "fontsize": 12, "tyid": "304001", "oid": "103:1576575179598", "color": "#262626" }, "geometry": { "type": "Point", "coordinates": [ -65.917969, -54.724620 ] } }
{"year": "AD215",  "type": "Feature", "tippecanoe": { "layer": "2AFCA12C0A581583917236051", "minzoom": 2, "maxzoom": 8 }, "properties": { "halo": 0.8, "title": "哥得兰人", "fontsize": 12, "tyid": "304001", "oid": "103:1576575179659", "color": "#262626" }, "geometry": { "type": "Point", "coordinates": [ 18.457031, 57.515823 ] } }
{"year": "AD215",  "type": "Feature", "tippecanoe": { "layer": "2AFCA12C0A581583917236051", "minzoom": 2, "maxzoom": 8 }, "properties": { "halo": 0.8, "title": "弗里西人", "fontsize": 12, "tyid": "304001", "oid": "103:1576575180039", "color": "#262626" }, "geometry": { "type": "Point", "coordinates": [ 6.679688, 52.643063 ] } }
{"year": "AD215",  "type": "Feature", "tippecanoe": { "layer": "2AFCA12C0A581583917236051", "minzoom": 2, "maxzoom": 8 }, "properties": { "halo": 0.8, "title": "盎格鲁人", "fontsize": 12, "tyid": "304001", "oid": "103:1576575179727", "color": "#262626" }, "geometry": { "type": "Point", "coordinates": [ 9.316406, 54.622978 ] } }
{"year": "AD215",  "type": "Feature", "tippecanoe": { "layer": "2AFCA12C0A581583917236051", "minzoom": 2, "maxzoom": 8 }, "properties": { "halo": 0.8, "title": "萨克森人", "fontsize": 12, "tyid": "304001", "oid": "103:1576575179895", "color": "#262626" }, "geometry": { "type": "Point", "coordinates": [ 10.019531, 54.007769 ] } }
{"year": "AD215",  "type": "Feature", "tippecanoe": { "layer": "2AFCA12C0A581583917236051", "minzoom": 2, "maxzoom": 8 }, "properties": { "halo": 0.8, "title": "查马维人", "fontsize": 12, "tyid": "304001", "oid": "103:1576575180046", "color": "#262626" }, "geometry": { "type": "Point", "coordinates": [ 7.119141, 51.944265 ] } }
{"year": "AD215",  "type": "Feature", "tippecanoe": { "layer": "2AFCA12C0A581583917236051", "minzoom": 2, "maxzoom": 8 }, "properties": { "halo": 0.8, "title": "辛坎布雷人", "fontsize": 12, "tyid": "304001", "oid": "103:1576575179889", "color": "#262626" }, "geometry": { "type": "Point", "coordinates": [ 7.646484, 51.289406 ] } }
{"year": "AD215",  "type": "Feature", "tippecanoe": { "layer": "2AFCA12C0A581583917236051", "minzoom": 2, "maxzoom": 8 }, "properties": { "halo": 0.8, "title": "布鲁克特人", "fontsize": 12, "tyid": "304001", "oid": "103:1576575180048", "color": "#262626" }, "geometry": { "type": "Point", "coordinates": [ 8.437500, 51.998410 ] } }
{"year": "AD215",  "type": "Feature", "tippecanoe": { "layer": "2AFCA12C0A581583917236051", "minzoom": 2, "maxzoom": 8 }, "properties": { "halo": 0.8, "title": "奥耶塞利人", "fontsize": 12, "tyid": "304001", "oid": "103:1576575179653", "color": "#262626" }, "geometry": { "type": "Point", "coordinates": [ 22.500000, 58.447733 ] } }
{"year": "AD215",  "type": "Feature", "tippecanoe": { "layer": "2AFCA12C0A581583917236051", "minzoom": 2, "maxzoom": 8 }, "properties": { "halo": 0.8, "title": "科斯多波克人", "fontsize": 12, "tyid": "304001", "oid": "103:1576575179928", "color": "#262626" }, "geometry": { "type": "Point", "coordinates": [ 27.597656, 48.166085 ] } }
{"year": "AD215",  "type": "Feature", "tippecanoe": { "layer": "2AFCA12C0A581583917236051", "minzoom": 2, "maxzoom": 8 }, "properties": { "halo": 0.8, "title": "奥里维亚", "fontsize": 12, "tyid": "304002", "oid": "103:1576575179675", "color": "#262626" }, "geometry": { "type": "Point", "coordinates": [ 31.816406, 46.679594 ] } }
{"year": "AD215",  "type": "Feature", "tippecanoe": { "layer": "2AFCA12C0A581583917236051", "minzoom": 2, "maxzoom": 8 }, "properties": { "halo": 0.8, "title": "科尔基斯山中诸部", "fontsize": 12, "tyid": "304002", "oid": "103:1576575179927", "color": "#262626" }, "geometry": { "type": "Point", "coordinates": [ 41.132812, 43.133061 ] } }
{"year": "AD215",  "type": "Feature", "tippecanoe": { "layer": "2AFCA12C0A581583917236051", "minzoom": 2, "maxzoom": 8 }, "properties": { "halo": 0.8, "title": "埃米萨王朝", "fontsize": 12, "tyid": "304000", "oid": "103:1576575180092", "color": "#202020" }, "geometry": { "type": "Point", "coordinates": [ 36.650391, 34.741612 ] } }
{"year": "AD215",  "type": "Feature", "tippecanoe": { "layer": "2AFCA12C0A581583917236051", "minzoom": 2, "maxzoom": 8 }, "properties": { "halo": 0.8, "title": "阿拉巴王国", "fontsize": 12, "tyid": "304000", "oid": "103:1576575180094", "color": "#202020" }, "geometry": { "type": "Point", "coordinates": [ 42.363281, 35.532226 ] } }
{"year": "AD215",  "type": "Feature", "tippecanoe": { "layer": "2AFCA12C0A581583917236051", "minzoom": 2, "maxzoom": 8 }, "properties": { "halo": 0.8, "title": "列兹金人", "fontsize": 12, "tyid": "304001", "oid": "103:1576575179876", "color": "#262626" }, "geometry": { "type": "Point", "coordinates": [ 47.812500, 41.640078 ] } }
{"year": "AD215",  "type": "Feature", "tippecanoe": { "layer": "2AFCA12C0A581583917236051", "minzoom": 2, "maxzoom": 8 }, "properties": { "halo": 0.8, "title": "西且弥国", "fontsize": 12, "tyid": "304000", "oid": "103:1576575180022", "color": "#202020" }, "geometry": { "type": "Point", "coordinates": [ 86.220703, 43.834527 ] } }
{"year": "AD215",  "type": "Feature", "tippecanoe": { "layer": "2AFCA12C0A581583917236051", "minzoom": 2, "maxzoom": 8 }, "properties": { "halo": 0.8, "title": "东且弥国", "fontsize": 12, "tyid": "304000", "oid": "103:1576575180025", "color": "#202020" }, "geometry": { "type": "Point", "coordinates": [ 86.923828, 43.707594 ] } }
{"year": "AD215",  "type": "Feature", "tippecanoe": { "layer": "2AFCA12C0A581583917236051", "minzoom": 2, "maxzoom": 8 }, "properties": { "halo": 0.8, "title": "劫国", "fontsize": 12, "tyid": "304000", "oid": "103:1576575179995", "color": "#202020" }, "geometry": { "type": "Point", "coordinates": [ 87.802734, 44.150681 ] } }
{"year": "AD215",  "type": "Feature", "tippecanoe": { "layer": "2AFCA12C0A581583917236051", "minzoom": 2, "maxzoom": 8 }, "properties": { "halo": 0.8, "title": "卑陆国", "fontsize": 12, "tyid": "304000", "oid": "103:1576575179646", "color": "#202020" }, "geometry": { "type": "Point", "coordinates": [ 87.539062, 43.644026 ] } }
{"year": "AD215",  "type": "Feature", "tippecanoe": { "layer": "2AFCA12C0A581583917236051", "minzoom": 2, "maxzoom": 8 }, "properties": { "halo": 0.8, "title": "依耐国", "fontsize": 12, "tyid": "304000", "oid": "103:1576575180000", "color": "#202020" }, "geometry": { "type": "Point", "coordinates": [ 75.937500, 38.616870 ] } }
{"year": "AD215",  "type": "Feature", "tippecanoe": { "layer": "2AFCA12C0A581583917236051", "minzoom": 2, "maxzoom": 8 }, "properties": { "halo": 0.8, "title": "罗昂", "fontsize": 12, "tyid": "304000", "oid": "103:1576575179746", "color": "#202020" }, "geometry": { "type": "Point", "coordinates": [ 89.208984, 29.152161 ] } }
{"year": "AD215",  "type": "Feature", "tippecanoe": { "layer": "2AFCA12C0A581583917236051", "minzoom": 2, "maxzoom": 8 }, "properties": { "halo": 0.8, "title": "藏", "fontsize": 12, "tyid": "304000", "oid": "103:1576575179687", "color": "#202020" }, "geometry": { "type": "Point", "coordinates": [ 89.736328, 28.844674 ] } }
{"year": "AD215",  "type": "Feature", "tippecanoe": { "layer": "2AFCA12C0A581583917236051", "minzoom": 2, "maxzoom": 8 }, "properties": { "halo": 0.8, "title": "卓木南木松", "fontsize": 12, "tyid": "304000", "oid": "103:1576575179735", "color": "#202020" }, "geometry": { "type": "Point", "coordinates": [ 88.945312, 27.839076 ] } }
{"year": "AD215",  "type": "Feature", "tippecanoe": { "layer": "2AFCA12C0A581583917236051", "minzoom": 2, "maxzoom": 8 }, "properties": { "halo": 0.8, "title": "牟湿迦王国", "fontsize": 12, "tyid": "304000", "oid": "103:1576575179741", "color": "#202020" }, "geometry": { "type": "Point", "coordinates": [ 75.322266, 12.640338 ] } }
{"year": "AD215",  "type": "Feature", "tippecanoe": { "layer": "2AFCA12C0A581583917236051", "minzoom": 2, "maxzoom": 8 }, "properties": { "halo": 0.8, "title": "阿伊王国", "fontsize": 12, "tyid": "304000", "oid": "103:1576575180056", "color": "#202020" }, "geometry": { "type": "Point", "coordinates": [ 77.080078, 8.667918 ] } }
{"year": "AD215",  "type": "Feature", "tippecanoe": { "layer": "2AFCA12C0A581583917236051", "minzoom": 2, "maxzoom": 8 }, "properties": { "halo": 0.8, "title": "吉", "fontsize": 12, "tyid": "304000", "oid": "103:1576575179649", "color": "#202020" }, "geometry": { "type": "Point", "coordinates": [ 91.406250, 29.764377 ] } }
{"year": "AD215",  "type": "Feature", "tippecanoe": { "layer": "2AFCA12C0A581583917236051", "minzoom": 2, "maxzoom": 8 }, "properties": { "halo": 0.8, "title": "琛", "fontsize": 12, "tyid": "304000", "oid": "103:1576575179578", "color": "#202020" }, "geometry": { "type": "Point", "coordinates": [ 91.230469, 29.382175 ] } }
{"year": "AD215",  "type": "Feature", "tippecanoe": { "layer": "2AFCA12C0A581583917236051", "minzoom": 2, "maxzoom": 8 }, "properties": { "halo": 0.8, "title": "悉补野", "fontsize": 12, "tyid": "304000", "oid": "103:1576575179950", "color": "#202020" }, "geometry": { "type": "Point", "coordinates": [ 91.845703, 29.152161 ] } }
{"year": "AD215",  "type": "Feature", "tippecanoe": { "layer": "2AFCA12C0A581583917236051", "minzoom": 2, "maxzoom": 8 }, "properties": { "halo": 0.8, "title": "俄玉邦噶", "fontsize": 12, "tyid": "304000", "oid": "103:1576575179740", "color": "#202020" }, "geometry": { "type": "Point", "coordinates": [ 92.548828, 29.152161 ] } }
{"year": "AD215",  "type": "Feature", "tippecanoe": { "layer": "2AFCA12C0A581583917236051", "minzoom": 2, "maxzoom": 8 }, "properties": { "halo": 0.8, "title": "娘", "fontsize": 12, "tyid": "304000", "oid": "103:1576575179666", "color": "#202020" }, "geometry": { "type": "Point", "coordinates": [ 93.339844, 29.916852 ] } }
{"year": "AD215",  "type": "Feature", "tippecanoe": { "layer": "2AFCA12C0A581583917236051", "minzoom": 2, "maxzoom": 8 }, "properties": { "halo": 0.8, "title": "贡", "fontsize": 12, "tyid": "304000", "oid": "103:1576575179862", "color": "#202020" }, "geometry": { "type": "Point", "coordinates": [ 94.482422, 29.688053 ] } }
{"year": "AD215",  "type": "Feature", "tippecanoe": { "layer": "2AFCA12C0A581583917236051", "minzoom": 2, "maxzoom": 8 }, "properties": { "halo": 0.8, "title": "达", "fontsize": 12, "tyid": "304000", "oid": "103:1576575179644", "color": "#202020" }, "geometry": { "type": "Point", "coordinates": [ 93.603516, 29.152161 ] } }
{"year": "AD215",  "type": "Feature", "tippecanoe": { "layer": "2AFCA12C0A581583917236051", "minzoom": 2, "maxzoom": 8 }, "properties": { "halo": 0.8, "title": "狼牙脩国", "fontsize": 12, "tyid": "304000", "oid": "103:1576575179715", "color": "#202020" }, "geometry": { "type": "Point", "coordinates": [ 100.810547, 6.140555 ] } }
{"year": "AD215",  "type": "Feature", "tippecanoe": { "layer": "2AFCA12C0A581583917236051", "minzoom": 2, "maxzoom": 8 }, "properties": { "halo": 0.8, "title": "刚迦王国", "fontsize": 12, "tyid": "304000", "oid": "103:1576575179859", "color": "#202020" }, "geometry": { "type": "Point", "coordinates": [ 101.074219, 4.828260 ] } }
{"year": "AD215",  "type": "Feature", "tippecanoe": { "layer": "2AFCA12C0A581583917236051", "minzoom": 2, "maxzoom": 8 }, "properties": { "halo": 0.8, "title": "石坛文化", "fontsize": 12, "tyid": "304002", "oid": "103:1576575179733", "color": "#262626" }, "geometry": { "type": "Point", "coordinates": [ 103.359375, 19.559790 ] } }
{"year": "AD215",  "type": "Feature", "tippecanoe": { "layer": "2AFCA12C0A581583917236051", "minzoom": 2, "maxzoom": 8 }, "properties": { "halo": 0.8, "title": "番仔园文化", "fontsize": 12, "tyid": "304002", "oid": "103:1576575180080", "color": "#262626" }, "geometry": { "type": "Point", "coordinates": [ 120.673828, 24.287027 ] } }
{"year": "AD215",  "type": "Feature", "tippecanoe": { "layer": "2AFCA12C0A581583917236051", "minzoom": 2, "maxzoom": 8 }, "properties": { "halo": 0.8, "title": "茑松文化", "fontsize": 12, "tyid": "304002", "oid": "103:1576575180079", "color": "#262626" }, "geometry": { "type": "Point", "coordinates": [ 120.322266, 23.079732 ] } }
{"year": "AD215",  "type": "Feature", "tippecanoe": { "layer": "2AFCA12C0A581583917236051", "minzoom": 2, "maxzoom": 8 }, "properties": { "halo": 0.8, "title": "龟山文化", "fontsize": 12, "tyid": "304002", "oid": "103:1576575179762", "color": "#262626" }, "geometry": { "type": "Point", "coordinates": [ 120.673828, 22.512557 ] } }
{"year": "AD215",  "type": "Feature", "tippecanoe": { "layer": "2AFCA12C0A581583917236051", "minzoom": 2, "maxzoom": 8 }, "properties": { "halo": 0.8, "title": "十三行文化", "fontsize": 12, "tyid": "304002", "oid": "103:1576575179765", "color": "#262626" }, "geometry": { "type": "Point", "coordinates": [ 121.376953, 24.846565 ] } }
{"year": "AD215",  "type": "Feature", "tippecanoe": { "layer": "2AFCA12C0A581583917236051", "minzoom": 2, "maxzoom": 8 }, "properties": { "halo": 0.8, "title": "静浦文化", "fontsize": 12, "tyid": "304002", "oid": "103:1576575179763", "color": "#262626" }, "geometry": { "type": "Point", "coordinates": [ 121.025391, 22.917923 ] } }
{"year": "AD215",  "type": "Feature", "tippecanoe": { "layer": "2AFCA12C0A581583917236051", "minzoom": 2, "maxzoom": 8 }, "properties": { "halo": 0.8, "title": "百济", "fontsize": 12, "tyid": "304000", "oid": "103:1576575179934", "color": "#202020" }, "geometry": { "type": "Point", "coordinates": [ 127.089844, 37.300275 ] } }
{"year": "AD215",  "type": "Feature", "tippecanoe": { "layer": "2AFCA12C0A581583917236051", "minzoom": 2, "maxzoom": 8 }, "properties": { "halo": 0.8, "title": "耽罗国", "fontsize": 12, "tyid": "304000", "oid": "103:1576575179745", "color": "#202020" }, "geometry": { "type": "Point", "coordinates": [ 126.474609, 33.431441 ] } }
{"year": "AD215",  "type": "Feature", "tippecanoe": { "layer": "2AFCA12C0A581583917236051", "minzoom": 2, "maxzoom": 8 }, "properties": { "halo": 0.8, "title": "弁韩", "fontsize": 12, "tyid": "304001", "oid": "103:1576575179966", "color": "#262626" }, "geometry": { "type": "Point", "coordinates": [ 127.968750, 35.317366 ] } }
{"year": "AD215",  "type": "Feature", "tippecanoe": { "layer": "2AFCA12C0A581583917236051", "minzoom": 2, "maxzoom": 8 }, "properties": { "halo": 0.8, "title": "伽倻", "fontsize": 12, "tyid": "304000", "oid": "103:1576575179654", "color": "#202020" }, "geometry": { "type": "Point", "coordinates": [ 128.847656, 35.245619 ] } }
{"year": "AD215",  "type": "Feature", "tippecanoe": { "layer": "2AFCA12C0A581583917236051", "minzoom": 2, "maxzoom": 8 }, "properties": { "halo": 0.8, "title": "对马国", "fontsize": 12, "tyid": "304000", "oid": "103:1576575179946", "color": "#202020" }, "geometry": { "type": "Point", "coordinates": [ 129.287109, 34.524661 ] } }
{"year": "AD215",  "type": "Feature", "tippecanoe": { "layer": "2AFCA12C0A581583917236051", "minzoom": 2, "maxzoom": 8 }, "properties": { "halo": 0.8, "title": "一支国", "fontsize": 12, "tyid": "304000", "oid": "103:1576575179642", "color": "#202020" }, "geometry": { "type": "Point", "coordinates": [ 129.638672, 33.797409 ] } }
{"year": "AD215",  "type": "Feature", "tippecanoe": { "layer": "2AFCA12C0A581583917236051", "minzoom": 2, "maxzoom": 8 }, "properties": { "halo": 0.8, "title": "末卢国", "fontsize": 12, "tyid": "304000", "oid": "103:1576575179726", "color": "#202020" }, "geometry": { "type": "Point", "coordinates": [ 129.902344, 33.431441 ] } }
{"year": "AD215",  "type": "Feature", "tippecanoe": { "layer": "2AFCA12C0A581583917236051", "minzoom": 2, "maxzoom": 8 }, "properties": { "halo": 0.8, "title": "伊都国", "fontsize": 12, "tyid": "304000", "oid": "103:1576575179663", "color": "#202020" }, "geometry": { "type": "Point", "coordinates": [ 130.166016, 33.578015 ] } }
{"year": "AD215",  "type": "Feature", "tippecanoe": { "layer": "2AFCA12C0A581583917236051", "minzoom": 2, "maxzoom": 8 }, "properties": { "halo": 0.8, "title": "奴国", "fontsize": 12, "tyid": "304000", "oid": "103:1576575180054", "color": "#202020" }, "geometry": { "type": "Point", "coordinates": [ 130.605469, 33.724340 ] } }
{"year": "AD215",  "type": "Feature", "tippecanoe": { "layer": "2AFCA12C0A581583917236051", "minzoom": 2, "maxzoom": 8 }, "properties": { "halo": 0.8, "title": "不弥国", "fontsize": 12, "tyid": "304000", "oid": "103:1576575179941", "color": "#202020" }, "geometry": { "type": "Point", "coordinates": [ 130.957031, 33.651208 ] } }
{"year": "AD215",  "type": "Feature", "tippecanoe": { "layer": "2AFCA12C0A581583917236051", "minzoom": 2, "maxzoom": 8 }, "properties": { "halo": 0.8, "title": "邪马台国", "fontsize": 12, "tyid": "304000", "oid": "103:1576575179630", "color": "#202020" }, "geometry": { "type": "Point", "coordinates": [ 130.869141, 33.137551 ] } }
{"year": "AD215",  "type": "Feature", "tippecanoe": { "layer": "2AFCA12C0A581583917236051", "minzoom": 2, "maxzoom": 8 }, "properties": { "halo": 0.8, "title": "投马国", "fontsize": 12, "tyid": "304000", "oid": "103:1576575180066", "color": "#202020" }, "geometry": { "type": "Point", "coordinates": [ 131.220703, 32.249974 ] } }
{"year": "AD215",  "type": "Feature", "tippecanoe": { "layer": "2AFCA12C0A581583917236051", "minzoom": 2, "maxzoom": 8 }, "properties": { "halo": 0.8, "title": "狗奴国", "fontsize": 12, "tyid": "304000", "oid": "103:1576575179739", "color": "#202020" }, "geometry": { "type": "Point", "coordinates": [ 130.605469, 31.952162 ] } }
{"year": "AD215",  "type": "Feature", "tippecanoe": { "layer": "2AFCA12C0A581583917236051", "minzoom": 2, "maxzoom": 8 }, "properties": { "halo": 0.8, "title": "尼格利陀人", "fontsize": 12, "tyid": "304001", "oid": "103:1576575179959", "color": "#262626" }, "geometry": { "type": "Point", "coordinates": [ 122.431641, 11.264612 ] } }
{"year": "AD215",  "type": "Feature", "tippecanoe": { "layer": "2AFCA12C0A581583917236051", "minzoom": 2, "maxzoom": 8 }, "properties": { "halo": 0.8, "title": "托雷斯海峡岛民", "fontsize": 12, "tyid": "304001", "oid": "103:1576575179718", "color": "#262626" }, "geometry": { "type": "Point", "coordinates": [ 142.382812, -11.264612 ] } }
{"year": "AD215",  "type": "Feature", "tippecanoe": { "layer": "2AFCA12C0C881583917236048", "minzoom": 2, "maxzoom": 8 }, "properties": { "halo": 0.8, "title": "拉霍亚文化", "fontsize": 12, "tyid": "304002", "oid": "103:1576575179758", "color": "#262626" }, "geometry": { "type": "Point", "coordinates": [ -118.916016, 34.597042 ] } }
{"year": "AD215",  "type": "Feature", "tippecanoe": { "layer": "2AFCA12C0C881583917236048", "minzoom": 2, "maxzoom": 8 }, "properties": { "halo": 0.8, "title": "维珍阿纳萨齐人", "fontsize": 12, "tyid": "304001", "oid": "103:1576575179795", "color": "#262626" }, "geometry": { "type": "Point", "coordinates": [ -113.818359, 36.879621 ] } }
{"year": "AD215",  "type": "Feature", "tippecanoe": { "layer": "2AFCA12C0C881583917236048", "minzoom": 2, "maxzoom": 8 }, "properties": { "halo": 0.8, "title": "弗里蒙特文化", "fontsize": 12, "tyid": "304002", "oid": "103:1576575179805", "color": "#262626" }, "geometry": { "type": "Point", "coordinates": [ -111.533203, 38.134557 ] } }
{"year": "AD215",  "type": "Feature", "tippecanoe": { "layer": "2AFCA12C0C881583917236048", "minzoom": 2, "maxzoom": 8 }, "properties": { "halo": 0.8, "title": "奥沙拉文化", "fontsize": 12, "tyid": "304002", "oid": "103:1576575179872", "color": "#262626" }, "geometry": { "type": "Point", "coordinates": [ -107.841797, 37.509726 ] } }
{"year": "AD215",  "type": "Feature", "tippecanoe": { "layer": "2AFCA12C0C881583917236048", "minzoom": 2, "maxzoom": 8 }, "properties": { "halo": 0.8, "title": "古普韦布洛人", "fontsize": 12, "tyid": "304001", "oid": "103:1576575179965", "color": "#262626" }, "geometry": { "type": "Point", "coordinates": [ -109.951172, 36.527295 ] } }
{"year": "AD215",  "type": "Feature", "tippecanoe": { "layer": "2AFCA12C0C881583917236048", "minzoom": 2, "maxzoom": 8 }, "properties": { "halo": 0.8, "title": "奇瓦瓦文化", "fontsize": 12, "tyid": "304002", "oid": "103:1576575179937", "color": "#262626" }, "geometry": { "type": "Point", "coordinates": [ -107.226562, 32.768800 ] } }
{"year": "AD215",  "type": "Feature", "tippecanoe": { "layer": "2AFCA12C0C881583917236048", "minzoom": 2, "maxzoom": 8 }, "properties": { "halo": 0.8, "title": "瓜伊库拉人", "fontsize": 12, "tyid": "304001", "oid": "103:1576575179729", "color": "#262626" }, "geometry": { "type": "Point", "coordinates": [ -111.269531, 24.846565 ] } }
{"year": "AD215",  "type": "Feature", "tippecanoe": { "layer": "2AFCA12C0C881583917236048", "minzoom": 2, "maxzoom": 8 }, "properties": { "halo": 0.8, "title": "堪萨斯城霍普韦尔文化", "fontsize": 12, "tyid": "304002", "oid": "103:1576575180068", "color": "#262626" }, "geometry": { "type": "Point", "coordinates": [ -94.042969, 39.027719 ] } }
{"year": "AD215",  "type": "Feature", "tippecanoe": { "layer": "2AFCA12C0C881583917236048", "minzoom": 2, "maxzoom": 8 }, "properties": { "halo": 0.8, "title": "哈瓦那霍普韦尔文化", "fontsize": 12, "tyid": "304002", "oid": "103:1576575179913", "color": "#262626" }, "geometry": { "type": "Point", "coordinates": [ -91.054688, 40.446947 ] } }
{"year": "AD215",  "type": "Feature", "tippecanoe": { "layer": "2AFCA12C0C881583917236048", "minzoom": 2, "maxzoom": 8 }, "properties": { "halo": 0.8, "title": "喀多语密西西比文化", "fontsize": 12, "tyid": "304002", "oid": "103:1576575179750", "color": "#262626" }, "geometry": { "type": "Point", "coordinates": [ -94.482422, 35.960223 ] } }
{"year": "AD215",  "type": "Feature", "tippecanoe": { "layer": "2AFCA12C0C881583917236048", "minzoom": 2, "maxzoom": 8 }, "properties": { "halo": 0.8, "title": "福切马里尼文化", "fontsize": 12, "tyid": "304002", "oid": "103:1576575179661", "color": "#262626" }, "geometry": { "type": "Point", "coordinates": [ -94.306641, 33.358062 ] } }
{"year": "AD215",  "type": "Feature", "tippecanoe": { "layer": "2AFCA12C0C881583917236048", "minzoom": 2, "maxzoom": 8 }, "properties": { "halo": 0.8, "title": "华斯塔克文明", "fontsize": 12, "tyid": "304002", "oid": "103:1576575179752", "color": "#262626" }, "geometry": { "type": "Point", "coordinates": [ -98.613281, 22.105999 ] } }
{"year": "AD215",  "type": "Feature", "tippecanoe": { "layer": "2AFCA12C0C881583917236048", "minzoom": 2, "maxzoom": 8 }, "properties": { "halo": 0.8, "title": "奇蒂玛察人", "fontsize": 12, "tyid": "304001", "oid": "103:1576575179968", "color": "#262626" }, "geometry": { "type": "Point", "coordinates": [ -91.230469, 30.902225 ] } }
{"year": "AD215",  "type": "Feature", "tippecanoe": { "layer": "2AFCA12C0C881583917236048", "minzoom": 2, "maxzoom": 8 }, "properties": { "halo": 0.8, "title": "马克斯维尔文化", "fontsize": 12, "tyid": "304002", "oid": "103:1576575179633", "color": "#262626" }, "geometry": { "type": "Point", "coordinates": [ -90.878906, 29.764377 ] } }
{"year": "AD215",  "type": "Feature", "tippecanoe": { "layer": "2AFCA12C0C881583917236048", "minzoom": 2, "maxzoom": 8 }, "properties": { "halo": 0.8, "title": "萨波特克文明", "fontsize": 12, "tyid": "304002", "oid": "103:1576575179919", "color": "#262626" }, "geometry": { "type": "Point", "coordinates": [ -96.064453, 16.636192 ] } }
{"year": "AD215",  "type": "Feature", "tippecanoe": { "layer": "2AFCA12C0C881583917236048", "minzoom": 2, "maxzoom": 8 }, "properties": { "halo": 0.8, "title": "古德尔文化", "fontsize": 12, "tyid": "304002", "oid": "103:1576575179719", "color": "#262626" }, "geometry": { "type": "Point", "coordinates": [ -85.869141, 43.133061 ] } }
{"year": "AD215",  "type": "Feature", "tippecanoe": { "layer": "2AFCA12C0C881583917236048", "minzoom": 2, "maxzoom": 8 }, "properties": { "halo": 0.8, "title": "索根文化", "fontsize": 12, "tyid": "304002", "oid": "103:1576575180075", "color": "#262626" }, "geometry": { "type": "Point", "coordinates": [ -81.298828, 43.707594 ] } }
{"year": "AD215",  "type": "Feature", "tippecanoe": { "layer": "2AFCA12C0C881583917236048", "minzoom": 2, "maxzoom": 8 }, "properties": { "halo": 0.8, "title": "蟹园文化", "fontsize": 12, "tyid": "304002", "oid": "103:1576575179983", "color": "#262626" }, "geometry": { "type": "Point", "coordinates": [ -88.066406, 37.718590 ] } }
{"year": "AD215",  "type": "Feature", "tippecanoe": { "layer": "2AFCA12C0C881583917236048", "minzoom": 2, "maxzoom": 8 }, "properties": { "halo": 0.8, "title": "俄亥俄霍普韦尔文化", "fontsize": 12, "tyid": "304002", "oid": "103:1576575179948", "color": "#262626" }, "geometry": { "type": "Point", "coordinates": [ -83.056641, 39.774769 ] } }
{"year": "AD215",  "type": "Feature", "tippecanoe": { "layer": "2AFCA12C0C881583917236048", "minzoom": 2, "maxzoom": 8 }, "properties": { "halo": 0.8, "title": "阿姆斯特朗文化", "fontsize": 12, "tyid": "304002", "oid": "103:1576575179917", "color": "#262626" }, "geometry": { "type": "Point", "coordinates": [ -82.968750, 38.134557 ] } }
{"year": "AD215",  "type": "Feature", "tippecanoe": { "layer": "2AFCA12C0C881583917236048", "minzoom": 2, "maxzoom": 8 }, "properties": { "halo": 0.8, "title": "德普特福德文化", "fontsize": 12, "tyid": "304002", "oid": "103:1576575180062", "color": "#262626" }, "geometry": { "type": "Point", "coordinates": [ -79.628906, 33.431441 ] } }
{"year": "AD215",  "type": "Feature", "tippecanoe": { "layer": "2AFCA12C0C881583917236048", "minzoom": 2, "maxzoom": 8 }, "properties": { "halo": 0.8, "title": "圣罗莎-斯威夫特溪文化", "fontsize": 12, "tyid": "304002", "oid": "103:1576575179899", "color": "#262626" }, "geometry": { "type": "Point", "coordinates": [ -86.396484, 30.902225 ] } }
{"year": "AD215",  "type": "Feature", "tippecanoe": { "layer": "2AFCA12C0C881583917236048", "minzoom": 2, "maxzoom": 8 }, "properties": { "halo": 0.8, "title": "斯威夫特溪文化", "fontsize": 12, "tyid": "304002", "oid": "103:1576575179621", "color": "#262626" }, "geometry": { "type": "Point", "coordinates": [ -84.111328, 31.428663 ] } }
{"year": "AD215",  "type": "Feature", "tippecanoe": { "layer": "2AFCA12C0C881583917236048", "minzoom": 2, "maxzoom": 8 }, "properties": { "halo": 0.8, "title": "玛雅文明[前古典时期]", "fontsize": 12, "tyid": "304002", "oid": "103:1576575179585", "color": "#262626" }, "geometry": { "type": "Point", "coordinates": [ -89.296875, 17.056785 ] } }
{"year": "AD215",  "type": "Feature", "tippecanoe": { "layer": "2AFCA12C0C881583917236048", "minzoom": 2, "maxzoom": 8 }, "properties": { "halo": 0.8, "title": "兹努文化", "fontsize": 12, "tyid": "304002", "oid": "103:1576575179775", "color": "#262626" }, "geometry": { "type": "Point", "coordinates": [ -75.585938, 8.581021 ] } }
{"year": "AD215",  "type": "Feature", "tippecanoe": { "layer": "2AFCA12C0C881583917236048", "minzoom": 2, "maxzoom": 8 }, "properties": { "halo": 0.8, "title": "埃雷拉时期", "fontsize": 12, "tyid": "304002", "oid": "103:1576575180053", "color": "#262626" }, "geometry": { "type": "Point", "coordinates": [ -73.476562, 5.441022 ] } }
{"year": "AD215",  "type": "Feature", "tippecanoe": { "layer": "2AFCA12C0C881583917236048", "minzoom": 2, "maxzoom": 8 }, "properties": { "halo": 0.8, "title": "伊奈里人", "fontsize": 12, "tyid": "304001", "oid": "103:1576575179761", "color": "#262626" }, "geometry": { "type": "Point", "coordinates": [ -61.787109, 8.754795 ] } }
{"year": "AD215",  "type": "Feature", "tippecanoe": { "layer": "2AFCA12C0C881583917236048", "minzoom": 2, "maxzoom": 8 }, "properties": { "halo": 0.8, "title": "喀里多尼亚人", "fontsize": 12, "tyid": "304001", "oid": "103:1576575180037", "color": "#262626" }, "geometry": { "type": "Point", "coordinates": [ -4.042969, 56.992883 ] } }
{"year": "AD215",  "type": "Feature", "tippecanoe": { "layer": "2AFCA12C0C881583917236048", "minzoom": 2, "maxzoom": 8 }, "properties": { "halo": 0.8, "title": "盖尔人", "fontsize": 12, "tyid": "304001", "oid": "103:1576575179697", "color": "#262626" }, "geometry": { "type": "Point", "coordinates": [ -9.228516, 52.052490 ] } }
{"year": "AD215",  "type": "Feature", "tippecanoe": { "layer": "2AFCA12C0C881583917236048", "minzoom": 2, "maxzoom": 8 }, "properties": { "halo": 0.8, "title": "沃塔迪尼人", "fontsize": 12, "tyid": "304000", "oid": "103:1576575180035", "color": "#202020" }, "geometry": { "type": "Point", "coordinates": [ -3.164062, 55.528631 ] } }
{"year": "AD215",  "type": "Feature", "tippecanoe": { "layer": "2AFCA12C0C881583917236048", "minzoom": 2, "maxzoom": 8 }, "properties": { "halo": 0.8, "title": "杰内-杰诺文化二期", "fontsize": 12, "tyid": "304002", "oid": "103:1576575179736", "color": "#262626" }, "geometry": { "type": "Point", "coordinates": [ -5.097656, 13.752725 ] } }
{"year": "AD215",  "type": "Feature", "tippecanoe": { "layer": "2AFCA12C0C881583917236048", "minzoom": 2, "maxzoom": 8 }, "properties": { "halo": 0.8, "title": "楚真文化", "fontsize": 12, "tyid": "304002", "oid": "103:1576575180059", "color": "#262626" }, "geometry": { "type": "Point", "coordinates": [ -70.576172, -16.299051 ] } }
{"year": "AD215",  "type": "Feature", "tippecanoe": { "layer": "2AFCA12C0C881583917236048", "minzoom": 2, "maxzoom": 8 }, "properties": { "halo": 0.8, "title": "普加拉文化", "fontsize": 12, "tyid": "304002", "oid": "103:1576575179776", "color": "#262626" }, "geometry": { "type": "Point", "coordinates": [ -69.697266, -13.838080 ] } }
{"year": "AD215",  "type": "Feature", "tippecanoe": { "layer": "2AFCA12C0C881583917236048", "minzoom": 2, "maxzoom": 8 }, "properties": { "halo": 0.8, "title": "艾马拉人", "fontsize": 12, "tyid": "304001", "oid": "103:1576575179894", "color": "#262626" }, "geometry": { "type": "Point", "coordinates": [ -68.291016, -17.224758 ] } }
{"year": "AD215",  "type": "Feature", "tippecanoe": { "layer": "2AFCA12C0C881583917236048", "minzoom": 2, "maxzoom": 8 }, "properties": { "halo": 0.8, "title": "昌戈人", "fontsize": 12, "tyid": "304001", "oid": "103:1576575179610", "color": "#262626" }, "geometry": { "type": "Point", "coordinates": [ -69.960938, -23.725012 ] } }
{"year": "AD215",  "type": "Feature", "tippecanoe": { "layer": "2AFCA12C0C881583917236048", "minzoom": 2, "maxzoom": 8 },