{ "type": "Feature", "tippecanoe": { "layer": "2AFCA0BEE0481583917195775", "minzoom": 2, "maxzoom": 8 }, "properties": { "halo": 0.2, "title": "听政殿", "fontsize": 12, "tyid": "700000", "centroid": "{\"type\":\"Point\",\"coordinates\":[114.41835296639,36.27974951355]}", "icon": "", "oid": "103:1543409624911", "color": "#4B4040" }, "geometry": { "type": "Point", "coordinates": [ 114.345703, 36.315125 ] } }
{ "type": "Feature", "tippecanoe": { "layer": "2AFCA0BEE0481583917195775", "minzoom": 2, "maxzoom": 8 }, "properties": { "halo": 0.2, "title": "冰井台", "fontsize": 12, "tyid": "700005", "centroid": "{\"type\":\"Point\",\"coordinates\":[114.400360119101,36.2787532234]}", "icon": "", "oid": "103:1543409624913", "color": "#4B4040" }, "geometry": { "type": "Point", "coordinates": [ 114.345703, 36.315125 ] } }
{ "type": "Feature", "tippecanoe": { "layer": "2AFCA0BEE0481583917195775", "minzoom": 2, "maxzoom": 8 }, "properties": { "halo": 0.2, "title": "铜爵台", "fontsize": 12, "tyid": "700005", "centroid": "{\"type\":\"Point\",\"coordinates\":[114.400316262266,36.2769965858]}", "icon": "", "oid": "103:1543409624915", "color": "#4B4040" }, "geometry": { "type": "Point", "coordinates": [ 114.345703, 36.315125 ] } }
{ "type": "Feature", "tippecanoe": { "layer": "2AFCA0BEE0481583917195775", "minzoom": 2, "maxzoom": 8 }, "properties": { "halo": 0.2, "title": "金虎台", "fontsize": 12, "tyid": "700005", "centroid": "{\"type\":\"Point\",\"coordinates\":[114.400307670447,36.27531158045]}", "icon": "", "oid": "103:1543409624917", "color": "#4B4040" }, "geometry": { "type": "Point", "coordinates": [ 114.345703, 36.315125 ] } }
{ "type": "Feature", "tippecanoe": { "layer": "2AFCA0BEE0481583917195775", "minzoom": 2, "maxzoom": 8 }, "properties": { "halo": 0.2, "title": "铜爵园", "fontsize": 12, "tyid": "700004", "centroid": "{\"type\":\"Point\",\"coordinates\":[114.406170760713,36.2778833731]}", "icon": "", "oid": "103:1543409625034", "color": "#4B4040" }, "geometry": { "type": "Point", "coordinates": [ 114.345703, 36.315125 ] } }
{ "type": "Feature", "tippecanoe": { "layer": "2AFCA0BEE0481583917195775", "minzoom": 2, "maxzoom": 8 }, "properties": { "halo": 0.2, "title": "文昌殿", "fontsize": 12, "tyid": "700000", "centroid": "{\"type\":\"Point\",\"coordinates\":[114.414028919251,36.27970444265]}", "icon": "", "oid": "103:1543409624909", "color": "#4B4040" }, "geometry": { "type": "Point", "coordinates": [ 114.345703, 36.315125 ] } }
{ "type": "Feature", "tippecanoe": { "layer": "2AFCA0BEE0801583917195766", "minzoom": 2, "maxzoom": 8 }, "properties": { "halo": 1.6, "title": "古白令海文化", "fontsize": 12, "tyid": "304002", "oid": "103:1576575161952", "color": "#0056E7" }, "geometry": { "type": "Point", "coordinates": [ -170.332031, 63.470145 ] } }
{ "type": "Feature", "tippecanoe": { "layer": "2AFCA0BEE0801583917195766", "minzoom": 2, "maxzoom": 8 }, "properties": { "halo": 1.6, "title": "梅奥人", "fontsize": 12, "tyid": "304001", "oid": "103:1576575162262", "color": "#0056E7" }, "geometry": { "type": "Point", "coordinates": [ -109.160156, 26.667096 ] } }
{ "type": "Feature", "tippecanoe": { "layer": "2AFCA0BEE0801583917195766", "minzoom": 2, "maxzoom": 8 }, "properties": { "halo": 1.6, "title": "查尔奇维特斯文化", "fontsize": 12, "tyid": "304002", "oid": "103:1576575162064", "color": "#0056E7" }, "geometry": { "type": "Point", "coordinates": [ -103.974609, 23.483401 ] } }
{ "type": "Feature", "tippecanoe": { "layer": "2AFCA0BEE0801583917195766", "minzoom": 2, "maxzoom": 8 }, "properties": { "halo": 1.6, "title": "查普卡洛文化", "fontsize": 12, "tyid": "304002", "oid": "103:1576575162062", "color": "#0056E7" }, "geometry": { "type": "Point", "coordinates": [ -99.931641, 20.303418 ] } }
{ "type": "Feature", "tippecanoe": { "layer": "2AFCA0BEE0801583917195766", "minzoom": 2, "maxzoom": 8 }, "properties": { "halo": 1.6, "title": "特奥蒂瓦坎", "fontsize": 12, "tyid": "304002", "oid": "103:1576575162249", "color": "#0056E7" }, "geometry": { "type": "Point", "coordinates": [ -99.404297, 19.808054 ] } }
{ "type": "Feature", "tippecanoe": { "layer": "2AFCA0BEE0801583917195766", "minzoom": 2, "maxzoom": 8 }, "properties": { "halo": 1.6, "title": "古韦拉克鲁斯文化", "fontsize": 12, "tyid": "304002", "oid": "103:1576575162047", "color": "#0056E7" }, "geometry": { "type": "Point", "coordinates": [ -96.767578, 19.642588 ] } }
{ "type": "Feature", "tippecanoe": { "layer": "2AFCA0BEE0801583917195766", "minzoom": 2, "maxzoom": 8 }, "properties": { "halo": 1.6, "title": "米斯特克人", "fontsize": 12, "tyid": "304001", "oid": "103:1576575162324", "color": "#0056E7" }, "geometry": { "type": "Point", "coordinates": [ -98.349609, 17.224758 ] } }
{ "type": "Feature", "tippecanoe": { "layer": "2AFCA0BEE0801583917195766", "minzoom": 2, "maxzoom": 8 }, "properties": { "halo": 1.6, "title": "特里克人", "fontsize": 12, "tyid": "304001", "oid": "103:1576575162096", "color": "#0056E7" }, "geometry": { "type": "Point", "coordinates": [ -97.294922, 17.644022 ] } }
{ "type": "Feature", "tippecanoe": { "layer": "2AFCA0BEE0801583917195766", "minzoom": 2, "maxzoom": 8 }, "properties": { "halo": 1.6, "title": "洛瓦贾达斯文化", "fontsize": 12, "tyid": "304002", "oid": "103:1576575162025", "color": "#0056E7" }, "geometry": { "type": "Point", "coordinates": [ -96.416016, 19.145168 ] } }
{ "type": "Feature", "tippecanoe": { "layer": "2AFCA0BEE0801583917195766", "minzoom": 2, "maxzoom": 8 }, "properties": { "halo": 1.6, "title": "麦克斯人", "fontsize": 12, "tyid": "304001", "oid": "103:1576575162233", "color": "#0056E7" }, "geometry": { "type": "Point", "coordinates": [ -96.328125, 18.062312 ] } }
{ "type": "Feature", "tippecanoe": { "layer": "2AFCA0BEE0801583917195766", "minzoom": 2, "maxzoom": 8 }, "properties": { "halo": 1.6, "title": "后奥尔梅克文化", "fontsize": 12, "tyid": "304002", "oid": "103:1576575162098", "color": "#0056E7" }, "geometry": { "type": "Point", "coordinates": [ -95.625000, 18.479609 ] } }
{ "type": "Feature", "tippecanoe": { "layer": "2AFCA0BEE0801583917195766", "minzoom": 2, "maxzoom": 8 }, "properties": { "halo": 1.6, "title": "佐齐尔人", "fontsize": 12, "tyid": "304001", "oid": "103:1576575162050", "color": "#0056E7" }, "geometry": { "type": "Point", "coordinates": [ -93.339844, 16.551962 ] } }
{ "type": "Feature", "tippecanoe": { "layer": "2AFCA0BEE0801583917195766", "minzoom": 2, "maxzoom": 8 }, "properties": { "halo": 1.6, "title": "祖赫人", "fontsize": 12, "tyid": "304001", "oid": "103:1576575162151", "color": "#0056E7" }, "geometry": { "type": "Point", "coordinates": [ -92.109375, 16.045813 ] } }
{ "type": "Feature", "tippecanoe": { "layer": "2AFCA0BEE0801583917195766", "minzoom": 2, "maxzoom": 8 }, "properties": { "halo": 1.6, "title": "基切人", "fontsize": 12, "tyid": "304001", "oid": "103:1576575162191", "color": "#0056E7" }, "geometry": { "type": "Point", "coordinates": [ -90.966797, 15.029686 ] } }
{ "type": "Feature", "tippecanoe": { "layer": "2AFCA0BEE0801583917195766", "minzoom": 2, "maxzoom": 8 }, "properties": { "halo": 1.6, "title": "怒溪文化", "fontsize": 12, "tyid": "304002", "oid": "103:1576575161915", "color": "#0056E7" }, "geometry": { "type": "Point", "coordinates": [ -72.421875, 41.574361 ] } }
{ "type": "Feature", "tippecanoe": { "layer": "2AFCA0BEE0801583917195766", "minzoom": 2, "maxzoom": 8 }, "properties": { "halo": 1.6, "title": "埃里森-拉莫特文化", "fontsize": 12, "tyid": "304002", "oid": "103:1576575162158", "color": "#0056E7" }, "geometry": { "type": "Point", "coordinates": [ -87.626953, 39.095963 ] } }
{ "type": "Feature", "tippecanoe": { "layer": "2AFCA0BEE0801583917195766", "minzoom": 2, "maxzoom": 8 }, "properties": { "halo": 1.6, "title": "科佩纳文化", "fontsize": 12, "tyid": "304002", "oid": "103:1576575162321", "color": "#0056E7" }, "geometry": { "type": "Point", "coordinates": [ -87.539062, 34.669359 ] } }
{ "type": "Feature", "tippecanoe": { "layer": "2AFCA0BEE0801583917195766", "minzoom": 2, "maxzoom": 8 }, "properties": { "halo": 1.6, "title": "米勒文化", "fontsize": 12, "tyid": "304002", "oid": "103:1576575162082", "color": "#0056E7" }, "geometry": { "type": "Point", "coordinates": [ -88.417969, 34.234512 ] } }
{ "type": "Feature", "tippecanoe": { "layer": "2AFCA0BEE0801583917195766", "minzoom": 2, "maxzoom": 8 }, "properties": { "halo": 1.6, "title": "威廉文化", "fontsize": 12, "tyid": "304002", "oid": "103:1576575162066", "color": "#0056E7" }, "geometry": { "type": "Point", "coordinates": [ -80.771484, 39.639538 ] } }
{ "type": "Feature", "tippecanoe": { "layer": "2AFCA0BEE0801583917195766", "minzoom": 2, "maxzoom": 8 }, "properties": { "halo": 1.6, "title": "山地霍普维尔文化", "fontsize": 12, "tyid": "304002", "oid": "103:1576575162220", "color": "#0056E7" }, "geometry": { "type": "Point", "coordinates": [ -79.980469, 39.300299 ] } }
{ "type": "Feature", "tippecanoe": { "layer": "2AFCA0BEE0801583917195766", "minzoom": 2, "maxzoom": 8 }, "properties": { "halo": 1.6, "title": "凯兹池塘文化", "fontsize": 12, "tyid": "304002", "oid": "103:1576575161958", "color": "#0056E7" }, "geometry": { "type": "Point", "coordinates": [ -82.265625, 29.535230 ] } }
{ "type": "Feature", "tippecanoe": { "layer": "2AFCA0BEE0801583917195766", "minzoom": 2, "maxzoom": 8 }, "properties": { "halo": 1.6, "title": "玛纳索塔文化", "fontsize": 12, "tyid": "304002", "oid": "103:1576575162125", "color": "#0056E7" }, "geometry": { "type": "Point", "coordinates": [ -82.441406, 27.683528 ] } }
{ "type": "Feature", "tippecanoe": { "layer": "2AFCA0BEE0801583917195766", "minzoom": 2, "maxzoom": 8 }, "properties": { "halo": 1.6, "title": "卡卢萨人", "fontsize": 12, "tyid": "304001", "oid": "103:1576575162317", "color": "#0056E7" }, "geometry": { "type": "Point", "coordinates": [ -81.650391, 27.137368 ] } }
{ "type": "Feature", "tippecanoe": { "layer": "2AFCA0BEE0801583917195766", "minzoom": 2, "maxzoom": 8 }, "properties": { "halo": 1.6, "title": "圣约翰文化", "fontsize": 12, "tyid": "304002", "oid": "103:1576575161882", "color": "#0056E7" }, "geometry": { "type": "Point", "coordinates": [ -81.474609, 29.382175 ] } }
{ "type": "Feature", "tippecanoe": { "layer": "2AFCA0BEE0801583917195766", "minzoom": 2, "maxzoom": 8 }, "properties": { "halo": 1.6, "title": "贝尔格莱德文化", "fontsize": 12, "tyid": "304002", "oid": "103:1576575162149", "color": "#0056E7" }, "geometry": { "type": "Point", "coordinates": [ -80.859375, 27.449790 ] } }
{ "type": "Feature", "tippecanoe": { "layer": "2AFCA0BEE0801583917195766", "minzoom": 2, "maxzoom": 8 }, "properties": { "halo": 1.6, "title": "格莱兹文化", "fontsize": 12, "tyid": "304002", "oid": "103:1576575161884", "color": "#0056E7" }, "geometry": { "type": "Point", "coordinates": [ -80.859375, 26.037042 ] } }
{ "type": "Feature", "tippecanoe": { "layer": "2AFCA0BEE0801583917195766", "minzoom": 2, "maxzoom": 8 }, "properties": { "halo": 1.6, "title": "德贵斯塔族", "fontsize": 12, "tyid": "304001", "oid": "103:1576575162129", "color": "#0056E7" }, "geometry": { "type": "Point", "coordinates": [ -80.419922, 25.641526 ] } }
{ "type": "Feature", "tippecanoe": { "layer": "2AFCA0BEE0801583917195766", "minzoom": 2, "maxzoom": 8 }, "properties": { "halo": 1.6, "title": "雷卡人", "fontsize": 12, "tyid": "304001", "oid": "103:1576575162027", "color": "#0056E7" }, "geometry": { "type": "Point", "coordinates": [ -87.802734, 13.752725 ] } }
{ "type": "Feature", "tippecanoe": { "layer": "2AFCA0BEE0801583917195766", "minzoom": 2, "maxzoom": 8 }, "properties": { "halo": 1.6, "title": "格兰科克勒文化", "fontsize": 12, "tyid": "304002", "oid": "103:1576575161984", "color": "#0056E7" }, "geometry": { "type": "Point", "coordinates": [ -80.507812, 8.581021 ] } }
{ "type": "Feature", "tippecanoe": { "layer": "2AFCA0BEE0801583917195766", "minzoom": 2, "maxzoom": 8 }, "properties": { "halo": 1.6, "title": "泰罗纳", "fontsize": 12, "tyid": "304002", "oid": "103:1576575161863", "color": "#0056E7" }, "geometry": { "type": "Point", "coordinates": [ -73.564453, 10.833306 ] } }
{ "type": "Feature", "tippecanoe": { "layer": "2AFCA0BEE0801583917195766", "minzoom": 2, "maxzoom": 8 }, "properties": { "halo": 1.6, "title": "约托科文化", "fontsize": 12, "tyid": "304002", "oid": "103:1576575162225", "color": "#0056E7" }, "geometry": { "type": "Point", "coordinates": [ -76.289062, 4.302591 ] } }
{ "type": "Feature", "tippecanoe": { "layer": "2AFCA0BEE0801583917195766", "minzoom": 2, "maxzoom": 8 }, "properties": { "halo": 1.6, "title": "卡利玛文化", "fontsize": 12, "tyid": "304002", "oid": "103:1576575162209", "color": "#0056E7" }, "geometry": { "type": "Point", "coordinates": [ -76.728516, 4.214943 ] } }
{ "type": "Feature", "tippecanoe": { "layer": "2AFCA0BEE0801583917195766", "minzoom": 2, "maxzoom": 8 }, "properties": { "halo": 1.6, "title": "马拉加纳文化", "fontsize": 12, "tyid": "304002", "oid": "103:1576575161971", "color": "#0056E7" }, "geometry": { "type": "Point", "coordinates": [ -76.289062, 3.425692 ] } }
{ "type": "Feature", "tippecanoe": { "layer": "2AFCA0BEE0801583917195766", "minzoom": 2, "maxzoom": 8 }, "properties": { "halo": 1.6, "title": "昆巴雅文明", "fontsize": 12, "tyid": "304002", "oid": "103:1576575162058", "color": "#0056E7" }, "geometry": { "type": "Point", "coordinates": [ -75.761719, 5.090944 ] } }
{ "type": "Feature", "tippecanoe": { "layer": "2AFCA0BEE0801583917195766", "minzoom": 2, "maxzoom": 8 }, "properties": { "halo": 1.6, "title": "大庄园文化", "fontsize": 12, "tyid": "304002", "oid": "103:1576575162138", "color": "#0056E7" }, "geometry": { "type": "Point", "coordinates": [ -65.917969, 18.396230 ] } }
{ "type": "Feature", "tippecanoe": { "layer": "2AFCA0BEE0801583917195766", "minzoom": 2, "maxzoom": 8 }, "properties": { "halo": 1.6, "title": "萨拉杜文化", "fontsize": 12, "tyid": "304002", "oid": "103:1576575162247", "color": "#0056E7" }, "geometry": { "type": "Point", "coordinates": [ -61.699219, 16.214675 ] } }
{ "type": "Feature", "tippecanoe": { "layer": "2AFCA0BEE0801583917195766", "minzoom": 2, "maxzoom": 8 }, "properties": { "halo": 1.6, "title": "皮克特人", "fontsize": 12, "tyid": "304001", "oid": "103:1576575161930", "color": "#0056E7" }, "geometry": { "type": "Point", "coordinates": [ -1.406250, 60.326948 ] } }
{ "type": "Feature", "tippecanoe": { "layer": "2AFCA0BEE0801583917195766", "minzoom": 2, "maxzoom": 8 }, "properties": { "halo": 1.6, "title": "凯雷尼人", "fontsize": 12, "tyid": "304001", "oid": "103:1576575161862", "color": "#0056E7" }, "geometry": { "type": "Point", "coordinates": [ -5.097656, 58.077876 ] } }
{ "type": "Feature", "tippecanoe": { "layer": "2AFCA0BEE0801583917195766", "minzoom": 2, "maxzoom": 8 }, "properties": { "halo": 1.6, "title": "卡诺奈卡人", "fontsize": 12, "tyid": "304001", "oid": "103:1576575161937", "color": "#0056E7" }, "geometry": { "type": "Point", "coordinates": [ -5.537109, 57.657158 ] } }
{ "type": "Feature", "tippecanoe": { "layer": "2AFCA0BEE0801583917195766", "minzoom": 2, "maxzoom": 8 }, "properties": { "halo": 1.6, "title": "斯梅尔泰人", "fontsize": 12, "tyid": "304001", "oid": "103:1576575161873", "color": "#0056E7" }, "geometry": { "type": "Point", "coordinates": [ -4.746094, 57.984808 ] } }
{ "type": "Feature", "tippecanoe": { "layer": "2AFCA0BEE0801583917195766", "minzoom": 2, "maxzoom": 8 }, "properties": { "halo": 1.6, "title": "卢吉人", "fontsize": 12, "tyid": "304001", "oid": "103:1576575162226", "color": "#0056E7" }, "geometry": { "type": "Point", "coordinates": [ -4.130859, 58.124320 ] } }
{ "type": "Feature", "tippecanoe": { "layer": "2AFCA0BEE0801583917195766", "minzoom": 2, "maxzoom": 8 }, "properties": { "halo": 1.6, "title": "克洛维人[凯瑟尼斯]", "fontsize": 12, "tyid": "304001", "oid": "103:1576575161829", "color": "#0056E7" }, "geometry": { "type": "Point", "coordinates": [ -3.867188, 58.447733 ] } }
{ "type": "Feature", "tippecanoe": { "layer": "2AFCA0BEE0801583917195766", "minzoom": 2, "maxzoom": 8 }, "properties": { "halo": 1.6, "title": "德坎泰人", "fontsize": 12, "tyid": "304001", "oid": "103:1576575161932", "color": "#0056E7" }, "geometry": { "type": "Point", "coordinates": [ -4.218750, 57.610107 ] } }
{ "type": "Feature", "tippecanoe": { "layer": "2AFCA0BEE0801583917195766", "minzoom": 2, "maxzoom": 8 }, "properties": { "halo": 1.6, "title": "维格梅京人", "fontsize": 12, "tyid": "304001", "oid": "103:1576575161957", "color": "#0056E7" }, "geometry": { "type": "Point", "coordinates": [ -3.339844, 57.515823 ] } }
{ "type": "Feature", "tippecanoe": { "layer": "2AFCA0BEE0801583917195766", "minzoom": 2, "maxzoom": 8 }, "properties": { "halo": 1.6, "title": "克鲁尼人", "fontsize": 12, "tyid": "304001", "oid": "103:1576575161928", "color": "#0056E7" }, "geometry": { "type": "Point", "coordinates": [ -5.449219, 57.040730 ] } }
{ "type": "Feature", "tippecanoe": { "layer": "2AFCA0BEE0801583917195766", "minzoom": 2, "maxzoom": 8 }, "properties": { "halo": 1.6, "title": "维尼科内人", "fontsize": 12, "tyid": "304001", "oid": "103:1576575162134", "color": "#0056E7" }, "geometry": { "type": "Point", "coordinates": [ -3.691406, 56.218923 ] } }
{ "type": "Feature", "tippecanoe": { "layer": "2AFCA0BEE0801583917195766", "minzoom": 2, "maxzoom": 8 }, "properties": { "halo": 1.6, "title": "德克萨利人", "fontsize": 12, "tyid": "304001", "oid": "103:1576575162157", "color": "#0056E7" }, "geometry": { "type": "Point", "coordinates": [ -2.197266, 57.326521 ] } }
{ "type": "Feature", "tippecanoe": { "layer": "2AFCA0BEE0801583917195766", "minzoom": 2, "maxzoom": 8 }, "properties": { "halo": 1.8, "title": "奥斯拉尔王国", "fontsize": 12, "tyid": "304000", "oid": "103:1576575162085", "color": "#0056E7" }, "geometry": { "type": "Point", "coordinates": [ -7.470703, 52.802761 ] } }
{ "type": "Feature", "tippecanoe": { "layer": "2AFCA0BEE0801583917195766", "minzoom": 2, "maxzoom": 8 }, "properties": { "halo": 1.6, "title": "埃皮迪人", "fontsize": 12, "tyid": "304001", "oid": "103:1576575161968", "color": "#0056E7" }, "geometry": { "type": "Point", "coordinates": [ -5.537109, 55.677584 ] } }
{ "type": "Feature", "tippecanoe": { "layer": "2AFCA0BEE0801583917195766", "minzoom": 2, "maxzoom": 8 }, "properties": { "halo": 1.6, "title": "关切人", "fontsize": 12, "tyid": "304001", "oid": "103:1576575161947", "color": "#0056E7" }, "geometry": { "type": "Point", "coordinates": [ -16.611328, 28.304381 ] } }
{ "type": "Feature", "tippecanoe": { "layer": "2AFCA0BEE0801583917195766", "minzoom": 2, "maxzoom": 8 }, "properties": { "halo": 1.6, "title": "瓜纳加拉文化", "fontsize": 12, "tyid": "304002", "oid": "103:1576575161872", "color": "#0056E7" }, "geometry": { "type": "Point", "coordinates": [ -80.595703, -1.669686 ] } }
{ "type": "Feature", "tippecanoe": { "layer": "2AFCA0BEE0801583917195766", "minzoom": 2, "maxzoom": 8 }, "properties": { "halo": 1.6, "title": "巴伊亚文化", "fontsize": 12, "tyid": "304002", "oid": "103:1576575162035", "color": "#0056E7" }, "geometry": { "type": "Point", "coordinates": [ -80.068359, -0.527336 ] } }
{ "type": "Feature", "tippecanoe": { "layer": "2AFCA0BEE0801583917195766", "minzoom": 2, "maxzoom": 8 }, "properties": { "halo": 1.6, "title": "维克斯文化", "fontsize": 12, "tyid": "304002", "oid": "103:1576575162063", "color": "#0056E7" }, "geometry": { "type": "Point", "coordinates": [ -80.419922, -5.878332 ] } }
{ "type": "Feature", "tippecanoe": { "layer": "2AFCA0BEE0801583917195766", "minzoom": 2, "maxzoom": 8 }, "properties": { "halo": 1.6, "title": "萨利纳尔文化", "fontsize": 12, "tyid": "304002", "oid": "103:1576575162019", "color": "#0056E7" }, "geometry": { "type": "Point", "coordinates": [ -78.925781, -7.798079 ] } }
{ "type": "Feature", "tippecanoe": { "layer": "2AFCA0BEE0801583917195766", "minzoom": 2, "maxzoom": 8 }, "properties": { "halo": 1.6, "title": "莫切文明", "fontsize": 12, "tyid": "304002", "oid": "103:1576575162119", "color": "#0056E7" }, "geometry": { "type": "Point", "coordinates": [ -79.013672, -8.146243 ] } }
{ "type": "Feature", "tippecanoe": { "layer": "2AFCA0BEE0801583917195766", "minzoom": 2, "maxzoom": 8 }, "properties": { "halo": 1.6, "title": "维鲁文化", "fontsize": 12, "tyid": "304002", "oid": "103:1576575161888", "color": "#0056E7" }, "geometry": { "type": "Point", "coordinates": [ -78.837891, -8.320212 ] } }
{ "type": "Feature", "tippecanoe": { "layer": "2AFCA0BEE0801583917195766", "minzoom": 2, "maxzoom": 8 }, "properties": { "halo": 1.6, "title": "瑞克文化", "fontsize": 12, "tyid": "304002", "oid": "103:1576575162182", "color": "#0056E7" }, "geometry": { "type": "Point", "coordinates": [ -77.607422, -9.622414 ] } }
{ "type": "Feature", "tippecanoe": { "layer": "2AFCA0BEE0801583917195766", "minzoom": 2, "maxzoom": 8 }, "properties": { "halo": 1.6, "title": "加伊纳索文化", "fontsize": 12, "tyid": "304002", "oid": "103:1576575161904", "color": "#0056E7" }, "geometry": { "type": "Point", "coordinates": [ -77.080078, -11.092166 ] } }
{ "type": "Feature", "tippecanoe": { "layer": "2AFCA0BEE0801583917195766", "minzoom": 2, "maxzoom": 8 }, "properties": { "halo": 1.6, "title": "利马文化", "fontsize": 12, "tyid": "304002", "oid": "103:1576575161969", "color": "#0056E7" }, "geometry": { "type": "Point", "coordinates": [ -76.289062, -12.382928 ] } }
{ "type": "Feature", "tippecanoe": { "layer": "2AFCA0BEE0801583917195766", "minzoom": 2, "maxzoom": 8 }, "properties": { "halo": 1.6, "title": "华帕文化", "fontsize": 12, "tyid": "304002", "oid": "103:1576575162260", "color": "#0056E7" }, "geometry": { "type": "Point", "coordinates": [ -74.179688, -13.581921 ] } }
{ "type": "Feature", "tippecanoe": { "layer": "2AFCA0BEE0801583917195766", "minzoom": 2, "maxzoom": 8 }, "properties": { "halo": 1.6, "title": "纳斯卡文化", "fontsize": 12, "tyid": "304002", "oid": "103:1576575162075", "color": "#0056E7" }, "geometry": { "type": "Point", "coordinates": [ -75.058594, -14.944785 ] } }
{ "type": "Feature", "tippecanoe": { "layer": "2AFCA0BEE0801583917195766", "minzoom": 2, "maxzoom": 8 }, "properties": { "halo": 1.6, "title": "塔夫文化", "fontsize": 12, "tyid": "304002", "oid": "103:1576575162023", "color": "#0056E7" }, "geometry": { "type": "Point", "coordinates": [ -65.654297, -26.980829 ] } }
{ "type": "Feature", "tippecanoe": { "layer": "2AFCA0BEE0801583917195766", "minzoom": 2, "maxzoom": 8 }, "properties": { "halo": 1.6, "title": "豪什人", "fontsize": 12, "tyid": "304001", "oid": "103:1576575161844", "color": "#0056E7" }, "geometry": { "type": "Point", "coordinates": [ -65.917969, -54.724620 ] } }
{ "type": "Feature", "tippecanoe": { "layer": "2AFCA0BEE0801583917195766", "minzoom": 2, "maxzoom": 8 }, "properties": { "halo": 1.6, "title": "哥得兰人", "fontsize": 12, "tyid": "304001", "oid": "103:1576575161905", "color": "#0056E7" }, "geometry": { "type": "Point", "coordinates": [ 18.457031, 57.515823 ] } }
{ "type": "Feature", "tippecanoe": { "layer": "2AFCA0BEE0801583917195766", "minzoom": 2, "maxzoom": 8 }, "properties": { "halo": 1.6, "title": "弗里西人", "fontsize": 12, "tyid": "304001", "oid": "103:1576575162287", "color": "#0056E7" }, "geometry": { "type": "Point", "coordinates": [ 6.679688, 52.643063 ] } }
{ "type": "Feature", "tippecanoe": { "layer": "2AFCA0BEE0801583917195766", "minzoom": 2, "maxzoom": 8 }, "properties": { "halo": 1.6, "title": "盎格鲁人", "fontsize": 12, "tyid": "304001", "oid": "103:1576575161974", "color": "#0056E7" }, "geometry": { "type": "Point", "coordinates": [ 9.316406, 54.622978 ] } }
{ "type": "Feature", "tippecanoe": { "layer": "2AFCA0BEE0801583917195766", "minzoom": 2, "maxzoom": 8 }, "properties": { "halo": 1.6, "title": "萨克森人", "fontsize": 12, "tyid": "304001", "oid": "103:1576575162141", "color": "#0056E7" }, "geometry": { "type": "Point", "coordinates": [ 10.019531, 54.007769 ] } }
{ "type": "Feature", "tippecanoe": { "layer": "2AFCA0BEE0801583917195766", "minzoom": 2, "maxzoom": 8 }, "properties": { "halo": 1.6, "title": "查马维人", "fontsize": 12, "tyid": "304001", "oid": "103:1576575162294", "color": "#0056E7" }, "geometry": { "type": "Point", "coordinates": [ 7.119141, 51.944265 ] } }
{ "type": "Feature", "tippecanoe": { "layer": "2AFCA0BEE0801583917195766", "minzoom": 2, "maxzoom": 8 }, "properties": { "halo": 1.6, "title": "辛坎布雷人", "fontsize": 12, "tyid": "304001", "oid": "103:1576575162135", "color": "#0056E7" }, "geometry": { "type": "Point", "coordinates": [ 7.646484, 51.289406 ] } }
{ "type": "Feature", "tippecanoe": { "layer": "2AFCA0BEE0801583917195766", "minzoom": 2, "maxzoom": 8 }, "properties": { "halo": 1.6, "title": "布鲁克特人", "fontsize": 12, "tyid": "304001", "oid": "103:1576575162296", "color": "#0056E7" }, "geometry": { "type": "Point", "coordinates": [ 8.437500, 51.998410 ] } }
{ "type": "Feature", "tippecanoe": { "layer": "2AFCA0BEE0801583917195766", "minzoom": 2, "maxzoom": 8 }, "properties": { "halo": 1.6, "title": "奥耶塞利人", "fontsize": 12, "tyid": "304001", "oid": "103:1576575161899", "color": "#0056E7" }, "geometry": { "type": "Point", "coordinates": [ 22.500000, 58.447733 ] } }
{ "type": "Feature", "tippecanoe": { "layer": "2AFCA0BEE0801583917195766", "minzoom": 2, "maxzoom": 8 }, "properties": { "halo": 1.6, "title": "科斯多波克人", "fontsize": 12, "tyid": "304001", "oid": "103:1576575162175", "color": "#0056E7" }, "geometry": { "type": "Point", "coordinates": [ 27.597656, 48.166085 ] } }
{ "type": "Feature", "tippecanoe": { "layer": "2AFCA0BEE0801583917195766", "minzoom": 2, "maxzoom": 8 }, "properties": { "halo": 1.6, "title": "奥里维亚", "fontsize": 12, "tyid": "304002", "oid": "103:1576575161922", "color": "#0056E7" }, "geometry": { "type": "Point", "coordinates": [ 31.816406, 46.679594 ] } }
{ "type": "Feature", "tippecanoe": { "layer": "2AFCA0BEE0801583917195766", "minzoom": 2, "maxzoom": 8 }, "properties": { "halo": 1.6, "title": "科尔基斯山中诸部", "fontsize": 12, "tyid": "304002", "oid": "103:1576575162174", "color": "#0056E7" }, "geometry": { "type": "Point", "coordinates": [ 41.132812, 43.133061 ] } }
{ "type": "Feature", "tippecanoe": { "layer": "2AFCA0BEE0801583917195766", "minzoom": 2, "maxzoom": 8 }, "properties": { "halo": 1.8, "title": "埃米萨王朝", "fontsize": 12, "tyid": "304000", "oid": "103:1576575162340", "color": "#0056E7" }, "geometry": { "type": "Point", "coordinates": [ 36.650391, 34.741612 ] } }
{ "type": "Feature", "tippecanoe": { "layer": "2AFCA0BEE0801583917195766", "minzoom": 2, "maxzoom": 8 }, "properties": { "halo": 1.8, "title": "阿拉巴王国", "fontsize": 12, "tyid": "304000", "oid": "103:1576575162342", "color": "#0056E7" }, "geometry": { "type": "Point", "coordinates": [ 42.363281, 35.532226 ] } }
{ "type": "Feature", "tippecanoe": { "layer": "2AFCA0BEE0801583917195766", "minzoom": 2, "maxzoom": 8 }, "properties": { "halo": 1.6, "title": "列兹金人", "fontsize": 12, "tyid": "304001", "oid": "103:1576575162122", "color": "#0056E7" }, "geometry": { "type": "Point", "coordinates": [ 47.812500, 41.640078 ] } }
{ "type": "Feature", "tippecanoe": { "layer": "2AFCA0BEE0801583917195766", "minzoom": 2, "maxzoom": 8 }, "properties": { "halo": 1.8, "title": "西且弥国", "fontsize": 12, "tyid": "304000", "oid": "103:1576575162270", "color": "#0056E7" }, "geometry": { "type": "Point", "coordinates": [ 86.220703, 43.834527 ] } }
{ "type": "Feature", "tippecanoe": { "layer": "2AFCA0BEE0801583917195766", "minzoom": 2, "maxzoom": 8 }, "properties": { "halo": 1.8, "title": "东且弥国", "fontsize": 12, "tyid": "304000", "oid": "103:1576575162273", "color": "#0056E7" }, "geometry": { "type": "Point", "coordinates": [ 86.923828, 43.707594 ] } }
{ "type": "Feature", "tippecanoe": { "layer": "2AFCA0BEE0801583917195766", "minzoom": 2, "maxzoom": 8 }, "properties": { "halo": 1.8, "title": "劫国", "fontsize": 12, "tyid": "304000", "oid": "103:1576575162241", "color": "#0056E7" }, "geometry": { "type": "Point", "coordinates": [ 87.802734, 44.150681 ] } }
{ "type": "Feature", "tippecanoe": { "layer": "2AFCA0BEE0801583917195766", "minzoom": 2, "maxzoom": 8 }, "properties": { "halo": 1.8, "title": "卑陆国", "fontsize": 12, "tyid": "304000", "oid": "103:1576575161892", "color": "#0056E7" }, "geometry": { "type": "Point", "coordinates": [ 87.539062, 43.644026 ] } }
{ "type": "Feature", "tippecanoe": { "layer": "2AFCA0BEE0801583917195766", "minzoom": 2, "maxzoom": 8 }, "properties": { "halo": 1.8, "title": "依耐国", "fontsize": 12, "tyid": "304000", "oid": "103:1576575162246", "color": "#0056E7" }, "geometry": { "type": "Point", "coordinates": [ 75.937500, 38.616870 ] } }
{ "type": "Feature", "tippecanoe": { "layer": "2AFCA0BEE0801583917195766", "minzoom": 2, "maxzoom": 8 }, "properties": { "halo": 1.8, "title": "罗昂", "fontsize": 12, "tyid": "304000", "oid": "103:1576575161992", "color": "#0056E7" }, "geometry": { "type": "Point", "coordinates": [ 89.208984, 29.152161 ] } }
{ "type": "Feature", "tippecanoe": { "layer": "2AFCA0BEE0801583917195766", "minzoom": 2, "maxzoom": 8 }, "properties": { "halo": 1.8, "title": "藏", "fontsize": 12, "tyid": "304000", "oid": "103:1576575161934", "color": "#0056E7" }, "geometry": { "type": "Point", "coordinates": [ 89.736328, 28.844674 ] } }
{ "type": "Feature", "tippecanoe": { "layer": "2AFCA0BEE0801583917195766", "minzoom": 2, "maxzoom": 8 }, "properties": { "halo": 1.8, "title": "卓木南木松", "fontsize": 12, "tyid": "304000", "oid": "103:1576575161982", "color": "#0056E7" }, "geometry": { "type": "Point", "coordinates": [ 88.945312, 27.839076 ] } }
{ "type": "Feature", "tippecanoe": { "layer": "2AFCA0BEE0801583917195766", "minzoom": 2, "maxzoom": 8 }, "properties": { "halo": 1.8, "title": "牟湿迦王国", "fontsize": 12, "tyid": "304000", "oid": "103:1576575161988", "color": "#0056E7" }, "geometry": { "type": "Point", "coordinates": [ 75.322266, 12.640338 ] } }
{ "type": "Feature", "tippecanoe": { "layer": "2AFCA0BEE0801583917195766", "minzoom": 2, "maxzoom": 8 }, "properties": { "halo": 1.8, "title": "阿伊王国", "fontsize": 12, "tyid": "304000", "oid": "103:1576575162306", "color": "#0056E7" }, "geometry": { "type": "Point", "coordinates": [ 77.080078, 8.667918 ] } }
{ "type": "Feature", "tippecanoe": { "layer": "2AFCA0BEE0801583917195766", "minzoom": 2, "maxzoom": 8 }, "properties": { "halo": 1.8, "title": "吉", "fontsize": 12, "tyid": "304000", "oid": "103:1576575161895", "color": "#0056E7" }, "geometry": { "type": "Point", "coordinates": [ 91.406250, 29.764377 ] } }
{ "type": "Feature", "tippecanoe": { "layer": "2AFCA0BEE0801583917195766", "minzoom": 2, "maxzoom": 8 }, "properties": { "halo": 1.8, "title": "琛", "fontsize": 12, "tyid": "304000", "oid": "103:1576575161825", "color": "#0056E7" }, "geometry": { "type": "Point", "coordinates": [ 91.230469, 29.382175 ] } }
{ "type": "Feature", "tippecanoe": { "layer": "2AFCA0BEE0801583917195766", "minzoom": 2, "maxzoom": 8 }, "properties": { "halo": 1.8, "title": "悉补野", "fontsize": 12, "tyid": "304000", "oid": "103:1576575162197", "color": "#0056E7" }, "geometry": { "type": "Point", "coordinates": [ 91.845703, 29.152161 ] } }
{ "type": "Feature", "tippecanoe": { "layer": "2AFCA0BEE0801583917195766", "minzoom": 2, "maxzoom": 8 }, "properties": { "halo": 1.8, "title": "俄玉邦噶", "fontsize": 12, "tyid": "304000", "oid": "103:1576575161987", "color": "#0056E7" }, "geometry": { "type": "Point", "coordinates": [ 92.548828, 29.152161 ] } }
{ "type": "Feature", "tippecanoe": { "layer": "2AFCA0BEE0801583917195766", "minzoom": 2, "maxzoom": 8 }, "properties": { "halo": 1.8, "title": "娘", "fontsize": 12, "tyid": "304000", "oid": "103:1576575161912", "color": "#0056E7" }, "geometry": { "type": "Point", "coordinates": [ 93.339844, 29.916852 ] } }
{ "type": "Feature", "tippecanoe": { "layer": "2AFCA0BEE0801583917195766", "minzoom": 2, "maxzoom": 8 }, "properties": { "halo": 1.8, "title": "贡", "fontsize": 12, "tyid": "304000", "oid": "103:1576575162108", "color": "#0056E7" }, "geometry": { "type": "Point", "coordinates": [ 94.482422, 29.688053 ] } }
{ "type": "Feature", "tippecanoe": { "layer": "2AFCA0BEE0801583917195766", "minzoom": 2, "maxzoom": 8 }, "properties": { "halo": 1.8, "title": "达", "fontsize": 12, "tyid": "304000", "oid": "103:1576575161891", "color": "#0056E7" }, "geometry": { "type": "Point", "coordinates": [ 93.603516, 29.152161 ] } }
{ "type": "Feature", "tippecanoe": { "layer": "2AFCA0BEE0801583917195766", "minzoom": 2, "maxzoom": 8 }, "properties": { "halo": 1.8, "title": "狼牙脩国", "fontsize": 12, "tyid": "304000", "oid": "103:1576575161962", "color": "#0056E7" }, "geometry": { "type": "Point", "coordinates": [ 100.810547, 6.140555 ] } }
{ "type": "Feature", "tippecanoe": { "layer": "2AFCA0BEE0801583917195766", "minzoom": 2, "maxzoom": 8 }, "properties": { "halo": 1.8, "title": "刚迦王国", "fontsize": 12, "tyid": "304000", "oid": "103:1576575162105", "color": "#0056E7" }, "geometry": { "type": "Point", "coordinates": [ 101.074219, 4.828260 ] } }
{ "type": "Feature", "tippecanoe": { "layer": "2AFCA0BEE0801583917195766", "minzoom": 2, "maxzoom": 8 }, "properties": { "halo": 1.6, "title": "石坛文化", "fontsize": 12, "tyid": "304002", "oid": "103:1576575161980", "color": "#0056E7" }, "geometry": { "type": "Point", "coordinates": [ 103.359375, 19.559790 ] } }
{ "type": "Feature", "tippecanoe": { "layer": "2AFCA0BEE0801583917195766", "minzoom": 2, "maxzoom": 8 }, "properties": { "halo": 1.6, "title": "番仔园文化", "fontsize": 12, "tyid": "304002", "oid": "103:1576575162329", "color": "#0056E7" }, "geometry": { "type": "Point", "coordinates": [ 120.673828, 24.287027 ] } }
{ "type": "Feature", "tippecanoe": { "layer": "2AFCA0BEE0801583917195766", "minzoom": 2, "maxzoom": 8 }, "properties": { "halo": 1.6, "title": "茑松文化", "fontsize": 12, "tyid": "304002", "oid": "103:1576575162328", "color": "#0056E7" }, "geometry": { "type": "Point", "coordinates": [ 120.322266, 23.079732 ] } }
{ "type": "Feature", "tippecanoe": { "layer": "2AFCA0BEE0801583917195766", "minzoom": 2, "maxzoom": 8 }, "properties": { "halo": 1.6, "title": "龟山文化", "fontsize": 12, "tyid": "304002", "oid": "103:1576575162008", "color": "#0056E7" }, "geometry": { "type": "Point", "coordinates": [ 120.673828, 22.512557 ] } }
{ "type": "Feature", "tippecanoe": { "layer": "2AFCA0BEE0801583917195766", "minzoom": 2, "maxzoom": 8 }, "properties": { "halo": 1.6, "title": "十三行文化", "fontsize": 12, "tyid": "304002", "oid": "103:1576575162011", "color": "#0056E7" }, "geometry": { "type": "Point", "coordinates": [ 121.376953, 24.846565 ] } }
{ "type": "Feature", "tippecanoe": { "layer": "2AFCA0BEE0801583917195766", "minzoom": 2, "maxzoom": 8 }, "properties": { "halo": 1.6, "title": "静浦文化", "fontsize": 12, "tyid": "304002", "oid": "103:1576575162009", "color": "#0056E7" }, "geometry": { "type": "Point", "coordinates": [ 121.025391, 22.917923 ] } }
{ "type": "Feature", "tippecanoe": { "layer": "2AFCA0BEE0801583917195766", "minzoom": 2, "maxzoom": 8 }, "properties": { "halo": 1.8, "title": "百济", "fontsize": 12, "tyid": "304000", "oid": "103:1576575162180", "color": "#0056E7" }, "geometry": { "type": "Point", "coordinates": [ 127.089844, 37.300275 ] } }
{ "type": "Feature", "tippecanoe": { "layer": "2AFCA0BEE0801583917195766", "minzoom": 2, "maxzoom": 8 }, "properties": { "halo": 1.8, "title": "耽罗国", "fontsize": 12, "tyid": "304000", "oid": "103:1576575161991", "color": "#0056E7" }, "geometry": { "type": "Point", "coordinates": [ 126.474609, 33.431441 ] } }
{ "type": "Feature", "tippecanoe": { "layer": "2AFCA0BEE0801583917195766", "minzoom": 2, "maxzoom": 8 }, "properties": { "halo": 1.6, "title": "弁韩", "fontsize": 12, "tyid": "304001", "oid": "103:1576575162213", "color": "#0056E7" }, "geometry": { "type": "Point", "coordinates": [ 127.968750, 35.317366 ] } }
{ "type": "Feature", "tippecanoe": { "layer": "2AFCA0BEE0801583917195766", "minzoom": 2, "maxzoom": 8 }, "properties": { "halo": 1.8, "title": "伽倻", "fontsize": 12, "tyid": "304000", "oid": "103:1576575161900", "color": "#0056E7" }, "geometry": { "type": "Point", "coordinates": [ 128.847656, 35.245619 ] } }
{ "type": "Feature", "tippecanoe": { "layer": "2AFCA0BEE0801583917195766", "minzoom": 2, "maxzoom": 8 }, "properties": { "halo": 1.8, "title": "对马国", "fontsize": 12, "tyid": "304000", "oid": "103:1576575162192", "color": "#0056E7" }, "geometry": { "type": "Point", "coordinates": [ 129.287109, 34.524661 ] } }
{ "type": "Feature", "tippecanoe": { "layer": "2AFCA0BEE0801583917195766", "minzoom": 2, "maxzoom": 8 }, "properties": { "halo": 1.8, "title": "一支国", "fontsize": 12, "tyid": "304000", "oid": "103:1576575161889", "color": "#0056E7" }, "geometry": { "type": "Point", "coordinates": [ 129.638672, 33.797409 ] } }
{ "type": "Feature", "tippecanoe": { "layer": "2AFCA0BEE0801583917195766", "minzoom": 2, "maxzoom": 8 }, "properties": { "halo": 1.8, "title": "末卢国", "fontsize": 12, "tyid": "304000", "oid": "103:1576575161973", "color": "#0056E7" }, "geometry": { "type": "Point", "coordinates": [ 129.902344, 33.431441 ] } }
{ "type": "Feature", "tippecanoe": { "layer": "2AFCA0BEE0801583917195766", "minzoom": 2, "maxzoom": 8 }, "properties": { "halo": 1.8, "title": "伊都国", "fontsize": 12, "tyid": "304000", "oid": "103:1576575161909", "color": "#0056E7" }, "geometry": { "type": "Point", "coordinates": [ 130.166016, 33.578015 ] } }
{ "type": "Feature", "tippecanoe": { "layer": "2AFCA0BEE0801583917195766", "minzoom": 2, "maxzoom": 8 }, "properties": { "halo": 1.8, "title": "奴国", "fontsize": 12, "tyid": "304000", "oid": "103:1576575162303", "color": "#0056E7" }, "geometry": { "type": "Point", "coordinates": [ 130.605469, 33.724340 ] } }
{ "type": "Feature", "tippecanoe": { "layer": "2AFCA0BEE0801583917195766", "minzoom": 2, "maxzoom": 8 }, "properties": { "halo": 1.8, "title": "不弥国", "fontsize": 12, "tyid": "304000", "oid": "103:1576575162188", "color": "#0056E7" }, "geometry": { "type": "Point", "coordinates": [ 130.957031, 33.651208 ] } }
{ "type": "Feature", "tippecanoe": { "layer": "2AFCA0BEE0801583917195766", "minzoom": 2, "maxzoom": 8 }, "properties": { "halo": 1.8, "title": "邪马台国", "fontsize": 12, "tyid": "304000", "oid": "103:1576575161876", "color": "#0056E7" }, "geometry": { "type": "Point", "coordinates": [ 130.869141, 33.137551 ] } }
{ "type": "Feature", "tippecanoe": { "layer": "2AFCA0BEE0801583917195766", "minzoom": 2, "maxzoom": 8 }, "properties": { "halo": 1.8, "title": "投马国", "fontsize": 12, "tyid": "304000", "oid": "103:1576575162315", "color": "#0056E7" }, "geometry": { "type": "Point", "coordinates": [ 131.220703, 32.249974 ] } }
{ "type": "Feature", "tippecanoe": { "layer": "2AFCA0BEE0801583917195766", "minzoom": 2, "maxzoom": 8 }, "properties": { "halo": 1.8, "title": "狗奴国", "fontsize": 12, "tyid": "304000", "oid": "103:1576575161986", "color": "#0056E7" }, "geometry": { "type": "Point", "coordinates": [ 130.605469, 31.952162 ] } }
{ "type": "Feature", "tippecanoe": { "layer": "2AFCA0BEE0801583917195766", "minzoom": 2, "maxzoom": 8 }, "properties": { "halo": 1.6, "title": "尼格利陀人", "fontsize": 12, "tyid": "304001", "oid": "103:1576575162205", "color": "#0056E7" }, "geometry": { "type": "Point", "coordinates": [ 122.431641, 11.264612 ] } }
{ "type": "Feature", "tippecanoe": { "layer": "2AFCA0BEE0801583917195766", "minzoom": 2, "maxzoom": 8 }, "properties": { "halo": 1.6, "title": "托雷斯海峡岛民", "fontsize": 12, "tyid": "304001", "oid": "103:1576575161964", "color": "#0056E7" }, "geometry": { "type": "Point", "coordinates": [ 142.382812, -11.264612 ] } }
{ "type": "Feature", "tippecanoe": { "layer": "2AFCA0BEE7F01583917195777", "minzoom": 2, "maxzoom": 8 }, "properties": { "halo": 1.6, "title": "拉霍亚文化", "fontsize": 12, "tyid": "304002", "oid": "103:1576575162004", "color": "#0056E7" }, "geometry": { "type": "Point", "coordinates": [ -118.916016, 34.597042 ] } }
{ "type": "Feature", "tippecanoe": { "layer": "2AFCA0BEE7F01583917195777", "minzoom": 2, "maxzoom": 8 }, "properties": { "halo": 1.6, "title": "维珍阿纳萨齐人", "fontsize": 12, "tyid": "304001", "oid": "103:1576575162041", "color": "#0056E7" }, "geometry": { "type": "Point", "coordinates": [ -113.818359, 36.879621 ] } }
{ "type": "Feature", "tippecanoe": { "layer": "2AFCA0BEE7F01583917195777", "minzoom": 2, "maxzoom": 8 }, "properties": { "halo": 1.6, "title": "弗里蒙特文化", "fontsize": 12, "tyid": "304002", "oid": "103:1576575162051", "color": "#0056E7" }, "geometry": { "type": "Point", "coordinates": [ -111.533203, 38.134557 ] } }
{ "type": "Feature", "tippecanoe": { "layer": "2AFCA0BEE7F01583917195777", "minzoom": 2, "maxzoom": 8 }, "properties": { "halo": 1.6, "title": "奥沙拉文化", "fontsize": 12, "tyid": "304002", "oid": "103:1576575162118", "color": "#0056E7" }, "geometry": { "type": "Point", "coordinates": [ -107.841797, 37.509726 ] } }
{ "type": "Feature", "tippecanoe": { "layer": "2AFCA0BEE7F01583917195777", "minzoom": 2, "maxzoom": 8 }, "properties": { "halo": 1.6, "title": "古普韦布洛人", "fontsize": 12, "tyid": "304001", "oid": "103:1576575162211", "color": "#0056E7" }, "geometry": { "type": "Point", "coordinates": [ -109.951172, 36.527295 ] } }
{ "type": "Feature", "tippecanoe": { "layer": "2AFCA0BEE7F01583917195777", "minzoom": 2, "maxzoom": 8 }, "properties": { "halo": 1.6, "title": "奇瓦瓦文化", "fontsize": 12, "tyid": "304002", "oid": "103:1576575162183", "color": "#0056E7" }, "geometry": { "type": "Point", "coordinates": [ -107.226562, 32.768800 ] } }
{ "type": "Feature", "tippecanoe": { "layer": "2AFCA0BEE7F01583917195777", "minzoom": 2, "maxzoom": 8 }, "properties": { "halo": 1.6, "title": "瓜伊库拉人", "fontsize": 12, "tyid": "304001", "oid": "103:1576575161976", "color": "#0056E7" }, "geometry": { "type": "Point", "coordinates": [ -111.269531, 24.846565 ] } }
{ "type": "Feature", "tippecanoe": { "layer": "2AFCA0BEE7F01583917195777", "minzoom": 2, "maxzoom": 8 }, "properties": { "halo": 1.6, "title": "堪萨斯城霍普韦尔文化", "fontsize": 12, "tyid": "304002", "oid": "103:1576575162318", "color": "#0056E7" }, "geometry": { "type": "Point", "coordinates": [ -94.042969, 39.027719 ] } }
{ "type": "Feature", "tippecanoe": { "layer": "2AFCA0BEE7F01583917195777", "minzoom": 2, "maxzoom": 8 }, "properties": { "halo": 1.6, "title": "哈瓦那霍普韦尔文化", "fontsize": 12, "tyid": "304002", "oid": "103:1576575162160", "color": "#0056E7" }, "geometry": { "type": "Point", "coordinates": [ -91.054688, 40.446947 ] } }
{ "type": "Feature", "tippecanoe": { "layer": "2AFCA0BEE7F01583917195777", "minzoom": 2, "maxzoom": 8 }, "properties": { "halo": 1.6, "title": "喀多语密西西比文化", "fontsize": 12, "tyid": "304002", "oid": "103:1576575161995", "color": "#0056E7" }, "geometry": { "type": "Point", "coordinates": [ -94.482422, 35.960223 ] } }
{ "type": "Feature", "tippecanoe": { "layer": "2AFCA0BEE7F01583917195777", "minzoom": 2, "maxzoom": 8 }, "properties": { "halo": 1.6, "title": "福切马里尼文化", "fontsize": 12, "tyid": "304002", "oid": "103:1576575161907", "color": "#0056E7" }, "geometry": { "type": "Point", "coordinates": [ -94.306641, 33.358062 ] } }
{ "type": "Feature", "tippecanoe": { "layer": "2AFCA0BEE7F01583917195777", "minzoom": 2, "maxzoom": 8 }, "properties": { "halo": 1.6, "title": "华斯塔克文明", "fontsize": 12, "tyid": "304002", "oid": "103:1576575161998", "color": "#0056E7" }, "geometry": { "type": "Point", "coordinates": [ -98.613281, 22.105999 ] } }
{ "type": "Feature", "tippecanoe": { "layer": "2AFCA0BEE7F01583917195777", "minzoom": 2, "maxzoom": 8 }, "properties": { "halo": 1.6, "title": "奇蒂玛察人", "fontsize": 12, "tyid": "304001", "oid": "103:1576575162214", "color": "#0056E7" }, "geometry": { "type": "Point", "coordinates": [ -91.230469, 30.902225 ] } }
{ "type": "Feature", "tippecanoe": { "layer": "2AFCA0BEE7F01583917195777", "minzoom": 2, "maxzoom": 8 }, "properties": { "halo": 1.6, "title": "马克斯维尔文化", "fontsize": 12, "tyid": "304002", "oid": "103:1576575161879", "color": "#0056E7" }, "geometry": { "type": "Point", "coordinates": [ -90.878906, 29.764377 ] } }
{ "type": "Feature", "tippecanoe": { "layer": "2AFCA0BEE7F01583917195777", "minzoom": 2, "maxzoom": 8 }, "properties": { "halo": 1.6, "title": "萨波特克文明", "fontsize": 12, "tyid": "304002", "oid": "103:1576575162165", "color": "#0056E7" }, "geometry": { "type": "Point", "coordinates": [ -96.064453, 16.636192 ] } }
{ "type": "Feature", "tippecanoe": { "layer": "2AFCA0BEE7F01583917195777", "minzoom": 2, "maxzoom": 8 }, "properties": { "halo": 1.6, "title": "古德尔文化", "fontsize": 12, "tyid": "304002", "oid": "103:1576575161966", "color": "#0056E7" }, "geometry": { "type": "Point", "coordinates": [ -85.869141, 43.133061 ] } }
{ "type": "Feature", "tippecanoe": { "layer": "2AFCA0BEE7F01583917195777", "minzoom": 2, "maxzoom": 8 }, "properties": { "halo": 1.6, "title": "索根文化", "fontsize": 12, "tyid": "304002", "oid": "103:1576575162325", "color": "#0056E7" }, "geometry": { "type": "Point", "coordinates": [ -81.298828, 43.707594 ] } }
{ "type": "Feature", "tippecanoe": { "layer": "2AFCA0BEE7F01583917195777", "minzoom": 2, "maxzoom": 8 }, "properties": { "halo": 1.6, "title": "蟹园文化", "fontsize": 12, "tyid": "304002", "oid": "103:1576575162229", "color": "#0056E7" }, "geometry": { "type": "Point", "coordinates": [ -88.066406, 37.718590 ] } }
{ "type": "Feature", "tippecanoe": { "layer": "2AFCA0BEE7F01583917195777", "minzoom": 2, "maxzoom": 8 }, "properties": { "halo": 1.6, "title": "俄亥俄霍普韦尔文化", "fontsize": 12, "tyid": "304002", "oid": "103:1576575162195", "color": "#0056E7" }, "geometry": { "type": "Point", "coordinates": [ -83.056641, 39.774769 ] } }
{ "type": "Feature", "tippecanoe": { "layer": "2AFCA0BEE7F01583917195777", "minzoom": 2, "maxzoom": 8 }, "properties": { "halo": 1.6, "title": "阿姆斯特朗文化", "fontsize": 12, "tyid": "304002", "oid": "103:1576575162164", "color": "#0056E7" }, "geometry": { "type": "Point", "coordinates": [ -82.968750, 38.134557 ] } }
{ "type": "Feature", "tippecanoe": { "layer": "2AFCA0BEE7F01583917195777", "minzoom": 2, "maxzoom": 8 }, "properties": { "halo": 1.6, "title": "德普特福德文化", "fontsize": 12, "tyid": "304002", "oid": "103:1576575162311", "color": "#0056E7" }, "geometry": { "type": "Point", "coordinates": [ -79.628906, 33.431441 ] } }
{ "type": "Feature", "tippecanoe": { "layer": "2AFCA0BEE7F01583917195777", "minzoom": 2, "maxzoom": 8 }, "properties": { "halo": 1.6, "title": "圣罗莎-斯威夫特溪文化", "fontsize": 12, "tyid": "304002", "oid": "103:1576575162146", "color": "#0056E7" }, "geometry": { "type": "Point", "coordinates": [ -86.396484, 30.902225 ] } }
{ "type": "Feature", "tippecanoe": { "layer": "2AFCA0BEE7F01583917195777", "minzoom": 2, "maxzoom": 8 }, "properties": { "halo": 1.6, "title": "斯威夫特溪文化", "fontsize": 12, "tyid": "304002", "oid": "103:1576575161868", "color": "#0056E7" }, "geometry": { "type": "Point", "coordinates": [ -84.111328, 31.428663 ] } }
{ "type": "Feature", "tippecanoe": { "layer": "2AFCA0BEE7F01583917195777", "minzoom": 2, "maxzoom": 8 }, "properties": { "halo": 1.6, "title": "玛雅文明[前古典时期]", "fontsize": 12, "tyid": "304002", "oid": "103:1576575161831", "color": "#0056E7" }, "geometry": { "type": "Point", "coordinates": [ -89.296875, 17.056785 ] } }
{ "type": "Feature", "tippecanoe": { "layer": "2AFCA0BEE7F01583917195777", "minzoom": 2, "maxzoom": 8 }, "properties": { "halo": 1.6, "title": "兹努文化", "fontsize": 12, "tyid": "304002", "oid": "103:1576575162020", "color": "#0056E7" }, "geometry": { "type": "Point", "coordinates": [ -75.585938, 8.581021 ] } }
{ "type": "Feature", "tippecanoe": { "layer": "2AFCA0BEE7F01583917195777", "minzoom": 2, "maxzoom": 8 }, "properties": { "halo": 1.6, "title": "埃雷拉时期", "fontsize": 12, "tyid": "304002", "oid": "103:1576575162301", "color": "#0056E7" }, "geometry": { "type": "Point", "coordinates": [ -73.476562, 5.441022 ] } }
{ "type": "Feature", "tippecanoe": { "layer": "2AFCA0BEE7F01583917195777", "minzoom": 2, "maxzoom": 8 }, "properties": { "halo": 1.6, "title": "伊奈里人", "fontsize": 12, "tyid": "304001", "oid": "103:1576575162006", "color": "#0056E7" }, "geometry": { "type": "Point", "coordinates": [ -61.787109, 8.754795 ] } }
{ "type": "Feature", "tippecanoe": { "layer": "2AFCA0BEE7F01583917195777", "minzoom": 2, "maxzoom": 8 }, "properties": { "halo": 1.6, "title": "喀里多尼亚人", "fontsize": 12, "tyid": "304001", "oid": "103:1576575162285", "color": "#0056E7" }, "geometry": { "type": "Point", "coordinates": [ -4.042969, 56.992883 ] } }
{ "type": "Feature", "tippecanoe": { "layer": "2AFCA0BEE7F01583917195777", "minzoom": 2, "maxzoom": 8 }, "properties": { "halo": 1.6, "title": "盖尔人", "fontsize": 12, "tyid": "304001", "oid": "103:1576575161944", "color": "#0056E7" }, "geometry": { "type": "Point", "coordinates": [ -9.228516, 52.052490 ] } }
{ "type": "Feature", "tippecanoe": { "layer": "2AFCA0BEE7F01583917195777", "minzoom": 2, "maxzoom": 8 }, "properties": { "halo": 1.8, "title": "沃塔迪尼人", "fontsize": 12, "tyid": "304000", "oid": "103:1576575162283", "color": "#0056E7" }, "geometry": { "type": "Point", "coordinates": [ -3.164062, 55.528631 ] } }
{ "type": "Feature", "tippecanoe": { "layer": "2AFCA0BEE7F01583917195777", "minzoom": 2, "maxzoom": 8 }, "properties": { "halo": 1.6, "title": "杰内-杰诺文化二期", "fontsize": 12, "tyid": "304002", "oid": "103:1576575161983", "color": "#0056E7" }, "geometry": { "type": "Point", "coordinates": [ -5.097656, 13.752725 ] } }
{ "type": "Feature", "tippecanoe": { "layer": "2AFCA0BEE7F01583917195777", "minzoom": 2, "maxzoom": 8 }, "properties": { "halo": 1.6, "title": "楚真文化", "fontsize": 12, "tyid": "304002", "oid": "103:1576575162308", "color": "#0056E7" }, "geometry": { "type": "Point", "coordinates": [ -70.576172, -16.299051 ] } }
{ "type": "Feature", "tippecanoe": { "layer": "2AFCA0BEE7F01583917195777", "minzoom": 2, "maxzoom": 8 }, "properties": { "halo": 1.6, "title": "普加拉文化", "fontsize": 12, "tyid": "304002", "oid": "103:1576575162022", "color": "#0056E7" }, "geometry": { "type": "Point", "coordinates": [ -69.697266, -13.838080 ] } }
{ "type": "Feature", "tippecanoe": { "layer": "2AFCA0BEE7F01583917195777", "minzoom": 2, "maxzoom": 8 }, "properties": { "halo": 1.6, "title": "艾马拉人", "fontsize": 12, "tyid": "304001", "oid": "103:1576575162140", "color": "#0056E7" }, "geometry": { "type": "Point", "coordinates": [ -68.291016, -17.224758 ] } }
{ "type": "Feature", "tippecanoe": { "layer": "2AFCA0BEE7F01583917195777", "minzoom": 2, "maxzoom": 8 }, "properties": { "halo": 1.6, "title": "昌戈人", "fontsize": 12, "tyid": "304001", "oid": "103:1576575161856", "color": "#0056E7" }, "geometry": { "type": "Point", "coordinates": [ -69.960938, -23.725012 ] } }
{ "type": "Feature", "tippecanoe": { "layer": "2AFCA0BEE7F01583917195777", "minzoom": 2, "maxzoom": 8 }, "properties": { "halo": 1.6, "title": "阿拉米托文化", "fontsize": 12, "tyid": "304002", "oid": "103:1576575162169", "color": "#0056E7" }, "geometry": { "type": "Point", "coordinates": [ -67.851562, -26.588527 ] } }
{ "type": "Feature", "tippecanoe": { "layer": "2AFCA0BEE7F01583917195777", "minzoom": 2, "maxzoom": 8 }, "properties": { "halo": 1.6, "title": "埃尔莫尔文化", "fontsize": 12, "tyid": "304002", "oid": "103:1576575162028", "color": "#0056E7" }, "geometry": { "type": "Point", "coordinates": [ -70.927734, -30.675715 ] } }
{ "type": "Feature", "tippecanoe": { "layer": "2AFCA0BEE7F01583917195777", "minzoom": 2, "maxzoom": 8 }, "properties": { "halo": 1.6, "title": "安西尔塔文化", "fontsize": 12, "tyid": "304002", "oid": "103:1576575161938", "color": "#0056E7" }, "geometry": { "type": "Point", "coordinates": [ -68.818359, -31.353637 ] } }
{ "type": "Feature", "tippecanoe": { "layer": "2AFCA0BEE7F01583917195777", "minzoom": 2, "maxzoom": 8 }, "properties": { "halo": 1.6, "title": "巴托文化", "fontsize": 12, "tyid": "304002", "oid": "103:1576575161881", "color": "#0056E7" }, "geometry": { "type": "Point", "coordinates": [ -70.839844, -33.431441 ] } }
{ "type": "Feature", "tippecanoe": { "layer": "2AFCA0BEE7F01583917195777", "minzoom": 2, "maxzoom": 8 }, "properties": { "halo": 1.6, "title": "马普切人", "fontsize": 12, "tyid": "304001", "oid": "103:1576575162076", "color": "#0056E7" }, "geometry": { "type": "Point", "coordinates": [ -71.455078, -38.959409 ] } }
{ "type": "Feature", "tippecanoe": { "layer": "2AFCA0BEE7F01583917195777", "minzoom": 2, "maxzoom": 8 }, "properties": { "halo": 1.6, "title": "希德拉里卡文化", "fontsize": 12, "tyid": "304002", "oid": "103:1576575162210", "color": "#0056E7" }, "geometry": { "type": "Point", "coordinates": [ -66.005859, -12.297068 ] } }
{ "type": "Feature", "tippecanoe": { "layer": "2AFCA0BEE7F01583917195777", "minzoom": 2, "maxzoom": 8 }, "properties": { "halo": 1.6, "title": "摩克索人", "fontsize": 12, "tyid": "304001", "oid": "103:1576575161963", "color": "#0056E7" }, "geometry": { "type": "Point", "coordinates": [ -65.830078, -13.923404 ] } }
{ "type": "Feature", "tippecanoe": { "layer": "2AFCA0BEE7F01583917195777", "minzoom": 2, "maxzoom": 8 }, "properties": { "halo": 1.6, "title": "瓦卡拉尼文化", "fontsize": 12, "tyid": "304002", "oid": "103:1576575161903", "color": "#0056E7" }, "geometry": { "type": "Point", "coordinates": [ -64.951172, -17.811456 ] } }
{ "type": "Feature", "tippecanoe": { "layer": "2AFCA0BEE7F01583917195777", "minzoom": 2, "maxzoom": 8 }, "properties": { "halo": 1.6, "title": "康多拉瓦西文化", "fontsize": 12, "tyid": "304002", "oid": "103:1576575162184", "color": "#0056E7" }, "geometry": { "type": "Point", "coordinates": [ -66.708984, -27.293689 ] } }
{ "type": "Feature", "tippecanoe": { "layer": "2AFCA0BEE7F01583917195777", "minzoom": 2, "maxzoom": 8 }, "properties": { "halo": 1.6, "title": "拉斯梅塞德斯文化", "fontsize": 12, "tyid": "304002", "oid": "103:1576575162307", "color": "#0056E7" }, "geometry": { "type": "Point", "coordinates": [ -63.808594, -27.605671 ] } }
{ "type": "Feature", "tippecanoe": { "layer": "2AFCA0BEE7F01583917195777", "minzoom": 2, "maxzoom": 8 }, "properties": { "halo": 1.6, "title": "查鲁亚人", "fontsize": 12, "tyid": "304001", "oid": "103:1576575162186", "color": "#0056E7" }, "geometry": { "type": "Point", "coordinates": [ -57.128906, -32.398516 ] } }
{ "type": "Feature", "tippecanoe": { "layer": "2AFCA0BEE7F01583917195777", "minzoom": 2, "maxzoom": 8 }, "properties": { "halo": 1.6, "title": "特胡尔切人", "fontsize": 12, "tyid": "304001", "oid": "103:1576575161960", "color": "#0056E7" }, "geometry": { "type": "Point", "coordinates": [ -70.751953, -50.176898 ] } }
{ "type": "Feature", "tippecanoe": { "layer": "2AFCA0BEE7F01583917195777", "minzoom": 2, "maxzoom": 8 }, "properties": { "halo": 1.6, "title": "塞尔克南人", "fontsize": 12, "tyid": "304001", "oid": "103:1576575162193", "color": "#0056E7" }, "geometry": { "type": "Point", "coordinates": [ -68.378906, -53.696706 ] } }
{ "type": "Feature", "tippecanoe": { "layer": "2AFCA0BEE7F01583917195777", "minzoom": 2, "maxzoom": 8 }, "properties": { "halo": 1.6, "title": "雅干人", "fontsize": 12, "tyid": "304001", "oid": "103:1576575162290", "color": "#0056E7" }, "geometry": { "type": "Point", "coordinates": [ -68.554688, -54.521081 ] } }
{ "type": "Feature", "tippecanoe": { "layer": "2AFCA0BEE7F01583917195777", "minzoom": 2, "maxzoom": 8 }, "properties": { "halo": 1.6, "title": "朱特人", "fontsize": 12, "tyid": "304001", "oid": "103:1576575162130", "color": "#0056E7" }, "geometry": { "type": "Point", "coordinates": [ 9.316406, 56.267761 ] } }
{ "type": "Feature", "tippecanoe": { "layer": "2AFCA0BEE7F01583917195777", "minzoom": 2, "maxzoom": 8 }, "properties": { "halo": 1.6, "title": "耶阿特人", "fontsize": 12, "tyid": "304001", "oid": "103:1576575162171", "color": "#0056E7" }, "geometry": { "type": "Point", "coordinates": [ 13.710938, 57.657158 ] } }
{ "type": "Feature", "tippecanoe": { "layer": "2AFCA0BEE7F01583917195777", "minzoom": 2, "maxzoom": 8 }, "properties": { "halo": 1.6, "title": "赫鲁利人", "fontsize": 12, "tyid": "304001", "oid": "103:1576575162115", "color": "#0056E7" }, "geometry": { "type": "Point", "coordinates": [ 13.447266, 55.875311 ] } }
{ "type": "Feature", "tippecanoe": { "layer": "2AFCA0BEE7F01583917195777", "minzoom": 2, "maxzoom": 8 }, "properties": { "halo": 1.6, "title": "乔西人", "fontsize": 12, "tyid": "304001", "oid": "103:1576575162089", "color": "#0056E7" }, "geometry": { "type": "Point", "coordinates": [ 8.613281, 53.120405 ] } }
{ "type": "Feature", "tippecanoe": { "layer": "2AFCA0BEE7F01583917195777", "minzoom": 2, "maxzoom": 8 }, "properties": { "halo": 1.6, "title": "切鲁西人", "fontsize": 12, "tyid": "304001", "oid": "103:1576575162092", "color": "#0056E7" }, "geometry": { "type": "Point", "coordinates": [ 10.634766, 52.429222 ] } }
{ "type": "Feature", "tippecanoe": { "layer": "2AFCA0BEE7F01583917195777", "minzoom": 2, "maxzoom": 8 }, "properties": { "halo": 1.6, "title": "查蒂人", "fontsize": 12, "tyid": "304001", "oid": "103:1576575162291", "color": "#0056E7" }, "geometry": { "type": "Point", "coordinates": [ 8.964844, 50.736455 ] } }
{ "type": "Feature", "tippecanoe": { "layer": "2AFCA0BEE7F01583917195777", "minzoom": 2, "maxzoom": 8 }, "properties": { "halo": 1.6, "title": "赫门杜里人", "fontsize": 12, "tyid": "304001", "oid": "103:1576575162279", "color": "#0056E7" }, "geometry": { "type": "Point", "coordinates": [ 11.162109, 50.345460 ] } }
{ "type": "Feature", "tippecanoe": { "layer": "2AFCA0BEE7F01583917195777", "minzoom": 2, "maxzoom": 8 }, "properties": { "halo": 1.6, "title": "伦巴第人", "fontsize": 12, "tyid": "304001", "oid": "103:1576575162088", "color": "#0056E7" }, "geometry": { "type": "Point", "coordinates": [ 12.656250, 53.540307 ] } }
{ "type": "Feature", "tippecanoe": { "layer": "2AFCA0BEE7F01583917195777", "minzoom": 2, "maxzoom": 8 }, "properties": { "halo": 1.6, "title": "鲁基人", "fontsize": 12, "tyid": "304001", "oid": "103:1576575162257", "color": "#0056E7" }, "geometry": { "type": "Point", "coordinates": [ 16.611328, 53.748711 ] } }
{ "type": "Feature", "tippecanoe": { "layer": "2AFCA0BEE7F01583917195777", "minzoom": 2, "maxzoom": 8 }, "properties": { "halo": 1.6, "title": "苏维汇人", "fontsize": 12, "tyid": "304001", "oid": "103:1576575162292", "color": "#0056E7" }, "geometry": { "type": "Point", "coordinates": [ 13.271484, 51.672555 ] } }
{ "type": "Feature", "tippecanoe": { "layer": "2AFCA0BEE7F01583917195777", "minzoom": 2, "maxzoom": 8 }, "properties": { "halo": 1.6, "title": "马科曼尼人", "fontsize": 12, "tyid": "304001", "oid": "103:1576575162289", "color": "#0056E7" }, "geometry": { "type": "Point", "coordinates": [ 14.501953, 49.610710 ] } }
{ "type": "Feature", "tippecanoe": { "layer": "2AFCA0BEE7F01583917195777", "minzoom": 2, "maxzoom": 8 }, "properties": { "halo": 1.6, "title": "格皮德人", "fontsize": 12, "tyid": "304001", "oid": "103:1576575162078", "color": "#0056E7" }, "geometry": { "type": "Point", "coordinates": [ 19.687500, 53.278353 ] } }
{ "type": "Feature", "tippecanoe": { "layer": "2AFCA0BEE7F01583917195777", "minzoom": 2, "maxzoom": 8 }, "properties": { "halo": 1.6, "title": "勃艮第人", "fontsize": 12, "tyid": "304001", "oid": "103:1576575162090", "color": "#0056E7" }, "geometry": { "type": "Point", "coordinates": [ 17.929688, 52.375599 ] } }
{ "type": "Feature", "tippecanoe": { "layer": "2AFCA0BEE7F01583917195777", "minzoom": 2, "maxzoom": 8 }, "properties": { "halo": 1.6, "title": "西林吉人", "fontsize": 12, "tyid": "304001", "oid": "103:1576575162094", "color": "#0056E7" }, "geometry": { "type": "Point", "coordinates": [ 17.490234, 50.736455 ] } }
{ "type": "Feature", "tippecanoe": { "layer": "2AFCA0BEE7F01583917195777", "minzoom": 2, "maxzoom": 8 }, "properties": { "halo": 1.6, "title": "卢基人", "fontsize": 12, "tyid": "304001", "oid": "103:1576575162255", "color": "#0056E7" }, "geometry": { "type": "Point", "coordinates": [ 20.390625, 50.958427 ] } }
{ "type": "Feature", "tippecanoe": { "layer": "2AFCA0BEE7F01583917195777", "minzoom": 2, "maxzoom": 8 }, "properties": { "halo": 1.6, "title": "哥蒂尼人", "fontsize": 12, "tyid": "304001", "oid": "103:1576575162133", "color": "#0056E7" }, "geometry": { "type": "Point", "coordinates": [ 21.796875, 49.210420 ] } }
{ "type": "Feature", "tippecanoe": { "layer": "2AFCA0BEE7F01583917195777", "minzoom": 2, "maxzoom": 8 }, "properties": { "halo": 1.6, "title": "夸迪人", "fontsize": 12, "tyid": "304001", "oid": "103:1576575162069", "color": "#0056E7" }, "geometry": { "type": "Point", "coordinates": [ 18.369141, 48.864715 ] } }
{ "type": "Feature", "tippecanoe": { "layer": "2AFCA0BEE7F01583917195777", "minzoom": 2, "maxzoom": 8 }, "properties": { "halo": 1.6, "title": "埃阿热格人", "fontsize": 12, "tyid": "304001", "oid": "103:1576575162083", "color": "#0056E7" }, "geometry": { "type": "Point", "coordinates": [ 20.566406, 47.100045 ] } }
{ "type": "Feature", "tippecanoe": { "layer": "2AFCA0BEE7F01583917195777", "minzoom": 2, "maxzoom": 8 }, "properties": { "halo": 1.6, "title": "古爱沙尼亚人", "fontsize": 12, "tyid": "304001", "oid": "103:1576575162218", "color": "#0056E7" }, "geometry": { "type": "Point", "coordinates": [ 25.576172, 58.995311 ] } }
{ "type": "Feature", "tippecanoe": { "layer": "2AFCA0BEE7F01583917195777", "minzoom": 2, "maxzoom": 8 }, "properties": { "halo": 1.6, "title": "利沃尼亚人", "fontsize": 12, "tyid": "304001", "oid": "103:1576575162227", "color": "#0056E7" }, "geometry": { "type": "Point", "coordinates": [ 25.839844, 58.170702 ] } }
{ "type": "Feature", "tippecanoe": { "layer": "2AFCA0BEE7F01583917195777", "minzoom": 2, "maxzoom": 8 }, "properties": { "halo": 1.6, "title": "古拉脱维亚人", "fontsize": 12, "tyid": "304001", "oid": "103:1576575162053", "color": "#0056E7" }, "geometry": { "type": "Point", "coordinates": [ 26.630859, 56.848972 ] } }
{ "type": "Feature", "tippecanoe": { "layer": "2AFCA0BEE7F01583917195777", "minzoom": 2, "maxzoom": 8 }, "properties": { "halo": 1.6, "title": "沃茨人", "fontsize": 12, "tyid": "304001", "oid": "103:1576575162202", "color": "#0056E7" }, "geometry": { "type": "Point", "coordinates": [ 29.794922, 59.040555 ] } }
{ "type": "Feature", "tippecanoe": { "layer": "2AFCA0BEE7F01583917195777", "minzoom": 2, "maxzoom": 8 }, "properties": { "halo": 1.6, "title": "达契亚人", "fontsize": 12, "tyid": "304001", "oid": "103:1576575162131", "color": "#0056E7" }, "geometry": { "type": "Point", "coordinates": [ 24.960938, 47.635784 ] } }
{ "type": "Feature", "tippecanoe": { "layer": "2AFCA0BEE7F01583917195777", "minzoom": 2, "maxzoom": 8 }, "properties": { "halo": 1.6, "title": "哈斯丁基人", "fontsize": 12, "tyid": "304001", "oid": "103:1576575162097", "color": "#0056E7" }, "geometry": { "type": "Point", "coordinates": [ 25.576172, 48.632909 ] } }
{ "type": "Feature", "tippecanoe": { "layer": "2AFCA0BEE7F01583917195777", "minzoom": 2, "maxzoom": 8 }, "properties": { "halo": 1.6, "title": "卡尔皮人", "fontsize": 12, "tyid": "304001", "oid": "103:1576575162286", "color": "#0056E7" }, "geometry": { "type": "Point", "coordinates": [ 27.158203, 46.860191 ] } }
{ "type": "Feature", "tippecanoe": { "layer": "2AFCA0BEE7F01583917195777", "minzoom": 2, "maxzoom": 8 }, "properties": { "halo": 1.6, "title": "巴斯塔奈人", "fontsize": 12, "tyid": "304001", "oid": "103:1576575162295", "color": "#0056E7" }, "geometry": { "type": "Point", "coordinates": [ 28.564453, 48.516604 ] } }
{ "type": "Feature", "tippecanoe": { "layer": "2AFCA0BEE7F01583917195777", "minzoom": 2, "maxzoom": 8 }, "properties": { "halo": 1.6, "title": "哥特人", "fontsize": 12, "tyid": "304001", "oid": "103:1576575162079", "color": "#0056E7" }, "geometry": { "type": "Point", "coordinates": [ 31.464844, 47.694974 ] } }
{ "type": "Feature", "tippecanoe": { "layer": "2AFCA0BEE7F01583917195777", "minzoom": 2, "maxzoom": 8 }, "properties": { "halo": 1.8, "title": "博斯普鲁斯王国", "fontsize": 12, "tyid": "304000", "oid": "103:1576575162344", "color": "#0056E7" }, "geometry": { "type": "Point", "coordinates": [ 38.144531, 45.274886 ] } }
{ "type": "Feature", "tippecanoe": { "layer": "2AFCA0BEE7F01583917195777", "minzoom": 2, "maxzoom": 8 }, "properties": { "halo": 1.6, "title": "切尔克斯人", "fontsize": 12, "tyid": "304001", "oid": "103:1576575162059", "color": "#0056E7" }, "geometry": { "type": "Point", "coordinates": [ 41.748047, 43.771094 ] } }
{ "type": "Feature", "tippecanoe": { "layer": "2AFCA0BEE7F01583917195777", "minzoom": 2, "maxzoom": 8 }, "properties": { "halo": 1.8, "title": "拉基卡王国", "fontsize": 12, "tyid": "304000", "oid": "103:1576575162336", "color": "#0056E7" }, "geometry": { "type": "Point", "coordinates": [ 42.363281, 42.423457 ] } }
{ "type": "Feature", "tippecanoe": { "layer": "2AFCA0BEE7F01583917195777", "minzoom": 2, "maxzoom": 8 }, "properties": { "halo": 1.8, "title": "高加索伊比利亚王国", "fontsize": 12, "tyid": "304000", "oid": "103:1576575162338", "color": "#0056E7" }, "geometry": { "type": "Point", "coordinates": [ 44.560547, 41.967659 ] } }
{ "type": "Feature", "tippecanoe": { "layer": "2AFCA0BEE7F01583917195777", "minzoom": 2, "maxzoom": 8 }, "properties": { "halo": 1.8, "title": "加拉曼特王国", "fontsize": 12, "tyid": "304000", "oid": "103:1576575161910", "color": "#0056E7" }, "geometry": { "type": "Point", "coordinates": [ 13.886719, 26.902477 ] } }
{ "type": "Feature", "tippecanoe": { "layer": "2AFCA0BEE7F01583917195777", "minzoom": 2, "maxzoom": 8 }, "properties": { "halo": 1.6, "title": "约鲁巴人", "fontsize": 12, "tyid": "304001", "oid": "103:1576575162231", "color": "#0056E7" }, "geometry": { "type": "Point", "coordinates": [ 3.427734, 7.536764 ] } }
{ "type": "Feature", "tippecanoe": { "layer": "2AFCA0BEE7F01583917195777", "minzoom": 2, "maxzoom": 8 }, "properties": { "halo": 1.6, "title": "伊博人", "fontsize": 12, "tyid": "304001", "oid": "103:1576575162203", "color": "#0056E7" }, "geometry": { "type": "Point", "coordinates": [ 7.998047, 5.965754 ] } }
{ "type": "Feature", "tippecanoe": { "layer": "2AFCA0BEE7F01583917195777", "minzoom": 2, "maxzoom": 8 }, "properties": { "halo": 1.8, "title": "帕尔米拉酋长国", "fontsize": 12, "tyid": "304000", "oid": "103:1576575162333", "color": "#0056E7" }, "geometry": { "type": "Point", "coordinates": [ 38.583984, 34.813803 ] } }
{ "type": "Feature", "tippecanoe": { "layer": "2AFCA0BEE7F01583917195777", "minzoom": 2, "maxzoom": 8 }, "properties": { "halo": 1.8, "title": "阿迪亚波纳王国", "fontsize": 12, "tyid": "304000", "oid": "103:1576575162339", "color": "#0056E7" }, "geometry": { "type": "Point", "coordinates": [ 43.945312, 36.597889 ] } }
{ "type": "Feature", "tippecanoe": { "layer": "2AFCA0BEE7F01583917195777", "minzoom": 2, "maxzoom": 8 }, "properties": { "halo": 1.6, "title": "瓦努拉赫姆", "fontsize": 12, "tyid": "304001", "oid": "103:1576575162137", "color": "#0056E7" }, "geometry": { "type": "Point", "coordinates": [ 43.417969, 32.546813 ] } }
{ "type": "Feature", "tippecanoe": { "layer": "2AFCA0BEE7F01583917195777", "minzoom": 2, "maxzoom": 8 }, "properties": { "halo": 1.6, "title": "布雷米耶国", "fontsize": 12, "tyid": "304001", "oid": "103:1576575162314", "color": "#0056E7" }, "geometry": { "type": "Point", "coordinates": [ 34.980469, 21.371244 ] } }
{ "type": "Feature", "tippecanoe": { "layer": "2AFCA0BEE7F01583917195777", "minzoom": 2, "maxzoom": 8 }, "properties": { "halo": 1.6, "title": "贝扎人", "fontsize": 12, "tyid": "304001", "oid": "103:1576575162056", "color": "#0056E7" }, "geometry": { "type": "Point", "coordinates": [ 35.595703, 16.299051 ] } }
{ "type": "Feature", "tippecanoe": { "layer": "2AFCA0BEE7F01583917195777", "minzoom": 2, "maxzoom": 8 }, "properties": { "halo": 1.6, "title": "赛莫德人", "fontsize": 12, "tyid": "304001", "oid": "103:1576575161916", "color": "#0056E7" }, "geometry": { "type": "Point", "coordinates": [ 42.451172, 21.779905 ] } }
{ "type": "Feature", "tippecanoe": { "layer": "2AFCA0BEE7F01583917195777", "minzoom": 2, "maxzoom": 8 }, "properties": { "halo": 1.6, "title": "巴基尔联盟", "fontsize": 12, "tyid": "304002", "oid": "103:1576575162123", "color": "#0056E7" }, "geometry": { "type": "Point", "coordinates": [ 43.505859, 15.876809 ] } }
{ "type": "Feature", "tippecanoe": { "layer": "2AFCA0BEE7F01583917195777", "minzoom": 2, "maxzoom": 8 }, "properties": { "halo": 1.6, "title": "派诺博尔斯基文化", "fontsize": 12, "tyid": "304002", "oid": "103:1576575162200", "color": "#0056E7" }, "geometry": { "type": "Point", "coordinates": [ 50.449219, 56.897004 ] } }
{ "type": "Feature", "tippecanoe": { "layer": "2AFCA0BEE7F01583917195777", "minzoom": 2, "maxzoom": 8 }, "properties": { "halo": 1.6, "title": "纳赫人", "fontsize": 12, "tyid": "304001", "oid": "103:1576575162282", "color": "#0056E7" }, "geometry": { "type": "Point", "coordinates": [ 45.878906, 42.875964 ] } }
{ "type": "Feature", "tippecanoe": { "layer": "2AFCA0BEE7F01583917195777", "minzoom": 2, "maxzoom": 8 }, "properties": { "halo": 1.6, "title": "塞迦人", "fontsize": 12, "tyid": "304001", "oid": "103:1576575162348", "color": "#0056E7" }, "geometry": { "type": "Point", "coordinates": [ 56.777344, 42.163403 ] } }
{ "type": "Feature", "tippecanoe": { "layer": "2AFCA0BEE7F01583917195777", "minzoom": 2, "maxzoom": 8 }, "properties": { "halo": 1.8, "title": "驩潜国", "fontsize": 12, "tyid": "304000", "oid": "103:1576575161955", "color": "#0056E7" }, "geometry": { "type": "Point", "coordinates": [ 59.765625, 42.488302 ] } }
{ "type": "Feature", "tippecanoe": { "layer": "2AFCA0BEE7F01583917195777", "minzoom": 2, "maxzoom": 8 }, "properties": { "halo": 1.8, "title": "龟兹国", "fontsize": 12, "tyid": "304000", "oid": "103:1576575162267", "color": "#0056E7" }, "geometry": { "type": "Point", "coordinates": [ 83.408203, 41.376809 ] } }
{ "type": "Feature", "tippecanoe": { "layer": "2AFCA0BEE7F01583917195777", "minzoom": 2, "maxzoom": 8 }, "properties": { "halo": 1.8, "title": "焉耆国", "fontsize": 12, "tyid": "304000", "oid": "103:1576575162309", "color": "#0056E7" }, "geometry": { "type": "Point", "coordinates": [ 85.693359, 41.640078 ] } }
{ "type": "Feature", "tippecanoe": { "layer": "2AFCA0BEE7F01583917195777", "minzoom": 2, "maxzoom": 8 }, "properties": { "halo": 1.8, "title": "车师前国", "fontsize": 12, "tyid": "304000", "oid": "103:1576575161840", "color": "#0056E7" }, "geometry": { "type": "Point", "coordinates": [ 89.296875, 43.452919 ] } }
{ "type": "Feature", "tippecanoe": { "layer": "2AFCA0BEE7F01583917195777", "minzoom": 2, "maxzoom": 8 }, "properties": { "halo": 1.8, "title": "危须国", "fontsize": 12, "tyid": "304000", "oid": "103:1576575161940", "color": "#0056E7" }, "geometry": { "type": "Point", "coordinates": [ 87.363281, 42.423457 ] } }
{ "type": "Feature", "tippecanoe": { "layer": "2AFCA0BEE7F01583917195777", "minzoom": 2, "maxzoom": 8 }, "properties": { "halo": 1.8, "title": "墨山国", "fontsize": 12, "tyid": "304000", "oid": "103:1576575161894", "color": "#0056E7" }, "geometry": { "type": "Point", "coordinates": [ 88.593750, 41.310824 ] } }
{ "type": "Feature", "tippecanoe": { "layer": "2AFCA0BEE7F01583917195777", "minzoom": 2, "maxzoom": 8 }, "properties": { "halo": 1.8, "title": "高加索阿尔巴尼亚王国", "fontsize": 12, "tyid": "304000", "oid": "103:1576575162274", "color": "#0056E7" }, "geometry": { "type": "Point", "coordinates": [ 48.076172, 40.580585 ] } }
{ "type": "Feature", "tippecanoe": { "layer": "2AFCA0BEE7F01583917195777", "minzoom": 2, "maxzoom": 8 }, "properties": { "halo": 1.8, "title": "阿特罗帕特尼王国", "fontsize": 12, "tyid": "304000", "oid": "103:1576575162332", "color": "#0056E7" }, "geometry": { "type": "Point", "coordinates": [ 47.900391, 37.996163 ] } }
{ "type": "Feature", "tippecanoe": { "layer": "2AFCA0BEE7F01583917195777", "minzoom": 2, "maxzoom": 8 }, "properties": { "halo": 1.8, "title": "查拉塞尼王国", "fontsize": 12, "tyid": "304000", "oid": "103:1576575162335", "color": "#0056E7" }, "geometry": { "type": "Point", "coordinates": [ 47.460938, 31.278551 ] } }
{ "type": "Feature", "tippecanoe": { "layer": "2AFCA0BEE7F01583917195777", "minzoom": 2, "maxzoom": 8 }, "properties": { "halo": 1.8, "title": "埃利迈斯王国", "fontsize": 12, "tyid": "304000", "oid": "103:1576575162347", "color": "#0056E7" }, "geometry": { "type": "Point", "coordinates": [ 49.130859, 31.653381 ] } }
{ "type": "Feature", "tippecanoe": { "layer": "2AFCA0BEE7F01583917195777", "minzoom": 2, "maxzoom": 8 }, "properties": { "halo": 1.8, "title": "塞巴王国", "fontsize": 12, "tyid": "304000", "oid": "103:1576575162154", "color": "#0056E7" }, "geometry": { "type": "Point", "coordinates": [ 45.351562, 16.045813 ] } }
{ "type": "Feature", "tippecanoe": { "layer": "2AFCA0BEE7F01583917195777", "minzoom": 2, "maxzoom": 8 }, "properties": { "halo": 1.8, "title": "希木叶尔王国", "fontsize": 12, "tyid": "304000", "oid": "103:1576575161929", "color": "#0056E7" }, "geometry": { "type": "Point", "coordinates": [ 45.351562, 14.093957 ] } }
{ "type": "Feature", "tippecanoe": { "layer": "2AFCA0BEE7F01583917195777", "minzoom": 2, "maxzoom": 8 }, "properties": { "halo": 1.8, "title": "阿德王国", "fontsize": 12, "tyid": "304000", "oid": "103:1576575162221", "color": "#0056E7" }, "geometry": { "type": "Point", "coordinates": [ 52.382812, 18.646245 ] } }
{ "type": "Feature", "tippecanoe": { "layer": "2AFCA0BEE7F01583917195777", "minzoom": 2, "maxzoom": 8 }, "properties": { "halo": 1.8, "title": "哈德拉毛王国", "fontsize": 12, "tyid": "304000", "oid": "103:1576575161901", "color": "#0056E7" }, "geometry": { "type": "Point", "coordinates": [ 50.976562, 16.299051 ] } }
{ "type": "Feature", "tippecanoe": { "layer": "2AFCA0BEE7F01583917195777", "minzoom": 2, "maxzoom": 8 }, "properties": { "halo": 1.8, "title": "大宛国", "fontsize": 12, "tyid": "304000", "oid": "103:1576575162242", "color": "#0056E7" }, "geometry": { "type": "Point", "coordinates": [ 71.455078, 40.713956 ] } }
{ "type": "Feature", "tippecanoe": { "layer": "2AFCA0BEE7F01583917195777", "minzoom": 2, "maxzoom": 8 }, "properties": { "halo": 1.8, "title": "休循国", "fontsize": 12, "tyid": "304000", "oid": "103:1576575162245", "color": "#0056E7" }, "geometry": { "type": "Point", "coordinates": [ 72.773438, 39.504041 ] } }
{ "type": "Feature", "tippecanoe": { "layer": "2AFCA0BEE7F01583917195777", "minzoom": 2, "maxzoom": 8 }, "properties": { "halo": 1.8, "title": "疏勒国", "fontsize": 12, "tyid": "304000", "oid": "103:1576575162271", "color": "#0056E7" }, "geometry": { "type": "Point", "coordinates": [ 75.322266, 39.842286 ] } }
{ "type": "Feature", "tippecanoe": { "layer": "2AFCA0BEE7F01583917195777", "minzoom": 2, "maxzoom": 8 }, "properties": { "halo": 1.8, "title": "无雷国", "fontsize": 12, "tyid": "304000", "oid": "103:1576575162265", "color": "#0056E7" }, "geometry": { "type": "Point", "coordinates": [ 73.476562, 38.065392 ] } }
{ "type": "Feature", "tippecanoe": { "layer": "2AFCA0BEE7F01583917195777", "minzoom": 2, "maxzoom": 8 }, "properties": { "halo": 1.8, "title": "尉头国", "fontsize": 12, "tyid": "304000", "oid": "103:1576575162268", "color": "#0056E7" }, "geometry": { "type": "Point", "coordinates": [ 78.222656, 40.313043 ] } }
{ "type": "Feature", "tippecanoe": { "layer": "2AFCA0BEE7F01583917195777", "minzoom": 2, "maxzoom": 8 }, "properties": { "halo": 1.8, "title": "于阗国", "fontsize": 12, "tyid": "304000", "oid": "103:1576575161842", "color": "#0056E7" }, "geometry": { "type": "Point", "coordinates": [ 78.310547, 37.649034 ] } }
{ "type": "Feature", "tippecanoe": { "layer": "2AFCA0BEE7F01583917195777", "minzoom": 2, "maxzoom": 8 }, "properties": { "halo": 1.8, "title": "西萨特拉普王朝", "fontsize": 12, "tyid": "304000", "oid": "103:1576575161853", "color": "#0056E7" }, "geometry": { "type": "Point", "coordinates": [ 71.806641, 22.917923 ] } }
{ "type": "Feature", "tippecanoe": { "layer": "2AFCA0BEE7F01583917195777", "minzoom": 2, "maxzoom": 8 }, "properties": { "halo": 1.8, "title": "古宁陀王国", "fontsize": 12, "tyid": "304000", "oid": "103:1576575161918", "color": "#0056E7" }, "geometry": { "type": "Point", "coordinates": [ 76.816406, 31.503629 ] } }
{ "type": "Feature", "tippecanoe": { "layer": "2AFCA0BEE7F01583917195777", "minzoom": 2, "maxzoom": 8 }, "properties": { "halo": 1.8, "title": "姑墨国", "fontsize": 12, "tyid": "304000", "oid": "103:1576575161893", "color": "#0056E7" }, "geometry": { "type": "Point", "coordinates": [ 80.595703, 40.847060 ] } }
{ "type": "Feature", "tippecanoe": { "layer": "2AFCA0BEE7F01583917195777", "minzoom": 2, "maxzoom": 8 }, "properties": { "halo": 1.8, "title": "扜弥国", "fontsize": 12, "tyid": "304000", "oid": "103:1576575161824", "color": "#0056E7" }, "geometry": { "type": "Point", "coordinates": [ 81.914062, 38.616870 ] } }
{ "type": "Feature", "tippecanoe": { "layer": "2AFCA0BEE7F01583917195777", "minzoom": 2, "maxzoom": 8 }, "properties": { "halo": 1.8, "title": "般遮罗国", "fontsize": 12, "tyid": "304000", "oid": "103:1576575161841", "color": "#0056E7" }, "geometry": { "type": "Point", "coordinates": [ 79.541016, 28.690588 ] } }
{ "type": "Feature", "tippecanoe": { "layer": "2AFCA0BEE7F01583917195777", "minzoom": 2, "maxzoom": 8 }, "properties": { "halo": 1.8, "title": "克拉底王国", "fontsize": 12, "tyid": "304000", "oid": "103:1576575161846", "color": "#0056E7" }, "geometry": { "type": "Point", "coordinates": [ 84.199219, 28.071980 ] } }
{ "type": "Feature", "tippecanoe": { "layer": "2AFCA0BEE7F01583917195777", "minzoom": 2, "maxzoom": 8 }, "properties": { "halo": 1.8, "title": "耽摩栗底国", "fontsize": 12, "tyid": "304000", "oid": "103:1576575161851", "color": "#0056E7" }, "geometry": { "type": "Point", "coordinates": [ 88.593750, 22.593726 ] } }
{ "type": "Feature", "tippecanoe": { "layer": "2AFCA0BEE7F01583917195777", "minzoom": 2, "maxzoom": 8 }, "properties": { "halo": 1.8, "title": "楚图王朝", "fontsize": 12, "tyid": "304000", "oid": "103:1576575161869", "color": "#0056E7" }, "geometry": { "type": "Point", "coordinates": [ 75.058594, 15.368950 ] } }
{ "type": "Feature", "tippecanoe": { "layer": "2AFCA0BEE7F01583917195777", "minzoom": 2, "maxzoom": 8 }, "properties": { "halo": 1.8, "title": "哲罗国", "fontsize": 12, "tyid": "304000", "oid": "103:1576575161935", "color": "#0056E7" }, "geometry": { "type": "Point", "coordinates": [ 76.464844, 10.314919 ] } }
{ "type": "Feature", "tippecanoe": { "layer": "2AFCA0BEE7F01583917195777", "minzoom": 2, "maxzoom": 8 }, "properties": { "halo": 1.8, "title": "潘地亚王国", "fontsize": 12, "tyid": "304000", "oid": "103:1576575161838", "color": "#0056E7" }, "geometry": { "type": "Point", "coordinates": [ 77.958984, 9.535749 ] } }
{ "type": "Feature", "tippecanoe": { "layer": "2AFCA0BEE7F01583917195777", "minzoom": 2, "maxzoom": 8 }, "properties": { "halo": 1.8, "title": "朱罗国", "fontsize": 12, "tyid": "304000", "oid": "103:1576575162030", "color": "#0056E7" }, "geometry": { "type": "Point", "coordinates": [ 78.925781, 11.264612 ] } }
{ "type": "Feature", "tippecanoe": { "layer": "2AFCA0BEE7F01583917195777", "minzoom": 2, "maxzoom": 8 }, "properties": { "halo": 1.8, "title": "质多王朝", "fontsize": 12, "tyid": "304000", "oid": "103:1576575162144", "color": "#0056E7" }, "geometry": { "type": "Point", "coordinates": [ 84.375000, 20.385825 ] } }
{ "type": "Feature", "tippecanoe": { "layer": "2AFCA0BEE7F01583917195777", "minzoom": 2, "maxzoom": 8 }, "properties": { "halo": 1.8, "title": "阿努拉德普勒王国", "fontsize": 12, "tyid": "304000", "oid": "103:1576575162305", "color": "#0056E7" }, "geometry": { "type": "Point", "coordinates": [ 80.683594, 7.623887 ] } }
{ "type": "Feature", "tippecanoe": { "layer": "2AFCA0BEE7F01583917195777", "minzoom": 2, "maxzoom": 8 }, "properties": { "halo": 1.8, "title": "蒲类前国", "fontsize": 12, "tyid": "304000", "oid": "103:1576575162243", "color": "#0056E7" }, "geometry": { "type": "Point", "coordinates": [ 93.867188, 42.617791 ] } }
{ "type": "Feature", "tippecanoe": { "layer": "2AFCA0BEE7F01583917195777", "minzoom": 2, "maxzoom": 8 }, "properties": { "halo": 1.6, "title": "北沃沮", "fontsize": 12, "tyid": "304001", "oid": "103:1576575161989", "color": "#0056E7" }, "geometry": { "type": "Point", "coordinates": [ 128.935547, 41.967659 ] } }
{ "type": "Feature", "tippecanoe": { "layer": "2AFCA0BEE7F01583917195777", "minzoom": 2, "maxzoom": 8 }, "properties": { "halo": 1.6, "title": "烧当羌", "fontsize": 12, "tyid": "304001", "oid": "103:1576575162320", "color": "#0056E7" }, "geometry": { "type": "Point", "coordinates": [ 100.195312, 37.509726 ] } }
{ "type": "Feature", "tippecanoe": { "layer": "2AFCA0BEE7F01583917195777", "minzoom": 2, "maxzoom": 8 }, "properties": { "halo": 1.8, "title": "达纳瓦王朝", "fontsize": 12, "tyid": "304000", "oid": "103:1576575162034", "color": "#0056E7" }, "geometry": { "type": "Point", "coordinates": [ 92.724609, 25.958045 ] } }
{ "type": "Feature", "tippecanoe": { "layer": "2AFCA0BEE7F01583917195777", "minzoom": 2, "maxzoom": 8 }, "properties": { "halo": 1.8, "title": "三摩呾吒国", "fontsize": 12, "tyid": "304000", "oid": "103:1576575162217", "color": "#0056E7" }, "geometry": { "type": "Point", "coordinates": [ 91.054688, 23.725012 ] } }
{ "type": "Feature", "tippecanoe": { "layer": "2AFCA0BEE7F01583917195777", "minzoom": 2, "maxzoom": 8 }, "properties": { "halo": 1.8, "title": "古曼尼普尔王国", "fontsize": 12, "tyid": "304000", "oid": "103:1576575161861", "color": "#0056E7" }, "geometry": { "type": "Point", "coordinates": [ 93.867188, 24.766785 ] } }
{ "type": "Feature", "tippecanoe": { "layer": "2AFCA0BEE7F01583917195777", "minzoom": 2, "maxzoom": 8 }, "properties": { "halo": 1.6, "title": "南匈奴", "fontsize": 12, "tyid": "304001", "oid": "103:1576575161874", "color": "#0056E7" }, "geometry": { "type": "Point", "coordinates": [ 109.248047, 38.341656 ] } }
{ "type": "Feature", "tippecanoe": { "layer": "2AFCA0BEE7F01583917195777", "minzoom": 2, "maxzoom": 8 }, "properties": { "halo": 1.8, "title": "达雅瓦底王国", "fontsize": 12, "tyid": "304000", "oid": "103:1576575161990", "color": "#0056E7" }, "geometry": { "type": "Point", "coordinates": [ 93.339844, 20.550509 ] } }
{ "type": "Feature", "tippecanoe": { "layer": "2AFCA0BEE7F01583917195777", "minzoom": 2, "maxzoom": 8 }, "properties": { "halo": 1.8, "title": "骠国", "fontsize": 12, "tyid": "304000", "oid": "103:1576575161850", "color": "#0056E7" }, "geometry": { "type": "Point", "coordinates": [ 95.888672, 21.125498 ] } }
{ "type": "Feature", "tippecanoe": { "layer": "2AFCA0BEE7F01583917195777", "minzoom": 2, "maxzoom": 8 }, "properties": { "halo": 1.8, "title": "直通王国", "fontsize": 12, "tyid": "304000", "oid": "103:1576575161854", "color": "#0056E7" }, "geometry": { "type": "Point", "coordinates": [ 96.152344, 17.140790 ] } }
{ "type": "Feature", "tippecanoe": { "layer": "2AFCA0BEE7F01583917195777", "minzoom": 2, "maxzoom": 8 }, "properties": { "halo": 1.8, "title": "林邑国", "fontsize": 12, "tyid": "304000", "oid": "103:1576575162005", "color": "#0056E7" }, "geometry": { "type": "Point", "coordinates": [ 108.632812, 14.434680 ] } }
{ "type": "Feature", "tippecanoe": { "layer": "2AFCA0BEE7F01583917195777", "minzoom": 2, "maxzoom": 8 }, "properties": { "halo": 1.8, "title": "赤土国", "fontsize": 12, "tyid": "304000", "oid": "103:1576575162024", "color": "#0056E7" }, "geometry": { "type": "Point", "coordinates": [ 102.128906, 5.441022 ] } }
{ "type": "Feature", "tippecanoe": { "layer": "2AFCA0BEE7F01583917195777", "minzoom": 2, "maxzoom": 8 }, "properties": { "halo": 1.6, "title": "辽东公孙氏", "fontsize": 12, "tyid": "304002", "oid": "103:1576575161859", "color": "#0056E7" }, "geometry": { "type": "Point", "coordinates": [ 122.607422, 40.446947 ] } }
{ "type": "Feature", "tippecanoe": { "layer": "2AFCA0BEE7F01583917195777", "minzoom": 2, "maxzoom": 8 }, "properties": { "halo": 1.8, "title": "高句丽", "fontsize": 12, "tyid": "304000", "oid": "103:1576575161870", "color": "#0056E7" }, "geometry": { "type": "Point", "coordinates": [ 126.210938, 40.979898 ] } }
{ "type": "Feature", "tippecanoe": { "layer": "2AFCA0BEE7F01583917195777", "minzoom": 2, "maxzoom": 8 }, "properties": { "halo": 1.6, "title": "东濊", "fontsize": 12, "tyid": "304001", "oid": "103:1576575162100", "color": "#0056E7" }, "geometry": { "type": "Point", "coordinates": [ 127.792969, 38.065392 ] } }
{ "type": "Feature", "tippecanoe": { "layer": "2AFCA0BEE7F01583917195777", "minzoom": 2, "maxzoom": 8 }, "properties": { "halo": 1.6, "title": "马韩", "fontsize": 12, "tyid": "304001", "oid": "103:1576575161993", "color": "#0056E7" }, "geometry": { "type": "Point", "coordinates": [ 127.529297, 36.385913 ] } }
{ "type": "Feature", "tippecanoe": { "layer": "2AFCA0BEE7F01583917195777", "minzoom": 2, "maxzoom": 8 }, "properties": { "halo": 1.6, "title": "辰韩", "fontsize": 12, "tyid": "304001", "oid": "103:1576575161936", "color": "#0056E7" }, "geometry": { "type": "Point", "coordinates": [ 128.759766, 36.315125 ] } }
{ "type": "Feature", "tippecanoe": { "layer": "2AFCA0BEE7F01583917195777", "minzoom": 2, "maxzoom": 8 }, "properties": { "halo": 1.6, "title": "绳文人", "fontsize": 12, "tyid": "304001", "oid": "103:1576575162198", "color": "#0056E7" }, "geometry": { "type": "Point", "coordinates": [ 142.558594, 43.389082 ] } }
{ "type": "Feature", "tippecanoe": { "layer": "2AFCA0BEE7F01583917195777", "minzoom": 2, "maxzoom": 8 }, "properties": { "halo": 1.6, "title": "弥生人", "fontsize": 12, "tyid": "304001", "oid": "103:1576575162298", "color": "#0056E7" }, "geometry": { "type": "Point", "coordinates": [ 140.537109, 39.027719 ] } }
{ "type": "Feature", "tippecanoe": { "layer": "2AFCA0BEE7F01583917195777", "minzoom": 2, "maxzoom": 8 }, "properties": { "halo": 1.6, "title": "倭人诸邦", "fontsize": 12, "tyid": "304002", "oid": "103:1576575161924", "color": "#0056E7" }, "geometry": { "type": "Point", "coordinates": [ 138.339844, 36.102376 ] } }
{ "type": "Feature", "tippecanoe": { "layer": "2AFCA0BEE7F01583917195777", "minzoom": 2, "maxzoom": 8 }, "properties": { "halo": 1.6, "title": "乌莱维文明", "fontsize": 12, "tyid": "304002", "oid": "103:1576575162310", "color": "#0056E7" }, "geometry": { "type": "Point", "coordinates": [ 29.882812, -2.547988 ] } }
{ "type": "Feature", "tippecanoe": { "layer": "2AFCA0BEE7F01583917195777", "minzoom": 2, "maxzoom": 8 }, "properties": { "halo": 1.6, "title": "艾布兰文化五期", "fontsize": 12, "tyid": "304002", "oid": "103:1576575161994", "color": "#0056E7" }, "geometry": { "type": "Point", "coordinates": [ 36.474609, -0.175781 ] } }
{ "type": "Feature", "tippecanoe": { "layer": "2AFCA0BEE7F01583917195777", "minzoom": 2, "maxzoom": 8 }, "properties": { "halo": 1.8, "title": "挲叻珂奴葛逻王国", "fontsize": 12, "tyid": "304000", "oid": "103:1576575161981", "color": "#0056E7" }, "geometry": { "type": "Point", "coordinates": [ 107.226562, -6.751896 ] } }
{ "type": "Feature", "tippecanoe": { "layer": "2AFCA0BEE7F01583917195777", "minzoom": 2, "maxzoom": 8 }, "properties": { "halo": 1.6, "title": "巴拉瓦人", "fontsize": 12, "tyid": "304001", "oid": "103:1576575161848", "color": "#0056E7" }, "geometry": { "type": "Point", "coordinates": [ 146.513672, -41.967659 ] } }
{ "type": "Feature", "tippecanoe": { "layer": "2AFCA0BEE9401583917195768", "minzoom": 2, "maxzoom": 8 }, "properties": { "halo": 0.8, "title": "图勒人", "fontsize": 12, "tyid": "304001", "oid": "103:1576575162322", "color": "#262626" }, "geometry": { "type": "Point", "coordinates": [ -130.781250, 68.942607 ] } }
{ "type": "Feature", "tippecanoe": { "layer": "2AFCA0BEE9401583917195768", "minzoom": 2, "maxzoom": 8 }, "properties": { "halo": 0.8, "title": "诺顿文化", "fontsize": 12, "tyid": "304002", "oid": "103:1576575161953", "color": "#262626" }, "geometry": { "type": "Point", "coordinates": [ -163.740234, 65.330178 ] } }
{ "type": "Feature", "tippecanoe": { "layer": "2AFCA0BEE9401583917195768", "minzoom": 2, "maxzoom": 8 }, "properties": { "halo": 0.8, "title": "尤皮克人", "fontsize": 12, "tyid": "304001", "oid": "103:1576575162002", "color": "#262626" }, "geometry": { "type": "Point", "coordinates": [ -159.169922, 60.630102 ] } }
{ "type": "Feature", "tippecanoe": { "layer": "2AFCA0BEE9401583917195768", "minzoom": 2, "maxzoom": 8 }, "properties": { "halo": 0.8, "title": "因纽皮雅特人", "fontsize": 12, "tyid": "304001", "oid": "103:1576575161970", "color": "#262626" }, "geometry": { "type": "Point", "coordinates": [ -150.908203, 65.476508 ] } }
{ "type": "Feature", "tippecanoe": { "layer": "2AFCA0BEE9401583917195768", "minzoom": 2, "maxzoom": 8 }, "properties": { "halo": 0.8, "title": "阿留申人", "fontsize": 12, "tyid": "304001", "oid": "103:1576575161978", "color": "#262626" }, "geometry": { "type": "Point", "coordinates": [ -152.226562, 61.312452 ] } }
{ "type": "Feature", "tippecanoe": { "layer": "2AFCA0BEE9401583917195768", "minzoom": 2, "maxzoom": 8 }, "properties": { "halo": 0.8, "title": "因纽特人", "fontsize": 12, "tyid": "304001", "oid": "103:1576575162014", "color": "#262626" }, "geometry": { "type": "Point", "coordinates": [ -100.195312, 65.802776 ] } }
{ "type": "Feature", "tippecanoe": { "layer": "2AFCA0BEE9401583917195768", "minzoom": 2, "maxzoom": 8 }, "properties": { "halo": 0.8, "title": "泰萨勒页岩文化", "fontsize": 12, "tyid": "304002", "oid": "103:1576575162017", "color": "#262626" }, "geometry": { "type": "Point", "coordinates": [ -99.316406, 56.800878 ] } }
{ "type": "Feature", "tippecanoe": { "layer": "2AFCA0BEE9401583917195768", "minzoom": 2, "maxzoom": 8 }, "properties": { "halo": 0.8, "title": "坎贝尔文化", "fontsize": 12, "tyid": "304002", "oid": "103:1576575161864", "color": "#262626" }, "geometry": { "type": "Point", "coordinates": [ -121.289062, 38.685510 ] } }
{ "type": "Feature", "tippecanoe": { "layer": "2AFCA0BEE9401583917195768", "minzoom": 2, "maxzoom": 8 }, "properties": { "halo": 0.8, "title": "多赛特文化", "fontsize": 12, "tyid": "304002", "oid": "103:1576575162055", "color": "#262626" }, "geometry": { "type": "Point", "coordinates": [ -69.960938, 67.875541 ] } }
{ "type": "Feature", "tippecanoe": { "layer": "2AFCA0BEE9401583917195768", "minzoom": 2, "maxzoom": 8 }, "properties": { "halo": 0.8, "title": "波茵特半岛文化", "fontsize": 12, "tyid": "304002", "oid": "103:1576575162235", "color": "#262626" }, "geometry": { "type": "Point", "coordinates": [ -76.816406, 45.336702 ] } }
{ "type": "Feature", "tippecanoe": { "layer": "2AFCA0BEE9401583917195768", "minzoom": 2, "maxzoom": 8 }, "properties": { "halo": 0.8, "title": "古海洋文化", "fontsize": 12, "tyid": "304002", "oid": "103:1576575162015", "color": "#262626" }, "geometry": { "type": "Point", "coordinates": [ -66.972656, 46.920255 ] } }
{ "type": "Feature", "tippecanoe": { "layer": "2AFCA0BEE9401583917195768", "minzoom": 2, "maxzoom": 8 }, "properties": { "halo": 0.8, "title": "巴富尔人", "fontsize": 12, "tyid": "304001", "oid": "103:1576575161866", "color": "#262626" }, "geometry": { "type": "Point", "coordinates": [ -8.261719, 22.755921 ] } }
{ "type": "Feature", "tippecanoe": { "layer": "2AFCA0BEE9401583917195768", "minzoom": 2, "maxzoom": 8 }, "properties": { "halo": 0.8, "title": "索宁克人", "fontsize": 12, "tyid": "304001", "oid": "103:1576575161925", "color": "#262626" }, "geometry": { "type": "Point", "coordinates": [ -10.195312, 16.551962 ] } }
{ "type": "Feature", "tippecanoe": { "layer": "2AFCA0BEE9401583917195768", "minzoom": 2, "maxzoom": 8 }, "properties": { "halo": 0.8, "title": "曼德人", "fontsize": 12, "tyid": "304001", "oid": "103:1576575162167", "color": "#262626" }, "geometry": { "type": "Point", "coordinates": [ -7.558594, 8.146243 ] } }
{ "type": "Feature", "tippecanoe": { "layer": "2AFCA0BEE9401583917195768", "minzoom": 2, "maxzoom": 8 }, "properties": { "halo": 0.8, "title": "图皮人", "fontsize": 12, "tyid": "304001", "oid": "103:1576575162239", "color": "#262626" }, "geometry": { "type": "Point", "coordinates": [ -47.812500, -23.966176 ] } }
{ "type": "Feature", "tippecanoe": { "layer": "2AFCA0BEE9401583917195768", "minzoom": 2, "maxzoom": 8 }, "properties": { "halo": 0.8, "title": "萨米人", "fontsize": 12, "tyid": "304001", "oid": "103:1576575162238", "color": "#262626" }, "geometry": { "type": "Point", "coordinates": [ 25.400391, 68.171555 ] } }
{ "type": "Feature", "tippecanoe": { "layer": "2AFCA0BEE9401583917195768", "minzoom": 2, "maxzoom": 8 }, "properties": { "halo": 0.8, "title": "原始日耳曼人", "fontsize": 12, "tyid": "304001", "oid": "103:1576575162048", "color": "#262626" }, "geometry": { "type": "Point", "coordinates": [ 8.437500, 60.500525 ] } }
{ "type": "Feature", "tippecanoe": { "layer": "2AFCA0BEE9401583917195768", "minzoom": 2, "maxzoom": 8 }, "properties": { "halo": 0.8, "title": "古瑞典人", "fontsize": 12, "tyid": "304001", "oid": "103:1576575162258", "color": "#262626" }, "geometry": { "type": "Point", "coordinates": [ 15.820312, 61.312452 ] } }
{ "type": "Feature", "tippecanoe": { "layer": "2AFCA0BEE9401583917195768", "minzoom": 2, "maxzoom": 8 }, "properties": { "halo": 0.8, "title": "罗马帝国", "fontsize": 12, "tyid": "304000", "oid": "103:1576575162161", "color": "#202020" }, "geometry": { "type": "Point", "coordinates": [ 10.107422, 46.860191 ] } }
{ "type": "Feature", "tippecanoe": { "layer": "2AFCA0BEE9401583917195768", "minzoom": 2, "maxzoom": 8 }, "properties": { "halo": 0.8, "title": "芬尼人", "fontsize": 12, "tyid": "304001", "oid": "103:1576575162252", "color": "#262626" }, "geometry": { "type": "Point", "coordinates": [ 29.970703, 64.510643 ] } }
{ "type": "Feature", "tippecanoe": { "layer": "2AFCA0BEE9401583917195768", "minzoom": 2, "maxzoom": 8 }, "properties": { "halo": 0.8, "title": "第聂伯河波罗的人", "fontsize": 12, "tyid": "304001", "oid": "103:1576575162250", "color": "#262626" }, "geometry": { "type": "Point", "coordinates": [ 33.222656, 56.413901 ] } }
{ "type": "Feature", "tippecanoe": { "layer": "2AFCA0BEE9401583917195768", "minzoom": 2, "maxzoom": 8 }, "properties": { "halo": 0.8, "title": "波罗的人", "fontsize": 12, "tyid": "304002", "oid": "103:1576575162042", "color": "#262626" }, "geometry": { "type": "Point", "coordinates": [ 24.521484, 54.724620 ] } }
{ "type": "Feature", "tippecanoe": { "layer": "2AFCA0BEE9401583917195768", "minzoom": 2, "maxzoom": 8 }, "properties": { "halo": 0.8, "title": "维内德人", "fontsize": 12, "tyid": "304001", "oid": "103:1576575162073", "color": "#262626" }, "geometry": { "type": "Point", "coordinates": [ 28.125000, 51.672555 ] } }
{ "type": "Feature", "tippecanoe": { "layer": "2AFCA0BEE9401583917195768", "minzoom": 2, "maxzoom": 8 }, "properties": { "halo": 0.8, "title": "伏尔加芬兰人", "fontsize": 12, "tyid": "304001", "oid": "103:1576575162070", "color": "#262626" }, "geometry": { "type": "Point", "coordinates": [ 42.890625, 55.528631 ] } }
{ "type": "Feature", "tippecanoe": { "layer": "2AFCA0BEE9401583917195768", "minzoom": 2, "maxzoom": 8 }, "properties": { "halo": 0.8, "title": "柏柏尔人诸部", "fontsize": 12, "tyid": "304001", "oid": "103:1576575161919", "color": "#262626" }, "geometry": { "type": "Point", "coordinates": [ 2.900391, 25.165173 ] } }
{ "type": "Feature", "tippecanoe": { "layer": "2AFCA0BEE9401583917195768", "minzoom": 2, "maxzoom": 8 }, "properties": { "halo": 0.8, "title": "加拉曼特人", "fontsize": 12, "tyid": "304001", "oid": "103:1576575161897", "color": "#262626" }, "geometry": { "type": "Point", "coordinates": [ 18.544922, 26.980829 ] } }
{ "type": "Feature", "tippecanoe": { "layer": "2AFCA0BEE9401583917195768", "minzoom": 2, "maxzoom": 8 }, "properties": { "halo": 0.8, "title": "诺克文化", "fontsize": 12, "tyid": "304002", "oid": "103:1576575162124", "color": "#262626" }, "geometry": { "type": "Point", "coordinates": [ 7.119141, 10.574222 ] } }
{ "type": "Feature", "tippecanoe": { "layer": "2AFCA0BEE9401583917195768", "minzoom": 2, "maxzoom": 8 }, "properties": { "halo": 0.8, "title": "萨奥文明", "fontsize": 12, "tyid": "304002", "oid": "103:1576575162178", "color": "#262626" }, "geometry": { "type": "Point", "coordinates": [ 15.380859, 13.325485 ] } }
{ "type": "Feature", "tippecanoe": { "layer": "2AFCA0BEE9401583917195768", "minzoom": 2, "maxzoom": 8 }, "properties": { "halo": 0.8, "title": "巴卡人", "fontsize": 12, "tyid": "304001", "oid": "103:1576575162147", "color": "#262626" }, "geometry": { "type": "Point", "coordinates": [ 18.105469, 5.441022 ] } }
{ "type": "Feature", "tippecanoe": { "layer": "2AFCA0BEE9401583917195768", "minzoom": 2, "maxzoom": 8 }, "properties": { "halo": 0.8, "title": "亚美尼亚阿萨息斯王朝", "fontsize": 12, "tyid": "304000", "oid": "103:1576575162331", "color": "#202020" }, "geometry": { "type": "Point", "coordinates": [ 43.505859, 39.300299 ] } }
{ "type": "Feature", "tippecanoe": { "layer": "2AFCA0BEE9401583917195768", "minzoom": 2, "maxzoom": 8 }, "properties": { "halo": 0.8, "title": "塔努联盟", "fontsize": 12, "tyid": "304002", "oid": "103:1576575162117", "color": "#262626" }, "geometry": { "type": "Point", "coordinates": [ 39.902344, 32.768800 ] } }
{ "type": "Feature", "tippecanoe": { "layer": "2AFCA0BEE9401583917195768", "minzoom": 2, "maxzoom": 8 }, "properties": { "halo": 0.8, "title": "贝都因人", "fontsize": 12, "tyid": "304001", "oid": "103:1576575162113", "color": "#262626" }, "geometry": { "type": "Point", "coordinates": [ 40.957031, 26.745610 ] } }
{ "type": "Feature", "tippecanoe": { "layer": "2AFCA0BEE9401583917195768", "minzoom": 2, "maxzoom": 8 }, "properties": { "halo": 0.8, "title": "北非贝都因人", "fontsize": 12, "tyid": "304001", "oid": "103:1576575162176", "color": "#262626" }, "geometry": { "type": "Point", "coordinates": [ 22.763672, 20.879343 ] } }
{ "type": "Feature", "tippecanoe": { "layer": "2AFCA0BEE9401583917195768", "minzoom": 2, "maxzoom": 8 }, "properties": { "halo": 0.8, "title": "札加瓦人", "fontsize": 12, "tyid": "304001", "oid": "103:1576575161917", "color": "#262626" }, "geometry": { "type": "Point", "coordinates": [ 22.675781, 15.538376 ] } }
{ "type": "Feature", "tippecanoe": { "layer": "2AFCA0BEE9401583917195768", "minzoom": 2, "maxzoom": 8 }, "properties": { "halo": 0.8, "title": "富尔人", "fontsize": 12, "tyid": "304001", "oid": "103:1576575161911", "color": "#262626" }, "geometry": { "type": "Point", "coordinates": [ 26.015625, 12.983148 ] } }
{ "type": "Feature", "tippecanoe": { "layer": "2AFCA0BEE9401583917195768", "minzoom": 2, "maxzoom": 8 }, "properties": { "halo": 0.8, "title": "库施王国", "fontsize": 12, "tyid": "304000", "oid": "103:1576575161898", "color": "#202020" }, "geometry": { "type": "Point", "coordinates": [ 32.255859, 18.729502 ] } }
{ "type": "Feature", "tippecanoe": { "layer": "2AFCA0BEE9401583917195768", "minzoom": 2, "maxzoom": 8 }, "properties": { "halo": 0.8, "title": "尼罗特人", "fontsize": 12, "tyid": "304001", "oid": "103:1576575161877", "color": "#262626" }, "geometry": { "type": "Point", "coordinates": [ 33.134766, 1.406109 ] } }
{ "type": "Feature", "tippecanoe": { "layer": "2AFCA0BEE9401583917195768", "minzoom": 2, "maxzoom": 8 }, "properties": { "halo": 0.8, "title": "阿克苏姆王国", "fontsize": 12, "tyid": "304000", "oid": "103:1576575162313", "color": "#202020" }, "geometry": { "type": "Point", "coordinates": [ 39.990234, 13.325485 ] } }
{ "type": "Feature", "tippecanoe": { "layer": "2AFCA0BEE9401583917195768", "minzoom": 2, "maxzoom": 8 }, "properties": { "halo": 0.8, "title": "卢欧诸部", "fontsize": 12, "tyid": "304001", "oid": "103:1576575161945", "color": "#262626" }, "geometry": { "type": "Point", "coordinates": [ 35.068359, 8.581021 ] } }
{ "type": "Feature", "tippecanoe": { "layer": "2AFCA0BEE9401583917195768", "minzoom": 2, "maxzoom": 8 }, "properties": { "halo": 0.8, "title": "库希特人", "fontsize": 12, "tyid": "304001", "oid": "103:1576575162189", "color": "#262626" }, "geometry": { "type": "Point", "coordinates": [ 44.736328, 5.703448 ] } }
{ "type": "Feature", "tippecanoe": { "layer": "2AFCA0BEE9401583917195768", "minzoom": 2, "maxzoom": 8 }, "properties": { "halo": 0.8, "title": "阿扎尼亚诸城邦", "fontsize": 12, "tyid": "304002", "oid": "103:1576575162204", "color": "#262626" }, "geometry": { "type": "Point", "coordinates": [ 40.166016, 0.087891 ] } }
{ "type": "Feature", "tippecanoe": { "layer": "2AFCA0BEE9401583917195768", "minzoom": 2, "maxzoom": 8 }, "properties": { "halo": 0.8, "title": "彼尔姆人", "fontsize": 12, "tyid": "304001", "oid": "103:1576575162143", "color": "#262626" }, "geometry": { "type": "Point", "coordinates": [ 55.722656, 57.704147 ] } }
{ "type": "Feature", "tippecanoe": { "layer": "2AFCA0BEE9401583917195768", "minzoom": 2, "maxzoom": 8 }, "properties": { "halo": 0.8, "title": "东马扎尔人", "fontsize": 12, "tyid": "304001", "oid": "103:1576575162326", "color": "#262626" }, "geometry": { "type": "Point", "coordinates": [ 59.238281, 61.396719 ] } }
{ "type": "Feature", "tippecanoe": { "layer": "2AFCA0BEE9401583917195768", "minzoom": 2, "maxzoom": 8 }, "properties": { "halo": 0.8, "title": "萨尔马提亚人", "fontsize": 12, "tyid": "304001", "oid": "103:1576575162277", "color": "#262626" }, "geometry": { "type": "Point", "coordinates": [ 52.382812, 53.067627 ] } }
{ "type": "Feature", "tippecanoe": { "layer": "2AFCA0BEE9401583917195768", "minzoom": 2, "maxzoom": 8 }, "properties": { "halo": 0.8, "title": "阿兰人", "fontsize": 12, "tyid": "304001", "oid": "103:1576575162031", "color": "#262626" }, "geometry": { "type": "Point", "coordinates": [ 49.570312, 48.864715 ] } }
{ "type": "Feature", "tippecanoe": { "layer": "2AFCA0BEE9401583917195768", "minzoom": 2, "maxzoom": 8 }, "properties": { "halo": 0.8, "title": "康居国", "fontsize": 12, "tyid": "304001", "oid": "103:1576575162237", "color": "#262626" }, "geometry": { "type": "Point", "coordinates": [ 67.324219, 45.767523 ] } }
{ "type": "Feature", "tippecanoe": { "layer": "2AFCA0BEE9401583917195768", "minzoom": 2, "maxzoom": 8 },