{ "type": "Feature", "tippecanoe": { "layer": "2AFCA12C24701583917891136", "minzoom": 2, "maxzoom": 8 }, "properties": { "halo": 0.8, "title": "拉霍亚文化", "fontsize": 12, "tyid": "304002", "oid": "103:1576575146128", "color": "#262626" }, "geometry": { "type": "Point", "coordinates": [ -118.916016, 34.597042 ] } }
{ "type": "Feature", "tippecanoe": { "layer": "2AFCA12C24701583917891136", "minzoom": 2, "maxzoom": 8 }, "properties": { "halo": 0.8, "title": "维珍阿纳萨齐人", "fontsize": 12, "tyid": "304001", "oid": "103:1576575146354", "color": "#262626" }, "geometry": { "type": "Point", "coordinates": [ -113.818359, 36.879621 ] } }
{ "type": "Feature", "tippecanoe": { "layer": "2AFCA12C24701583917891136", "minzoom": 2, "maxzoom": 8 }, "properties": { "halo": 0.8, "title": "弗里蒙特文化", "fontsize": 12, "tyid": "304002", "oid": "103:1576575146449", "color": "#262626" }, "geometry": { "type": "Point", "coordinates": [ -111.533203, 38.134557 ] } }
{ "type": "Feature", "tippecanoe": { "layer": "2AFCA12C24701583917891136", "minzoom": 2, "maxzoom": 8 }, "properties": { "halo": 0.8, "title": "古普韦布洛人", "fontsize": 12, "tyid": "304001", "oid": "103:1576575146224", "color": "#262626" }, "geometry": { "type": "Point", "coordinates": [ -110.126953, 36.949892 ] } }
{ "type": "Feature", "tippecanoe": { "layer": "2AFCA12C24701583917891136", "minzoom": 2, "maxzoom": 8 }, "properties": { "halo": 0.8, "title": "奇瓦瓦文化", "fontsize": 12, "tyid": "304002", "oid": "103:1576575146074", "color": "#262626" }, "geometry": { "type": "Point", "coordinates": [ -107.226562, 32.768800 ] } }
{ "type": "Feature", "tippecanoe": { "layer": "2AFCA12C24701583917891136", "minzoom": 2, "maxzoom": 8 }, "properties": { "halo": 0.8, "title": "奥沙拉文化", "fontsize": 12, "tyid": "304002", "oid": "103:1576575146063", "color": "#262626" }, "geometry": { "type": "Point", "coordinates": [ -106.699219, 37.579413 ] } }
{ "type": "Feature", "tippecanoe": { "layer": "2AFCA12C24701583917891136", "minzoom": 2, "maxzoom": 8 }, "properties": { "halo": 0.8, "title": "瓜伊库拉人", "fontsize": 12, "tyid": "304001", "oid": "103:1576575146440", "color": "#262626" }, "geometry": { "type": "Point", "coordinates": [ -111.269531, 24.846565 ] } }
{ "type": "Feature", "tippecanoe": { "layer": "2AFCA12C24701583917891136", "minzoom": 2, "maxzoom": 8 }, "properties": { "halo": 0.8, "title": "堪萨斯城霍普韦尔文化", "fontsize": 12, "tyid": "304002", "oid": "103:1576575146312", "color": "#262626" }, "geometry": { "type": "Point", "coordinates": [ -94.042969, 39.027719 ] } }
{ "type": "Feature", "tippecanoe": { "layer": "2AFCA12C24701583917891136", "minzoom": 2, "maxzoom": 8 }, "properties": { "halo": 0.8, "title": "哈瓦那霍普韦尔文化", "fontsize": 12, "tyid": "304002", "oid": "103:1576575146454", "color": "#262626" }, "geometry": { "type": "Point", "coordinates": [ -91.054688, 40.446947 ] } }
{ "type": "Feature", "tippecanoe": { "layer": "2AFCA12C24701583917891136", "minzoom": 2, "maxzoom": 8 }, "properties": { "halo": 0.8, "title": "喀多语密西西比文化", "fontsize": 12, "tyid": "304002", "oid": "103:1576575146428", "color": "#262626" }, "geometry": { "type": "Point", "coordinates": [ -94.482422, 35.960223 ] } }
{ "type": "Feature", "tippecanoe": { "layer": "2AFCA12C24701583917891136", "minzoom": 2, "maxzoom": 8 }, "properties": { "halo": 0.8, "title": "福切马里尼文化", "fontsize": 12, "tyid": "304002", "oid": "103:1576575146252", "color": "#262626" }, "geometry": { "type": "Point", "coordinates": [ -94.306641, 33.358062 ] } }
{ "type": "Feature", "tippecanoe": { "layer": "2AFCA12C24701583917891136", "minzoom": 2, "maxzoom": 8 }, "properties": { "halo": 0.8, "title": "楚拉时期", "fontsize": 12, "tyid": "304002", "oid": "103:1576575146212", "color": "#262626" }, "geometry": { "type": "Point", "coordinates": [ -92.021484, 32.472695 ] } }
{ "type": "Feature", "tippecanoe": { "layer": "2AFCA12C24701583917891136", "minzoom": 2, "maxzoom": 8 }, "properties": { "halo": 0.8, "title": "华斯塔克文明", "fontsize": 12, "tyid": "304002", "oid": "103:1576575146120", "color": "#262626" }, "geometry": { "type": "Point", "coordinates": [ -98.613281, 22.105999 ] } }
{ "type": "Feature", "tippecanoe": { "layer": "2AFCA12C24701583917891136", "minzoom": 2, "maxzoom": 8 }, "properties": { "halo": 0.8, "title": "奇蒂玛察人", "fontsize": 12, "tyid": "304001", "oid": "103:1576575146375", "color": "#262626" }, "geometry": { "type": "Point", "coordinates": [ -91.230469, 30.902225 ] } }
{ "type": "Feature", "tippecanoe": { "layer": "2AFCA12C24701583917891136", "minzoom": 2, "maxzoom": 8 }, "properties": { "halo": 0.8, "title": "马克斯维尔文化", "fontsize": 12, "tyid": "304002", "oid": "103:1576575146095", "color": "#262626" }, "geometry": { "type": "Point", "coordinates": [ -90.878906, 29.764377 ] } }
{ "type": "Feature", "tippecanoe": { "layer": "2AFCA12C24701583917891136", "minzoom": 2, "maxzoom": 8 }, "properties": { "halo": 0.8, "title": "特切特兰文化", "fontsize": 12, "tyid": "304002", "oid": "103:1576575146435", "color": "#262626" }, "geometry": { "type": "Point", "coordinates": [ -104.326172, 20.468189 ] } }
{ "type": "Feature", "tippecanoe": { "layer": "2AFCA12C24701583917891136", "minzoom": 2, "maxzoom": 8 }, "properties": { "halo": 0.8, "title": "萨波特克文明", "fontsize": 12, "tyid": "304002", "oid": "103:1576575146047", "color": "#262626" }, "geometry": { "type": "Point", "coordinates": [ -96.064453, 16.636192 ] } }
{ "type": "Feature", "tippecanoe": { "layer": "2AFCA12C24701583917891136", "minzoom": 2, "maxzoom": 8 }, "properties": { "halo": 0.8, "title": "古德尔文化", "fontsize": 12, "tyid": "304002", "oid": "103:1576575146249", "color": "#262626" }, "geometry": { "type": "Point", "coordinates": [ -85.869141, 43.133061 ] } }
{ "type": "Feature", "tippecanoe": { "layer": "2AFCA12C24701583917891136", "minzoom": 2, "maxzoom": 8 }, "properties": { "halo": 0.8, "title": "索根文化", "fontsize": 12, "tyid": "304002", "oid": "103:1576575146355", "color": "#262626" }, "geometry": { "type": "Point", "coordinates": [ -81.298828, 43.707594 ] } }
{ "type": "Feature", "tippecanoe": { "layer": "2AFCA12C24701583917891136", "minzoom": 2, "maxzoom": 8 }, "properties": { "halo": 0.8, "title": "俄亥俄霍普韦尔文化", "fontsize": 12, "tyid": "304002", "oid": "103:1576575146097", "color": "#262626" }, "geometry": { "type": "Point", "coordinates": [ -83.056641, 39.774769 ] } }
{ "type": "Feature", "tippecanoe": { "layer": "2AFCA12C24701583917891136", "minzoom": 2, "maxzoom": 8 }, "properties": { "halo": 0.8, "title": "阿姆斯特朗文化", "fontsize": 12, "tyid": "304002", "oid": "103:1576575146437", "color": "#262626" }, "geometry": { "type": "Point", "coordinates": [ -82.968750, 38.134557 ] } }
{ "type": "Feature", "tippecanoe": { "layer": "2AFCA12C24701583917891136", "minzoom": 2, "maxzoom": 8 }, "properties": { "halo": 0.8, "title": "德普特福德文化", "fontsize": 12, "tyid": "304002", "oid": "103:1576575146200", "color": "#262626" }, "geometry": { "type": "Point", "coordinates": [ -79.628906, 33.358062 ] } }
{ "type": "Feature", "tippecanoe": { "layer": "2AFCA12C24701583917891136", "minzoom": 2, "maxzoom": 8 }, "properties": { "halo": 0.8, "title": "切格文特文化", "fontsize": 12, "tyid": "304002", "oid": "103:1576575146116", "color": "#262626" }, "geometry": { "type": "Point", "coordinates": [ -89.208984, 30.600094 ] } }
{ "type": "Feature", "tippecanoe": { "layer": "2AFCA12C24701583917891136", "minzoom": 2, "maxzoom": 8 }, "properties": { "halo": 0.8, "title": "玛雅文明[前古典时期]", "fontsize": 12, "tyid": "304002", "oid": "103:1576575145966", "color": "#262626" }, "geometry": { "type": "Point", "coordinates": [ -89.296875, 17.056785 ] } }
{ "type": "Feature", "tippecanoe": { "layer": "2AFCA12C24701583917891136", "minzoom": 2, "maxzoom": 8 }, "properties": { "halo": 0.8, "title": "兹努文化", "fontsize": 12, "tyid": "304002", "oid": "103:1576575146036", "color": "#262626" }, "geometry": { "type": "Point", "coordinates": [ -75.585938, 8.581021 ] } }
{ "type": "Feature", "tippecanoe": { "layer": "2AFCA12C24701583917891136", "minzoom": 2, "maxzoom": 8 }, "properties": { "halo": 0.8, "title": "拉托利塔文化", "fontsize": 12, "tyid": "304002", "oid": "103:1576575146117", "color": "#262626" }, "geometry": { "type": "Point", "coordinates": [ -78.046875, 1.757537 ] } }
{ "type": "Feature", "tippecanoe": { "layer": "2AFCA12C24701583917891136", "minzoom": 2, "maxzoom": 8 }, "properties": { "halo": 0.8, "title": "埃雷拉时期", "fontsize": 12, "tyid": "304002", "oid": "103:1576575146425", "color": "#262626" }, "geometry": { "type": "Point", "coordinates": [ -73.476562, 5.441022 ] } }
{ "type": "Feature", "tippecanoe": { "layer": "2AFCA12C24701583917891136", "minzoom": 2, "maxzoom": 8 }, "properties": { "halo": 0.8, "title": "伊奈里人", "fontsize": 12, "tyid": "304001", "oid": "103:1576575146422", "color": "#262626" }, "geometry": { "type": "Point", "coordinates": [ -61.787109, 8.754795 ] } }
{ "type": "Feature", "tippecanoe": { "layer": "2AFCA12C24701583917891136", "minzoom": 2, "maxzoom": 8 }, "properties": { "halo": 0.8, "title": "喀里多尼亚人", "fontsize": 12, "tyid": "304001", "oid": "103:1576575145999", "color": "#262626" }, "geometry": { "type": "Point", "coordinates": [ -4.042969, 56.992883 ] } }
{ "type": "Feature", "tippecanoe": { "layer": "2AFCA12C24701583917891136", "minzoom": 2, "maxzoom": 8 }, "properties": { "halo": 0.8, "title": "盖尔人", "fontsize": 12, "tyid": "304001", "oid": "103:1576575146198", "color": "#262626" }, "geometry": { "type": "Point", "coordinates": [ -7.910156, 53.435719 ] } }
{ "type": "Feature", "tippecanoe": { "layer": "2AFCA12C24701583917891136", "minzoom": 2, "maxzoom": 8 }, "properties": { "halo": 0.8, "title": "布里甘斯特人", "fontsize": 12, "tyid": "304001", "oid": "103:1576575146114", "color": "#262626" }, "geometry": { "type": "Point", "coordinates": [ -1.933594, 54.059388 ] } }
{ "type": "Feature", "tippecanoe": { "layer": "2AFCA12C24701583917891136", "minzoom": 2, "maxzoom": 8 }, "properties": { "halo": 0.8, "title": "科里尔塔维人", "fontsize": 12, "tyid": "304001", "oid": "103:1576575146022", "color": "#262626" }, "geometry": { "type": "Point", "coordinates": [ -0.878906, 52.855864 ] } }
{ "type": "Feature", "tippecanoe": { "layer": "2AFCA12C24701583917891136", "minzoom": 2, "maxzoom": 8 }, "properties": { "halo": 0.8, "title": "杰内-杰诺文化一期", "fontsize": 12, "tyid": "304002", "oid": "103:1576575146406", "color": "#262626" }, "geometry": { "type": "Point", "coordinates": [ -4.482422, 13.667338 ] } }
{ "type": "Feature", "tippecanoe": { "layer": "2AFCA12C24701583917891136", "minzoom": 2, "maxzoom": 8 }, "properties": { "halo": 0.8, "title": "楚真文化", "fontsize": 12, "tyid": "304002", "oid": "103:1576575146194", "color": "#262626" }, "geometry": { "type": "Point", "coordinates": [ -70.576172, -16.299051 ] } }
{ "type": "Feature", "tippecanoe": { "layer": "2AFCA12C24701583917891136", "minzoom": 2, "maxzoom": 8 }, "properties": { "halo": 0.8, "title": "普卡拉文化", "fontsize": 12, "tyid": "304002", "oid": "103:1576575146059", "color": "#262626" }, "geometry": { "type": "Point", "coordinates": [ -69.873047, -14.859850 ] } }
{ "type": "Feature", "tippecanoe": { "layer": "2AFCA12C24701583917891136", "minzoom": 2, "maxzoom": 8 }, "properties": { "halo": 0.8, "title": "艾马拉人", "fontsize": 12, "tyid": "304001", "oid": "103:1576575146062", "color": "#262626" }, "geometry": { "type": "Point", "coordinates": [ -68.291016, -17.224758 ] } }
{ "type": "Feature", "tippecanoe": { "layer": "2AFCA12C24701583917891136", "minzoom": 2, "maxzoom": 8 }, "properties": { "halo": 0.8, "title": "昌戈人", "fontsize": 12, "tyid": "304001", "oid": "103:1576575146045", "color": "#262626" }, "geometry": { "type": "Point", "coordinates": [ -69.960938, -23.725012 ] } }
{ "type": "Feature", "tippecanoe": { "layer": "2AFCA12C24701583917891136", "minzoom": 2, "maxzoom": 8 }, "properties": { "halo": 0.8, "title": "阿拉米托文化", "fontsize": 12, "tyid": "304002", "oid": "103:1576575146035", "color": "#262626" }, "geometry": { "type": "Point", "coordinates": [ -67.851562, -26.588527 ] } }
{ "type": "Feature", "tippecanoe": { "layer": "2AFCA12C24701583917891136", "minzoom": 2, "maxzoom": 8 }, "properties": { "halo": 0.8, "title": "埃尔莫尔文化", "fontsize": 12, "tyid": "304002", "oid": "103:1576575146081", "color": "#262626" }, "geometry": { "type": "Point", "coordinates": [ -70.927734, -30.675715 ] } }
{ "type": "Feature", "tippecanoe": { "layer": "2AFCA12C24701583917891136", "minzoom": 2, "maxzoom": 8 }, "properties": { "halo": 0.8, "title": "安西尔塔文化", "fontsize": 12, "tyid": "304002", "oid": "103:1576575146206", "color": "#262626" }, "geometry": { "type": "Point", "coordinates": [ -68.818359, -31.353637 ] } }
{ "type": "Feature", "tippecanoe": { "layer": "2AFCA12C24701583917891136", "minzoom": 2, "maxzoom": 8 }, "properties": { "halo": 0.8, "title": "巴托文化", "fontsize": 12, "tyid": "304002", "oid": "103:1576575146126", "color": "#262626" }, "geometry": { "type": "Point", "coordinates": [ -70.839844, -33.431441 ] } }
{ "type": "Feature", "tippecanoe": { "layer": "2AFCA12C24701583917891136", "minzoom": 2, "maxzoom": 8 }, "properties": { "halo": 0.8, "title": "马普切人", "fontsize": 12, "tyid": "304001", "oid": "103:1576575146051", "color": "#262626" }, "geometry": { "type": "Point", "coordinates": [ -71.455078, -38.959409 ] } }
{ "type": "Feature", "tippecanoe": { "layer": "2AFCA12C24701583917891136", "minzoom": 2, "maxzoom": 8 }, "properties": { "halo": 0.8, "title": "希德拉里卡文化", "fontsize": 12, "tyid": "304002", "oid": "103:1576575146041", "color": "#262626" }, "geometry": { "type": "Point", "coordinates": [ -66.005859, -12.297068 ] } }
{ "type": "Feature", "tippecanoe": { "layer": "2AFCA12C24701583917891136", "minzoom": 2, "maxzoom": 8 }, "properties": { "halo": 0.8, "title": "摩克索人", "fontsize": 12, "tyid": "304001", "oid": "103:1576575146438", "color": "#262626" }, "geometry": { "type": "Point", "coordinates": [ -65.830078, -13.923404 ] } }
{ "type": "Feature", "tippecanoe": { "layer": "2AFCA12C24701583917891136", "minzoom": 2, "maxzoom": 8 }, "properties": { "halo": 0.8, "title": "瓦卡拉尼文化", "fontsize": 12, "tyid": "304002", "oid": "103:1576575146061", "color": "#262626" }, "geometry": { "type": "Point", "coordinates": [ -64.951172, -17.811456 ] } }
{ "type": "Feature", "tippecanoe": { "layer": "2AFCA12C24701583917891136", "minzoom": 2, "maxzoom": 8 }, "properties": { "halo": 0.8, "title": "康多拉瓦西文化", "fontsize": 12, "tyid": "304002", "oid": "103:1576575146293", "color": "#262626" }, "geometry": { "type": "Point", "coordinates": [ -66.708984, -27.293689 ] } }
{ "type": "Feature", "tippecanoe": { "layer": "2AFCA12C24701583917891136", "minzoom": 2, "maxzoom": 8 }, "properties": { "halo": 0.8, "title": "拉斯梅塞德斯文化", "fontsize": 12, "tyid": "304002", "oid": "103:1576575146433", "color": "#262626" }, "geometry": { "type": "Point", "coordinates": [ -63.808594, -27.605671 ] } }
{ "type": "Feature", "tippecanoe": { "layer": "2AFCA12C24701583917891136", "minzoom": 2, "maxzoom": 8 }, "properties": { "halo": 0.8, "title": "查鲁亚人", "fontsize": 12, "tyid": "304001", "oid": "103:1576575146123", "color": "#262626" }, "geometry": { "type": "Point", "coordinates": [ -57.128906, -32.398516 ] } }
{ "type": "Feature", "tippecanoe": { "layer": "2AFCA12C24701583917891136", "minzoom": 2, "maxzoom": 8 }, "properties": { "halo": 0.8, "title": "特胡尔切人", "fontsize": 12, "tyid": "304001", "oid": "103:1576575146133", "color": "#262626" }, "geometry": { "type": "Point", "coordinates": [ -70.751953, -50.176898 ] } }
{ "type": "Feature", "tippecanoe": { "layer": "2AFCA12C24701583917891136", "minzoom": 2, "maxzoom": 8 }, "properties": { "halo": 0.8, "title": "塞尔克南人", "fontsize": 12, "tyid": "304001", "oid": "103:1576575146431", "color": "#262626" }, "geometry": { "type": "Point", "coordinates": [ -68.378906, -53.696706 ] } }
{ "type": "Feature", "tippecanoe": { "layer": "2AFCA12C24701583917891136", "minzoom": 2, "maxzoom": 8 }, "properties": { "halo": 0.8, "title": "雅干人", "fontsize": 12, "tyid": "304001", "oid": "103:1576575146362", "color": "#262626" }, "geometry": { "type": "Point", "coordinates": [ -68.554688, -54.521081 ] } }
{ "type": "Feature", "tippecanoe": { "layer": "2AFCA12C24701583917891136", "minzoom": 2, "maxzoom": 8 }, "properties": { "halo": 0.8, "title": "鲁基人", "fontsize": 12, "tyid": "304001", "oid": "103:1576575146176", "color": "#262626" }, "geometry": { "type": "Point", "coordinates": [ 6.679688, 59.265881 ] } }
{ "type": "Feature", "tippecanoe": { "layer": "2AFCA12C24701583917891136", "minzoom": 2, "maxzoom": 8 }, "properties": { "halo": 0.8, "title": "朱特人", "fontsize": 12, "tyid": "304001", "oid": "103:1576575146030", "color": "#262626" }, "geometry": { "type": "Point", "coordinates": [ 9.316406, 56.267761 ] } }
{ "type": "Feature", "tippecanoe": { "layer": "2AFCA12C24701583917891136", "minzoom": 2, "maxzoom": 8 }, "properties": { "halo": 0.8, "title": "耶阿特人", "fontsize": 12, "tyid": "304001", "oid": "103:1576575146177", "color": "#262626" }, "geometry": { "type": "Point", "coordinates": [ 13.710938, 57.657158 ] } }
{ "type": "Feature", "tippecanoe": { "layer": "2AFCA12C24701583917891136", "minzoom": 2, "maxzoom": 8 }, "properties": { "halo": 0.8, "title": "赫鲁利人", "fontsize": 12, "tyid": "304001", "oid": "103:1576575146029", "color": "#262626" }, "geometry": { "type": "Point", "coordinates": [ 13.447266, 55.875311 ] } }
{ "type": "Feature", "tippecanoe": { "layer": "2AFCA12C24701583917891136", "minzoom": 2, "maxzoom": 8 }, "properties": { "halo": 0.8, "title": "乔西人", "fontsize": 12, "tyid": "304001", "oid": "103:1576575146474", "color": "#262626" }, "geometry": { "type": "Point", "coordinates": [ 8.613281, 53.120405 ] } }
{ "type": "Feature", "tippecanoe": { "layer": "2AFCA12C24701583917891136", "minzoom": 2, "maxzoom": 8 }, "properties": { "halo": 0.8, "title": "弗里西人", "fontsize": 12, "tyid": "304001", "oid": "103:1576575146017", "color": "#262626" }, "geometry": { "type": "Point", "coordinates": [ 6.064453, 52.429222 ] } }
{ "type": "Feature", "tippecanoe": { "layer": "2AFCA12C24701583917891136", "minzoom": 2, "maxzoom": 8 }, "properties": { "halo": 0.8, "title": "查蒂人", "fontsize": 12, "tyid": "304001", "oid": "103:1576575146281", "color": "#262626" }, "geometry": { "type": "Point", "coordinates": [ 8.789062, 50.903033 ] } }
{ "type": "Feature", "tippecanoe": { "layer": "2AFCA12C24701583917891136", "minzoom": 2, "maxzoom": 8 }, "properties": { "halo": 0.8, "title": "切鲁西人", "fontsize": 12, "tyid": "304001", "oid": "103:1576575146266", "color": "#262626" }, "geometry": { "type": "Point", "coordinates": [ 10.634766, 52.429222 ] } }
{ "type": "Feature", "tippecanoe": { "layer": "2AFCA12C24701583917891136", "minzoom": 2, "maxzoom": 8 }, "properties": { "halo": 0.8, "title": "赫门杜里人", "fontsize": 12, "tyid": "304001", "oid": "103:1576575146472", "color": "#262626" }, "geometry": { "type": "Point", "coordinates": [ 11.162109, 50.345460 ] } }
{ "type": "Feature", "tippecanoe": { "layer": "2AFCA12C24701583917891136", "minzoom": 2, "maxzoom": 8 }, "properties": { "halo": 0.8, "title": "伦巴第人", "fontsize": 12, "tyid": "304001", "oid": "103:1576575146018", "color": "#262626" }, "geometry": { "type": "Point", "coordinates": [ 12.656250, 53.540307 ] } }
{ "type": "Feature", "tippecanoe": { "layer": "2AFCA12C24701583917891136", "minzoom": 2, "maxzoom": 8 }, "properties": { "halo": 0.8, "title": "勃艮第人", "fontsize": 12, "tyid": "304001", "oid": "103:1576575146143", "color": "#262626" }, "geometry": { "type": "Point", "coordinates": [ 16.611328, 53.748711 ] } }
{ "type": "Feature", "tippecanoe": { "layer": "2AFCA12C24701583917891136", "minzoom": 2, "maxzoom": 8 }, "properties": { "halo": 0.8, "title": "苏维汇人", "fontsize": 12, "tyid": "304001", "oid": "103:1576575146390", "color": "#262626" }, "geometry": { "type": "Point", "coordinates": [ 13.271484, 51.672555 ] } }
{ "type": "Feature", "tippecanoe": { "layer": "2AFCA12C24701583917891136", "minzoom": 2, "maxzoom": 8 }, "properties": { "halo": 0.8, "title": "马科曼尼人", "fontsize": 12, "tyid": "304001", "oid": "103:1576575146164", "color": "#262626" }, "geometry": { "type": "Point", "coordinates": [ 14.501953, 49.610710 ] } }
{ "type": "Feature", "tippecanoe": { "layer": "2AFCA12C24701583917891136", "minzoom": 2, "maxzoom": 8 }, "properties": { "halo": 0.8, "title": "格皮德人", "fontsize": 12, "tyid": "304001", "oid": "103:1576575146181", "color": "#262626" }, "geometry": { "type": "Point", "coordinates": [ 19.687500, 53.278353 ] } }
{ "type": "Feature", "tippecanoe": { "layer": "2AFCA12C24701583917891136", "minzoom": 2, "maxzoom": 8 }, "properties": { "halo": 0.8, "title": "卢基人", "fontsize": 12, "tyid": "304001", "oid": "103:1576575146484", "color": "#262626" }, "geometry": { "type": "Point", "coordinates": [ 17.490234, 51.998410 ] } }
{ "type": "Feature", "tippecanoe": { "layer": "2AFCA12C24701583917891136", "minzoom": 2, "maxzoom": 8 }, "properties": { "halo": 0.8, "title": "汪达尔人", "fontsize": 12, "tyid": "304001", "oid": "103:1576575146276", "color": "#262626" }, "geometry": { "type": "Point", "coordinates": [ 19.160156, 50.736455 ] } }
{ "type": "Feature", "tippecanoe": { "layer": "2AFCA12C24701583917891136", "minzoom": 2, "maxzoom": 8 }, "properties": { "halo": 0.8, "title": "哥蒂尼人", "fontsize": 12, "tyid": "304001", "oid": "103:1576575146160", "color": "#262626" }, "geometry": { "type": "Point", "coordinates": [ 21.796875, 49.210420 ] } }
{ "type": "Feature", "tippecanoe": { "layer": "2AFCA12C24701583917891136", "minzoom": 2, "maxzoom": 8 }, "properties": { "halo": 0.8, "title": "夸迪人", "fontsize": 12, "tyid": "304001", "oid": "103:1576575146161", "color": "#262626" }, "geometry": { "type": "Point", "coordinates": [ 18.369141, 48.864715 ] } }
{ "type": "Feature", "tippecanoe": { "layer": "2AFCA12C24701583917891136", "minzoom": 2, "maxzoom": 8 }, "properties": { "halo": 0.8, "title": "埃阿热格人", "fontsize": 12, "tyid": "304001", "oid": "103:1576575146072", "color": "#262626" }, "geometry": { "type": "Point", "coordinates": [ 20.478516, 46.800059 ] } }
{ "type": "Feature", "tippecanoe": { "layer": "2AFCA12C24701583917891136", "minzoom": 2, "maxzoom": 8 }, "properties": { "halo": 0.8, "title": "古爱沙尼亚人", "fontsize": 12, "tyid": "304001", "oid": "103:1576575146419", "color": "#262626" }, "geometry": { "type": "Point", "coordinates": [ 25.576172, 58.995311 ] } }
{ "type": "Feature", "tippecanoe": { "layer": "2AFCA12C24701583917891136", "minzoom": 2, "maxzoom": 8 }, "properties": { "halo": 0.8, "title": "利沃尼亚人", "fontsize": 12, "tyid": "304001", "oid": "103:1576575146313", "color": "#262626" }, "geometry": { "type": "Point", "coordinates": [ 25.839844, 58.170702 ] } }
{ "type": "Feature", "tippecanoe": { "layer": "2AFCA12C24701583917891136", "minzoom": 2, "maxzoom": 8 }, "properties": { "halo": 0.8, "title": "古拉脱维亚人", "fontsize": 12, "tyid": "304001", "oid": "103:1576575146172", "color": "#262626" }, "geometry": { "type": "Point", "coordinates": [ 26.630859, 56.848972 ] } }
{ "type": "Feature", "tippecanoe": { "layer": "2AFCA12C24701583917891136", "minzoom": 2, "maxzoom": 8 }, "properties": { "halo": 0.8, "title": "沃茨人", "fontsize": 12, "tyid": "304001", "oid": "103:1576575146309", "color": "#262626" }, "geometry": { "type": "Point", "coordinates": [ 29.794922, 59.040555 ] } }
{ "type": "Feature", "tippecanoe": { "layer": "2AFCA12C24701583917891136", "minzoom": 2, "maxzoom": 8 }, "properties": { "halo": 0.8, "title": "达契亚人", "fontsize": 12, "tyid": "304001", "oid": "103:1576575146158", "color": "#262626" }, "geometry": { "type": "Point", "coordinates": [ 24.960938, 46.073231 ] } }
{ "type": "Feature", "tippecanoe": { "layer": "2AFCA12C24701583917891136", "minzoom": 2, "maxzoom": 8 }, "properties": { "halo": 0.8, "title": "科斯多波克人", "fontsize": 12, "tyid": "304001", "oid": "103:1576575146359", "color": "#262626" }, "geometry": { "type": "Point", "coordinates": [ 27.158203, 46.860191 ] } }
{ "type": "Feature", "tippecanoe": { "layer": "2AFCA12C24701583917891136", "minzoom": 2, "maxzoom": 8 }, "properties": { "halo": 0.8, "title": "达契亚王国", "fontsize": 12, "tyid": "304000", "oid": "103:1576575146082", "color": "#202020" }, "geometry": { "type": "Point", "coordinates": [ 23.027344, 45.026950 ] } }
{ "type": "Feature", "tippecanoe": { "layer": "2AFCA12C24701583917891136", "minzoom": 2, "maxzoom": 8 }, "properties": { "halo": 0.8, "title": "奥德里西亚王国", "fontsize": 12, "tyid": "304000", "oid": "103:1576575146477", "color": "#202020" }, "geometry": { "type": "Point", "coordinates": [ 25.927734, 41.902277 ] } }
{ "type": "Feature", "tippecanoe": { "layer": "2AFCA12C24701583917891136", "minzoom": 2, "maxzoom": 8 }, "properties": { "halo": 0.8, "title": "巴斯塔奈人", "fontsize": 12, "tyid": "304001", "oid": "103:1576575146365", "color": "#262626" }, "geometry": { "type": "Point", "coordinates": [ 29.179688, 47.338823 ] } }
{ "type": "Feature", "tippecanoe": { "layer": "2AFCA12C24701583917891136", "minzoom": 2, "maxzoom": 8 }, "properties": { "halo": 0.8, "title": "斯基泰人", "fontsize": 12, "tyid": "304001", "oid": "103:1576575146491", "color": "#262626" }, "geometry": { "type": "Point", "coordinates": [ 33.925781, 46.498392 ] } }
{ "type": "Feature", "tippecanoe": { "layer": "2AFCA12C24701583917891136", "minzoom": 2, "maxzoom": 8 }, "properties": { "halo": 0.8, "title": "罗克索拉尼人", "fontsize": 12, "tyid": "304001", "oid": "103:1576575146167", "color": "#262626" }, "geometry": { "type": "Point", "coordinates": [ 39.111328, 48.341646 ] } }
{ "type": "Feature", "tippecanoe": { "layer": "2AFCA12C24701583917891136", "minzoom": 2, "maxzoom": 8 }, "properties": { "halo": 0.8, "title": "博斯普鲁斯王国", "fontsize": 12, "tyid": "304000", "oid": "103:1576575146541", "color": "#202020" }, "geometry": { "type": "Point", "coordinates": [ 38.408203, 45.213004 ] } }
{ "type": "Feature", "tippecanoe": { "layer": "2AFCA12C24701583917891136", "minzoom": 2, "maxzoom": 8 }, "properties": { "halo": 0.8, "title": "西雷斯人", "fontsize": 12, "tyid": "304001", "oid": "103:1576575146504", "color": "#262626" }, "geometry": { "type": "Point", "coordinates": [ 41.484375, 45.583290 ] } }
{ "type": "Feature", "tippecanoe": { "layer": "2AFCA12C24701583917891136", "minzoom": 2, "maxzoom": 8 }, "properties": { "halo": 0.8, "title": "切尔克斯人", "fontsize": 12, "tyid": "304001", "oid": "103:1576575146499", "color": "#262626" }, "geometry": { "type": "Point", "coordinates": [ 41.835938, 43.771094 ] } }
{ "type": "Feature", "tippecanoe": { "layer": "2AFCA12C24701583917891136", "minzoom": 2, "maxzoom": 8 }, "properties": { "halo": 0.8, "title": "科尔基斯王国", "fontsize": 12, "tyid": "304000", "oid": "103:1576575146551", "color": "#202020" }, "geometry": { "type": "Point", "coordinates": [ 42.451172, 42.617791 ] } }
{ "type": "Feature", "tippecanoe": { "layer": "2AFCA12C24701583917891136", "minzoom": 2, "maxzoom": 8 }, "properties": { "halo": 0.8, "title": "高加索伊比利亚王国", "fontsize": 12, "tyid": "304000", "oid": "103:1576575146522", "color": "#202020" }, "geometry": { "type": "Point", "coordinates": [ 43.769531, 41.574361 ] } }
{ "type": "Feature", "tippecanoe": { "layer": "2AFCA12C24701583917891136", "minzoom": 2, "maxzoom": 8 }, "properties": { "halo": 0.8, "title": "盖图里人", "fontsize": 12, "tyid": "304001", "oid": "103:1576575146286", "color": "#262626" }, "geometry": { "type": "Point", "coordinates": [ 1.933594, 34.234512 ] } }
{ "type": "Feature", "tippecanoe": { "layer": "2AFCA12C24701583917891136", "minzoom": 2, "maxzoom": 8 }, "properties": { "halo": 0.8, "title": "毛里塔尼亚王国", "fontsize": 12, "tyid": "304000", "oid": "103:1576575146320", "color": "#202020" }, "geometry": { "type": "Point", "coordinates": [ 2.988281, 36.031332 ] } }
{ "type": "Feature", "tippecanoe": { "layer": "2AFCA12C24701583917891136", "minzoom": 2, "maxzoom": 8 }, "properties": { "halo": 0.8, "title": "加拉曼特王国", "fontsize": 12, "tyid": "304000", "oid": "103:1576575146517", "color": "#202020" }, "geometry": { "type": "Point", "coordinates": [ 13.886719, 26.902477 ] } }
{ "type": "Feature", "tippecanoe": { "layer": "2AFCA12C24701583917891136", "minzoom": 2, "maxzoom": 8 }, "properties": { "halo": 0.8, "title": "约鲁巴人", "fontsize": 12, "tyid": "304001", "oid": "103:1576575146327", "color": "#262626" }, "geometry": { "type": "Point", "coordinates": [ 3.427734, 7.536764 ] } }
{ "type": "Feature", "tippecanoe": { "layer": "2AFCA12C24701583917891136", "minzoom": 2, "maxzoom": 8 }, "properties": { "halo": 0.8, "title": "伊博人", "fontsize": 12, "tyid": "304001", "oid": "103:1576575146244", "color": "#262626" }, "geometry": { "type": "Point", "coordinates": [ 7.998047, 5.965754 ] } }
{ "type": "Feature", "tippecanoe": { "layer": "2AFCA12C24701583917891136", "minzoom": 2, "maxzoom": 8 }, "properties": { "halo": 0.8, "title": "本都王国", "fontsize": 12, "tyid": "304000", "oid": "103:1576575146529", "color": "#202020" }, "geometry": { "type": "Point", "coordinates": [ 36.914062, 40.580585 ] } }
{ "type": "Feature", "tippecanoe": { "layer": "2AFCA12C24701583917891136", "minzoom": 2, "maxzoom": 8 }, "properties": { "halo": 0.8, "title": "小亚美尼亚王国", "fontsize": 12, "tyid": "304000", "oid": "103:1576575146553", "color": "#202020" }, "geometry": { "type": "Point", "coordinates": [ 39.111328, 40.111689 ] } }
{ "type": "Feature", "tippecanoe": { "layer": "2AFCA12C24701583917891136", "minzoom": 2, "maxzoom": 8 }, "properties": { "halo": 0.8, "title": "奥斯若恩王国", "fontsize": 12, "tyid": "304000", "oid": "103:1576575146009", "color": "#202020" }, "geometry": { "type": "Point", "coordinates": [ 38.759766, 36.949892 ] } }
{ "type": "Feature", "tippecanoe": { "layer": "2AFCA12C24701583917891136", "minzoom": 2, "maxzoom": 8 }, "properties": { "halo": 0.8, "title": "帕尔米拉酋长国", "fontsize": 12, "tyid": "304000", "oid": "103:1576575146011", "color": "#202020" }, "geometry": { "type": "Point", "coordinates": [ 38.583984, 34.813803 ] } }
{ "type": "Feature", "tippecanoe": { "layer": "2AFCA12C24701583917891136", "minzoom": 2, "maxzoom": 8 }, "properties": { "halo": 0.8, "title": "阿迪亚波纳王国", "fontsize": 12, "tyid": "304000", "oid": "103:1576575146554", "color": "#202020" }, "geometry": { "type": "Point", "coordinates": [ 43.945312, 36.597889 ] } }
{ "type": "Feature", "tippecanoe": { "layer": "2AFCA12C24701583917891136", "minzoom": 2, "maxzoom": 8 }, "properties": { "halo": 0.8, "title": "布雷米耶国", "fontsize": 12, "tyid": "304001", "oid": "103:1576575146015", "color": "#262626" }, "geometry": { "type": "Point", "coordinates": [ 34.980469, 21.453069 ] } }
{ "type": "Feature", "tippecanoe": { "layer": "2AFCA12C24701583917891136", "minzoom": 2, "maxzoom": 8 }, "properties": { "halo": 0.8, "title": "贝扎人", "fontsize": 12, "tyid": "304001", "oid": "103:1576575146324", "color": "#262626" }, "geometry": { "type": "Point", "coordinates": [ 35.771484, 16.383391 ] } }
{ "type": "Feature", "tippecanoe": { "layer": "2AFCA12C24701583917891136", "minzoom": 2, "maxzoom": 8 }, "properties": { "halo": 0.8, "title": "高原诸小王国", "fontsize": 12, "tyid": "304002", "oid": "103:1576575146287", "color": "#262626" }, "geometry": { "type": "Point", "coordinates": [ 38.232422, 16.467695 ] } }
{ "type": "Feature", "tippecanoe": { "layer": "2AFCA12C24701583917891136", "minzoom": 2, "maxzoom": 8 }, "properties": { "halo": 0.8, "title": "肯德部落", "fontsize": 12, "tyid": "304001", "oid": "103:1576575146086", "color": "#262626" }, "geometry": { "type": "Point", "coordinates": [ 44.296875, 19.311143 ] } }
{ "type": "Feature", "tippecanoe": { "layer": "2AFCA12C24701583917891136", "minzoom": 2, "maxzoom": 8 }, "properties": { "halo": 0.8, "title": "原始-阿克苏姆铁器时代", "fontsize": 12, "tyid": "304002", "oid": "103:1576575146349", "color": "#262626" }, "geometry": { "type": "Point", "coordinates": [ 40.517578, 13.325485 ] } }
{ "type": "Feature", "tippecanoe": { "layer": "2AFCA12C24701583917891136", "minzoom": 2, "maxzoom": 8 }, "properties": { "halo": 0.8, "title": "巴基尔联盟", "fontsize": 12, "tyid": "304002", "oid": "103:1576575146380", "color": "#262626" }, "geometry": { "type": "Point", "coordinates": [ 43.593750, 15.792254 ] } }
{ "type": "Feature", "tippecanoe": { "layer": "2AFCA12C24701583917891136", "minzoom": 2, "maxzoom": 8 }, "properties": { "halo": 0.8, "title": "希木叶尔王国", "fontsize": 12, "tyid": "304000", "oid": "103:1576575146340", "color": "#202020" }, "geometry": { "type": "Point", "coordinates": [ 44.736328, 13.667338 ] } }
{ "type": "Feature", "tippecanoe": { "layer": "2AFCA12C24701583917891136", "minzoom": 2, "maxzoom": 8 }, "properties": { "halo": 0.8, "title": "派诺博尔斯基文化", "fontsize": 12, "tyid": "304002", "oid": "103:1576575146417", "color": "#262626" }, "geometry": { "type": "Point", "coordinates": [ 50.449219, 56.897004 ] } }
{ "type": "Feature", "tippecanoe": { "layer": "2AFCA12C24701583917891136", "minzoom": 2, "maxzoom": 8 }, "properties": { "halo": 0.8, "title": "奥苏伊人", "fontsize": 12, "tyid": "304001", "oid": "103:1576575146501", "color": "#262626" }, "geometry": { "type": "Point", "coordinates": [ 45.439453, 45.951150 ] } }
{ "type": "Feature", "tippecanoe": { "layer": "2AFCA12C24701583917891136", "minzoom": 2, "maxzoom": 8 }, "properties": { "halo": 0.8, "title": "纳赫人", "fontsize": 12, "tyid": "304001", "oid": "103:1576575146494", "color": "#262626" }, "geometry": { "type": "Point", "coordinates": [ 46.054688, 42.875964 ] } }
{ "type": "Feature", "tippecanoe": { "layer": "2AFCA12C24701583917891136", "minzoom": 2, "maxzoom": 8 }, "properties": { "halo": 0.8, "title": "马萨格泰人", "fontsize": 12, "tyid": "304001", "oid": "103:1576575146336", "color": "#262626" }, "geometry": { "type": "Point", "coordinates": [ 63.808594, 49.037868 ] } }
{ "type": "Feature", "tippecanoe": { "layer": "2AFCA12C24701583917891136", "minzoom": 2, "maxzoom": 8 }, "properties": { "halo": 0.8, "title": "塞迦人", "fontsize": 12, "tyid": "304001", "oid": "103:1576575146301", "color": "#262626" }, "geometry": { "type": "Point", "coordinates": [ 56.513672, 42.098222 ] } }
{ "type": "Feature", "tippecanoe": { "layer": "2AFCA12C24701583917891136", "minzoom": 2, "maxzoom": 8 }, "properties": { "halo": 0.8, "title": "驩潜国", "fontsize": 12, "tyid": "304000", "oid": "103:1576575146506", "color": "#202020" }, "geometry": { "type": "Point", "coordinates": [ 59.765625, 42.488302 ] } }
{ "type": "Feature", "tippecanoe": { "layer": "2AFCA12C24701583917891136", "minzoom": 2, "maxzoom": 8 }, "properties": { "halo": 0.8, "title": "龟兹国", "fontsize": 12, "tyid": "304000", "oid": "103:1576575146372", "color": "#202020" }, "geometry": { "type": "Point", "coordinates": [ 83.408203, 41.376809 ] } }
{ "type": "Feature", "tippecanoe": { "layer": "2AFCA12C24701583917891136", "minzoom": 2, "maxzoom": 8 }, "properties": { "halo": 0.8, "title": "焉耆国", "fontsize": 12, "tyid": "304000", "oid": "103:1576575146457", "color": "#202020" }, "geometry": { "type": "Point", "coordinates": [ 85.693359, 41.640078 ] } }
{ "type": "Feature", "tippecanoe": { "layer": "2AFCA12C24701583917891136", "minzoom": 2, "maxzoom": 8 }, "properties": { "halo": 0.8, "title": "车师后国", "fontsize": 12, "tyid": "304000", "oid": "103:1576575145992", "color": "#202020" }, "geometry": { "type": "Point", "coordinates": [ 89.912109, 43.771094 ] } }
{ "type": "Feature", "tippecanoe": { "layer": "2AFCA12C24701583917891136", "minzoom": 2, "maxzoom": 8 }, "properties": { "halo": 0.8, "title": "危须国", "fontsize": 12, "tyid": "304000", "oid": "103:1576575146353", "color": "#202020" }, "geometry": { "type": "Point", "coordinates": [ 87.363281, 42.423457 ] } }
{ "type": "Feature", "tippecanoe": { "layer": "2AFCA12C24701583917891136", "minzoom": 2, "maxzoom": 8 }, "properties": { "halo": 0.8, "title": "车师前国", "fontsize": 12, "tyid": "304000", "oid": "103:1576575145978", "color": "#202020" }, "geometry": { "type": "Point", "coordinates": [ 89.736328, 43.004647 ] } }
{ "type": "Feature", "tippecanoe": { "layer": "2AFCA12C24701583917891136", "minzoom": 2, "maxzoom": 8 }, "properties": { "halo": 0.8, "title": "墨山国", "fontsize": 12, "tyid": "304000", "oid": "103:1576575146401", "color": "#202020" }, "geometry": { "type": "Point", "coordinates": [ 88.593750, 41.310824 ] } }
{ "type": "Feature", "tippecanoe": { "layer": "2AFCA12C24701583917891136", "minzoom": 2, "maxzoom": 8 }, "properties": { "halo": 0.8, "title": "高加索阿尔巴尼亚王国", "fontsize": 12, "tyid": "304000", "oid": "103:1576575146508", "color": "#202020" }, "geometry": { "type": "Point", "coordinates": [ 47.900391, 40.713956 ] } }
{ "type": "Feature", "tippecanoe": { "layer": "2AFCA12C24701583917891136", "minzoom": 2, "maxzoom": 8 }, "properties": { "halo": 0.8, "title": "阿特罗帕特尼王国", "fontsize": 12, "tyid": "304000", "oid": "103:1576575146528", "color": "#202020" }, "geometry": { "type": "Point", "coordinates": [ 47.988281, 38.065392 ] } }
{ "type": "Feature", "tippecanoe": { "layer": "2AFCA12C24701583917891136", "minzoom": 2, "maxzoom": 8 }, "properties": { "halo": 0.8, "title": "查拉塞尼王国", "fontsize": 12, "tyid": "304000", "oid": "103:1576575146533", "color": "#202020" }, "geometry": { "type": "Point", "coordinates": [ 47.460938, 31.278551 ] } }
{ "type": "Feature", "tippecanoe": { "layer": "2AFCA12C24701583917891136", "minzoom": 2, "maxzoom": 8 }, "properties": { "halo": 0.8, "title": "埃利迈斯王国", "fontsize": 12, "tyid": "304000", "oid": "103:1576575146534", "color": "#202020" }, "geometry": { "type": "Point", "coordinates": [ 49.130859, 31.653381 ] } }
{ "type": "Feature", "tippecanoe": { "layer": "2AFCA12C24701583917891136", "minzoom": 2, "maxzoom": 8 }, "properties": { "halo": 0.8, "title": "波西斯", "fontsize": 12, "tyid": "304000", "oid": "103:1576575146546", "color": "#202020" }, "geometry": { "type": "Point", "coordinates": [ 53.173828, 28.998532 ] } }
{ "type": "Feature", "tippecanoe": { "layer": "2AFCA12C24701583917891136", "minzoom": 2, "maxzoom": 8 }, "properties": { "halo": 0.8, "title": "塞巴王国", "fontsize": 12, "tyid": "304000", "oid": "103:1576575146492", "color": "#202020" }, "geometry": { "type": "Point", "coordinates": [ 45.439453, 15.368950 ] } }
{ "type": "Feature", "tippecanoe": { "layer": "2AFCA12C24701583917891136", "minzoom": 2, "maxzoom": 8 }, "properties": { "halo": 0.8, "title": "阿德王国", "fontsize": 12, "tyid": "304000", "oid": "103:1576575146240", "color": "#202020" }, "geometry": { "type": "Point", "coordinates": [ 52.382812, 18.646245 ] } }
{ "type": "Feature", "tippecanoe": { "layer": "2AFCA12C24701583917891136", "minzoom": 2, "maxzoom": 8 }, "properties": { "halo": 0.8, "title": "哈德拉毛王国", "fontsize": 12, "tyid": "304000", "oid": "103:1576575146334", "color": "#202020" }, "geometry": { "type": "Point", "coordinates": [ 50.976562, 16.299051 ] } }
{ "type": "Feature", "tippecanoe": { "layer": "2AFCA12C24701583917891136", "minzoom": 2, "maxzoom": 8 }, "properties": { "halo": 0.8, "title": "大宛国", "fontsize": 12, "tyid": "304000", "oid": "103:1576575146284", "color": "#202020" }, "geometry": { "type": "Point", "coordinates": [ 71.455078, 40.713956 ] } }
{ "type": "Feature", "tippecanoe": { "layer": "2AFCA12C24701583917891136", "minzoom": 2, "maxzoom": 8 }, "properties": { "halo": 0.8, "title": "休循国", "fontsize": 12, "tyid": "304000", "oid": "103:1576575146366", "color": "#202020" }, "geometry": { "type": "Point", "coordinates": [ 72.773438, 39.504041 ] } }
{ "type": "Feature", "tippecanoe": { "layer": "2AFCA12C24701583917891136", "minzoom": 2, "maxzoom": 8 }, "properties": { "halo": 0.8, "title": "罽宾国", "fontsize": 12, "tyid": "304000", "oid": "103:1576575146183", "color": "#202020" }, "geometry": { "type": "Point", "coordinates": [ 72.773438, 34.885931 ] } }
{ "type": "Feature", "tippecanoe": { "layer": "2AFCA12C24701583917891136", "minzoom": 2, "maxzoom": 8 }, "properties": { "halo": 0.8, "title": "捐毒国", "fontsize": 12, "tyid": "304000", "oid": "103:1576575146456", "color": "#202020" }, "geometry": { "type": "Point", "coordinates": [ 74.970703, 39.707187 ] } }
{ "type": "Feature", "tippecanoe": { "layer": "2AFCA12C24701583917891136", "minzoom": 2, "maxzoom": 8 }, "properties": { "halo": 0.8, "title": "无雷国", "fontsize": 12, "tyid": "304000", "oid": "103:1576575146363", "color": "#202020" }, "geometry": { "type": "Point", "coordinates": [ 73.476562, 38.065392 ] } }
{ "type": "Feature", "tippecanoe": { "layer": "2AFCA12C24701583917891136", "minzoom": 2, "maxzoom": 8 }, "properties": { "halo": 0.8, "title": "尉头国", "fontsize": 12, "tyid": "304000", "oid": "103:1576575146465", "color": "#202020" }, "geometry": { "type": "Point", "coordinates": [ 78.222656, 40.313043 ] } }
{ "type": "Feature", "tippecanoe": { "layer": "2AFCA12C24701583917891136", "minzoom": 2, "maxzoom": 8 }, "properties": { "halo": 0.8, "title": "莎车国", "fontsize": 12, "tyid": "304000", "oid": "103:1576575146044", "color": "#202020" }, "geometry": { "type": "Point", "coordinates": [ 77.431641, 38.822591 ] } }
{ "type": "Feature", "tippecanoe": { "layer": "2AFCA12C24701583917891136", "minzoom": 2, "maxzoom": 8 }, "properties": { "halo": 0.8, "title": "西夜国", "fontsize": 12, "tyid": "304000", "oid": "103:1576575146166", "color": "#202020" }, "geometry": { "type": "Point", "coordinates": [ 78.046875, 36.949892 ] } }
{ "type": "Feature", "tippecanoe": { "layer": "2AFCA12C24701583917891136", "minzoom": 2, "maxzoom": 8 }, "properties": { "halo": 0.8, "title": "乌秅国", "fontsize": 12, "tyid": "304000", "oid": "103:1576575146441", "color": "#202020" }, "geometry": { "type": "Point", "coordinates": [ 76.728516, 36.385913 ] } }
{ "type": "Feature", "tippecanoe": { "layer": "2AFCA12C24701583917891136", "minzoom": 2, "maxzoom": 8 }, "properties": { "halo": 0.8, "title": "古宁陀王国", "fontsize": 12, "tyid": "304000", "oid": "103:1576575146104", "color": "#202020" }, "geometry": { "type": "Point", "coordinates": [ 76.816406, 31.503629 ] } }
{ "type": "Feature", "tippecanoe": { "layer": "2AFCA12C24701583917891136", "minzoom": 2, "maxzoom": 8 }, "properties": { "halo": 0.8, "title": "姑墨国", "fontsize": 12, "tyid": "304000", "oid": "103:1576575146471", "color": "#202020" }, "geometry": { "type": "Point", "coordinates": [ 80.595703, 40.847060 ] } }
{ "type": "Feature", "tippecanoe": { "layer": "2AFCA12C24701583917891136", "minzoom": 2, "maxzoom": 8 }, "properties": { "halo": 0.8, "title": "于阗国", "fontsize": 12, "tyid": "304000", "oid": "103:1576575145981", "color": "#202020" }, "geometry": { "type": "Point", "coordinates": [ 80.156250, 38.272689 ] } }
{ "type": "Feature", "tippecanoe": { "layer": "2AFCA12C24701583917891136", "minzoom": 2, "maxzoom": 8 }, "properties": { "halo": 0.8, "title": "扜弥国", "fontsize": 12, "tyid": "304000", "oid": "103:1576575145994", "color": "#202020" }, "geometry": { "type": "Point", "coordinates": [ 81.914062, 38.616870 ] } }
{ "type": "Feature", "tippecanoe": { "layer": "2AFCA12C24701583917891136", "minzoom": 2, "maxzoom": 8 }, "properties": { "halo": 0.8, "title": "精绝国", "fontsize": 12, "tyid": "304000", "oid": "103:1576575146205", "color": "#202020" }, "geometry": { "type": "Point", "coordinates": [ 82.880859, 37.509726 ] } }
{ "type": "Feature", "tippecanoe": { "layer": "2AFCA12C24701583917891136", "minzoom": 2, "maxzoom": 8 }, "properties": { "halo": 0.8, "title": "且末国", "fontsize": 12, "tyid": "304000", "oid": "103:1576575146108", "color": "#202020" }, "geometry": { "type": "Point", "coordinates": [ 85.517578, 38.134557 ] } }
{ "type": "Feature", "tippecanoe": { "layer": "2AFCA12C24701583917891136", "minzoom": 2, "maxzoom": 8 }, "properties": { "halo": 0.8, "title": "鄯善国", "fontsize": 12, "tyid": "304000", "oid": "103:1576575146469", "color": "#202020" }, "geometry": { "type": "Point", "coordinates": [ 88.945312, 39.774769 ] } }
{ "type": "Feature", "tippecanoe": { "layer": "2AFCA12C24701583917891136", "minzoom": 2, "maxzoom": 8 }, "properties": { "halo": 0.8, "title": "般遮罗国", "fontsize": 12, "tyid": "304000", "oid": "103:1576575145984", "color": "#202020" }, "geometry": { "type": "Point", "coordinates": [ 79.541016, 28.690588 ] } }
{ "type": "Feature", "tippecanoe": { "layer": "2AFCA12C24701583917891136", "minzoom": 2, "maxzoom": 8 }, "properties": { "halo": 0.8, "title": "克拉底王国", "fontsize": 12, "tyid": "304000", "oid": "103:1576575145989", "color": "#202020" }, "geometry": { "type": "Point", "coordinates": [ 84.199219, 28.071980 ] } }
{ "type": "Feature", "tippecanoe": { "layer": "2AFCA12C24701583917891136", "minzoom": 2, "maxzoom": 8 }, "properties": { "halo": 0.8, "title": "耽摩栗底国", "fontsize": 12, "tyid": "304000", "oid": "103:1576575146373", "color": "#202020" }, "geometry": { "type": "Point", "coordinates": [ 88.593750, 22.836946 ] } }
{ "type": "Feature", "tippecanoe": { "layer": "2AFCA12C24701583917891136", "minzoom": 2, "maxzoom": 8 }, "properties": { "halo": 0.8, "title": "楚图王朝", "fontsize": 12, "tyid": "304000", "oid": "103:1576575146463", "color": "#202020" }, "geometry": { "type": "Point", "coordinates": [ 75.058594, 15.368950 ] } }
{ "type": "Feature", "tippecanoe": { "layer": "2AFCA12C24701583917891136", "minzoom": 2, "maxzoom": 8 }, "properties": { "halo": 0.8, "title": "阿西亚曼王国", "fontsize": 12, "tyid": "304000", "oid": "103:1576575146460", "color": "#202020" }, "geometry": { "type": "Point", "coordinates": [ 76.992188, 12.554564 ] } }
{ "type": "Feature", "tippecanoe": { "layer": "2AFCA12C24701583917891136", "minzoom": 2, "maxzoom": 8 }, "properties": { "halo": 0.8, "title": "哲罗国", "fontsize": 12, "tyid": "304000", "oid": "103:1576575146146", "color": "#202020" }, "geometry": { "type": "Point", "coordinates": [ 76.464844, 10.314919 ] } }
{ "type": "Feature", "tippecanoe": { "layer": "2AFCA12C24701583917891136", "minzoom": 2, "maxzoom": 8 }, "properties": { "halo": 0.8, "title": "潘地亚王国", "fontsize": 12, "tyid": "304000", "oid": "103:1576575145975", "color": "#202020" }, "geometry": { "type": "Point", "coordinates": [ 77.958984, 9.535749 ] } }
{ "type": "Feature", "tippecanoe": { "layer": "2AFCA12C24701583917891136", "minzoom": 2, "maxzoom": 8 }, "properties": { "halo": 0.8, "title": "朱罗国", "fontsize": 12, "tyid": "304000", "oid": "103:1576575146443", "color": "#202020" }, "geometry": { "type": "Point", "coordinates": [ 78.925781, 11.264612 ] } }
{ "type": "Feature", "tippecanoe": { "layer": "2AFCA12C24701583917891136", "minzoom": 2, "maxzoom": 8 }, "properties": { "halo": 0.8, "title": "质多王朝", "fontsize": 12, "tyid": "304000", "oid": "103:1576575146227", "color": "#202020" }, "geometry": { "type": "Point", "coordinates": [ 84.375000, 20.385825 ] } }
{ "type": "Feature", "tippecanoe": { "layer": "2AFCA12C24701583917891136", "minzoom": 2, "maxzoom": 8 }, "properties": { "halo": 0.8, "title": "阿努拉德普勒王国", "fontsize": 12, "tyid": "304000", "oid": "103:1576575146341", "color": "#202020" }, "geometry": { "type": "Point", "coordinates": [ 80.683594, 7.623887 ] } }
{ "type": "Feature", "tippecanoe": { "layer": "2AFCA12C24701583917891136", "minzoom": 2, "maxzoom": 8 }, "properties": { "halo": 0.8, "title": "蒲类后国", "fontsize": 12, "tyid": "304000", "oid": "103:1576575146545", "color": "#202020" }, "geometry": { "type": "Point", "coordinates": [ 92.373047, 43.897892 ] } }
{ "type": "Feature", "tippecanoe": { "layer": "2AFCA12C24701583917891136", "minzoom": 2, "maxzoom": 8 }, "properties": { "halo": 0.8, "title": "蒲类前国", "fontsize": 12, "tyid": "304000", "oid": "103:1576575146467", "color": "#202020" }, "geometry": { "type": "Point", "coordinates": [ 93.515625, 42.747012 ] } }
{ "type": "Feature", "tippecanoe": { "layer": "2AFCA12C24701583917891136", "minzoom": 2, "maxzoom": 8 }, "properties": { "halo": 0.8, "title": "高句丽", "fontsize": 12, "tyid": "304000", "oid": "103:1576575146237", "color": "#202020" }, "geometry": { "type": "Point", "coordinates": [ 125.507812, 41.508577 ] } }
{ "type": "Feature", "tippecanoe": { "layer": "2AFCA12C24701583917891136", "minzoom": 2, "maxzoom": 8 }, "properties": { "halo": 0.8, "title": "北沃沮", "fontsize": 12, "tyid": "304001", "oid": "103:1576575146381", "color": "#262626" }, "geometry": { "type": "Point", "coordinates": [ 129.111328, 42.098222 ] } }
{ "type": "Feature", "tippecanoe": { "layer": "2AFCA12C24701583917891136", "minzoom": 2, "maxzoom": 8 }, "properties": { "halo": 0.8, "title": "盘越国", "fontsize": 12, "tyid": "304000", "oid": "103:1576575145997", "color": "#202020" }, "geometry": { "type": "Point", "coordinates": [ 92.548828, 25.958045 ] } }
{ "type": "Feature", "tippecanoe": { "layer": "2AFCA12C24701583917891136", "minzoom": 2, "maxzoom": 8 }, "properties": { "halo": 0.8, "title": "三摩呾吒国", "fontsize": 12, "tyid": "304000", "oid": "103:1576575146564", "color": "#202020" }, "geometry": { "type": "Point", "coordinates": [ 91.054688, 23.725012 ] } }
{ "type": "Feature", "tippecanoe": { "layer": "2AFCA12C24701583917891136", "minzoom": 2, "maxzoom": 8 }, "properties": { "halo": 0.8, "title": "栋蚕", "fontsize": 12, "tyid": "304001", "oid": "103:1576575146221", "color": "#262626" }, "geometry": { "type": "Point", "coordinates": [ 99.843750, 26.194877 ] } }
{ "type": "Feature", "tippecanoe": { "layer": "2AFCA12C24701583917891136", "minzoom": 2, "maxzoom": 8 }, "properties": { "halo": 0.8, "title": "隗嚣", "fontsize": 12, "tyid": "304002", "oid": "103:1576575146046", "color": "#262626" }, "geometry": { "type": "Point", "coordinates": [ 105.292969, 34.524661 ] } }
{ "type": "Feature", "tippecanoe": { "layer": "2AFCA12C24701583917891136", "minzoom": 2, "maxzoom": 8 }, "properties": { "halo": 0.8, "title": "氐人", "fontsize": 12, "tyid": "304001", "oid": "103:1576575146157", "color": "#262626" }, "geometry": { "type": "Point", "coordinates": [ 104.150391, 33.284620 ] } }
{ "type": "Feature", "tippecanoe": { "layer": "2AFCA12C24701583917891136", "minzoom": 2, "maxzoom": 8 }, "properties": { "halo": 0.8, "title": "大牟", "fontsize": 12, "tyid": "304002", "oid": "103:1576575146407", "color": "#262626" }, "geometry": { "type": "Point", "coordinates": [ 101.689453, 27.839076 ] } }
{ "type": "Feature", "tippecanoe": { "layer": "2AFCA12C24701583917891136", "minzoom": 2, "maxzoom": 8 }, "properties": { "halo": 0.8, "title": "公孙述", "fontsize": 12, "tyid": "304000", "oid": "103:1576575146184", "color": "#202020" }, "geometry": { "type": "Point", "coordinates": [ 104.062500, 31.128199 ] } }
{ "type": "Feature", "tippecanoe": { "layer": "2AFCA12C24701583917891136", "minzoom": 2, "maxzoom": 8 }, "properties": { "halo": 0.8, "title": "滇国", "fontsize": 12, "tyid": "304000", "oid": "103:1576575146374", "color": "#202020" }, "geometry": { "type": "Point", "coordinates": [ 102.128906, 25.244696 ] } }
{ "type": "Feature", "tippecanoe": { "layer": "2AFCA12C24701583917891136", "minzoom": 2, "maxzoom": 8 }, "properties": { "halo": 0.8, "title": "钩町", "fontsize": 12, "tyid": "304000", "oid": "103:1576575146239", "color": "#202020" }, "geometry": { "type": "Point", "coordinates": [ 104.062500, 23.563987 ] } }
{ "type": "Feature", "tippecanoe": { "layer": "2AFCA12C24701583917891136", "minzoom": 2, "maxzoom": 8 }, "properties": { "halo": 0.8, "title": "田戎", "fontsize": 12, "tyid": "304002", "oid": "103:1576575146222", "color": "#262626" }, "geometry": { "type": "Point", "coordinates": [ 110.302734, 30.524413 ] } }
{ "type": "Feature", "tippecanoe": { "layer": "2AFCA12C24701583917891136", "minzoom": 2, "maxzoom": 8 }, "properties": { "halo": 0.8, "title": "达雅瓦底王国", "fontsize": 12, "tyid": "304000", "oid": "103:1576575146202", "color": "#202020" }, "geometry": { "type": "Point", "coordinates": [ 93.339844, 20.550509 ] } }
{ "type": "Feature", "tippecanoe": { "layer": "2AFCA12C24701583917891136", "minzoom": 2, "maxzoom": 8 }, "properties": { "halo": 0.8, "title": "室利差呾罗王国", "fontsize": 12, "tyid": "304000", "oid": "103:1576575146565", "color": "#202020" }, "geometry": { "type": "Point", "coordinates": [ 95.537109, 19.228177 ] } }
{ "type": "Feature", "tippecanoe": { "layer": "2AFCA12C24701583917891136", "minzoom": 2, "maxzoom": 8 }, "properties": { "halo": 0.8, "title": "骠国", "fontsize": 12, "tyid": "304000", "oid": "103:1576575146188", "color": "#202020" }, "geometry": { "type": "Point", "coordinates": [ 95.712891, 21.207459 ] } }
{ "type": "Feature", "tippecanoe": { "layer": "2AFCA12C24701583917891136", "minzoom": 2, "maxzoom": 8 }, "properties": { "halo": 0.8, "title": "直通王国", "fontsize": 12, "tyid": "304000", "oid": "103:1576575146342", "color": "#202020" }, "geometry": { "type": "Point", "coordinates": [ 95.888672, 17.308688 ] } }
{ "type": "Feature", "tippecanoe": { "layer": "2AFCA12C24701583917891136", "minzoom": 2, "maxzoom": 8 }, "properties": { "halo": 0.8, "title": "班清文化", "fontsize": 12, "tyid": "304002", "oid": "103:1576575146153", "color": "#262626" }, "geometry": { "type": "Point", "coordinates": [ 103.271484, 17.560247 ] } }
{ "type": "Feature", "tippecanoe": { "layer": "2AFCA12C24701583917891136", "minzoom": 2, "maxzoom": 8 }, "properties": { "halo": 0.8, "title": "蓬斯尼文化", "fontsize": 12, "tyid": "304002", "oid": "103:1576575146130", "color": "#262626" }, "geometry": { "type": "Point", "coordinates": [ 103.535156, 13.410994 ] } }
{ "type": "Feature", "tippecanoe": { "layer": "2AFCA12C24701583917891136", "minzoom": 2, "maxzoom": 8 }, "properties": { "halo": 0.8, "title": "喔㕭文化", "fontsize": 12, "tyid": "304002", "oid": "103:1576575146070", "color": "#262626" }, "geometry": { "type": "Point", "coordinates": [ 105.996094, 10.574222 ] } }
{ "type": "Feature", "tippecanoe": { "layer": "2AFCA12C24701583917891136", "minzoom": 2, "maxzoom": 8 }, "properties": { "halo": 0.8, "title": "尼格利陀人", "fontsize": 12, "tyid": "304001", "oid": "103:1576575146210", "color": "#262626" }, "geometry": { "type": "Point", "coordinates": [ 101.953125, 4.740675 ] } }
{ "type": "Feature", "tippecanoe": { "layer": "2AFCA12C24701583917891136", "minzoom": 2, "maxzoom": 8 }, "properties": { "halo": 0.8, "title": "赤眉军", "fontsize": 12, "tyid": "304002", "oid": "103:1576575146403", "color": "#262626" }, "geometry": { "type": "Point", "coordinates": [ 116.542969, 35.817813 ] } }
{ "type": "Feature", "tippecanoe": { "layer": "2AFCA12C24701583917891136", "minzoom": 2, "maxzoom": 8 }, "properties": { "halo": 0.8, "title": "马韩", "fontsize": 12, "tyid": "304001", "oid": "103:1576575146382", "color": "#262626" }, "geometry": { "type": "Point", "coordinates": [ 127.529297, 36.385913 ] } }
{ "type": "Feature", "tippecanoe": { "layer": "2AFCA12C24701583917891136", "minzoom": 2, "maxzoom": 8 }, "properties": { "halo": 0.8, "title": "辰韩", "fontsize": 12, "tyid": "304001", "oid": "103:1576575146521", "color": "#262626" }, "geometry": { "type": "Point", "coordinates": [ 128.759766, 36.315125 ] } }
{ "type": "Feature", "tippecanoe": { "layer": "2AFCA12C24701583917891136", "minzoom": 2, "maxzoom": 8 }, "properties": { "halo": 0.8, "title": "倭人诸邦", "fontsize": 12, "tyid": "304002", "oid": "103:1576575146379", "color": "#262626" }, "geometry": { "type": "Point", "coordinates": [ 130.957031, 32.768800 ] } }
{ "type": "Feature", "tippecanoe": { "layer": "2AFCA12C24701583917891136", "minzoom": 2, "maxzoom": 8 }, "properties": { "halo": 0.8, "title": "绳文人", "fontsize": 12, "tyid": "304001", "oid": "103:1576575146195", "color": "#262626" }, "geometry": { "type": "Point", "coordinates": [ 142.558594, 43.389082 ] } }
{ "type": "Feature", "tippecanoe": { "layer": "2AFCA12C24701583917891136", "minzoom": 2, "maxzoom": 8 }, "properties": { "halo": 0.8, "title": "乌莱维文明", "fontsize": 12, "tyid": "304002", "oid": "103:1576575146243", "color": "#262626" }, "geometry": { "type": "Point", "coordinates": [ 29.882812, -2.547988 ] } }
{ "type": "Feature", "tippecanoe": { "layer": "2AFCA12C24701583917891136", "minzoom": 2, "maxzoom": 8 }, "properties": { "halo": 0.8, "title": "艾布兰文化五期", "fontsize": 12, "tyid": "304002", "oid": "103:1576575146169", "color": "#262626" }, "geometry": { "type": "Point", "coordinates": [ 36.474609, -0.175781 ] } }
{ "type": "Feature", "tippecanoe": { "layer": "2AFCA12C24701583917891136", "minzoom": 2, "maxzoom": 8 }, "properties": { "halo": 0.8, "title": "布尼文化", "fontsize": 12, "tyid": "304002", "oid": "103:1576575146137", "color": "#262626" }, "geometry": { "type": "Point", "coordinates": [ 107.226562, -6.751896 ] } }
{ "type": "Feature", "tippecanoe": { "layer": "2AFCA12C24701583917891136", "minzoom": 2, "maxzoom": 8 }, "properties": { "halo": 0.8, "title": "巴拉瓦人", "fontsize": 12, "tyid": "304001", "oid": "103:1576575145979", "color": "#262626" }, "geometry": { "type": "Point", "coordinates": [ 146.513672, -41.967659 ] } }
{ "type": "Feature", "tippecanoe": { "layer": "2AFCA7FBC7F01583917891139", "minzoom": 2, "maxzoom": 8 }, "properties": { "halo": 0.8, "title": "古白令海文化", "fontsize": 12, "tyid": "304002", "oid": "103:1576575146310", "color": "#262626" }, "geometry": { "type": "Point", "coordinates": [ -170.332031, 63.470145 ] } }
{ "type": "Feature", "tippecanoe": { "layer": "2AFCA7FBC7F01583917891139", "minzoom": 2, "maxzoom": 8 }, "properties": { "halo": 0.8, "title": "查普卡洛文化", "fontsize": 12, "tyid": "304002", "oid": "103:1576575146039", "color": "#262626" }, "geometry": { "type": "Point", "coordinates": [ -99.931641, 20.303418 ] } }
{ "type": "Feature", "tippecanoe": { "layer": "2AFCA7FBC7F01583917891139", "minzoom": 2, "maxzoom": 8 }, "properties": { "halo": 0.8, "title": "特奥蒂瓦坎", "fontsize": 12, "tyid": "304002", "oid": "103:1576575146421", "color": "#262626" }, "geometry": { "type": "Point", "coordinates": [ -99.404297, 19.808054 ] } }
{ "type": "Feature", "tippecanoe": { "layer": "2AFCA7FBC7F01583917891139", "minzoom": 2, "maxzoom": 8 }, "properties": { "halo": 0.8, "title": "米斯特克人", "fontsize": 12, "tyid": "304001", "oid": "103:1576575146209", "color": "#262626" }, "geometry": { "type": "Point", "coordinates": [ -98.349609, 17.224758 ] } }
{ "type": "Feature", "tippecanoe": { "layer": "2AFCA7FBC7F01583917891139", "minzoom": 2, "maxzoom": 8 }, "properties": { "halo": 0.8, "title": "特里克人", "fontsize": 12, "tyid": "304001", "oid": "103:1576575146065", "color": "#262626" }, "geometry": { "type": "Point", "coordinates": [ -97.294922, 17.644022 ] } }
{ "type": "Feature", "tippecanoe": { "layer": "2AFCA7FBC7F01583917891139", "minzoom": 2, "maxzoom": 8 }, "properties": { "halo": 0.8, "title": "洛瓦贾达斯文化", "fontsize": 12, "tyid": "304002", "oid": "103:1576575146098", "color": "#262626" }, "geometry": { "type": "Point", "coordinates": [ -96.416016, 19.145168 ] } }
{ "type": "Feature", "tippecanoe": { "layer": "2AFCA7FBC7F01583917891139", "minzoom": 2, "maxzoom": 8 }, "properties": { "halo": 0.8, "title": "麦克斯人", "fontsize": 12, "tyid": "304001", "oid": "103:1576575146067", "color": "#262626" }, "geometry": { "type": "Point", "coordinates": [ -96.328125, 18.062312 ] } }
{ "type": "Feature", "tippecanoe": { "layer": "2AFCA7FBC7F01583917891139", "minzoom": 2, "maxzoom": 8 }, "properties": { "halo": 0.8, "title": "后奥尔梅克文化", "fontsize": 12, "tyid": "304002", "oid": "103:1576575146251", "color": "#262626" }, "geometry": { "type": "Point", "coordinates": [ -95.625000, 18.479609 ] } }
{ "type": "Feature", "tippecanoe": { "layer": "2AFCA7FBC7F01583917891139", "minzoom": 2, "maxzoom": 8 }, "properties": { "halo": 0.8, "title": "佐齐尔人", "fontsize": 12, "tyid": "304001", "oid": "103:1576575146094", "color": "#262626" }, "geometry": { "type": "Point", "coordinates": [ -93.339844, 16.551962 ] } }
{ "type": "Feature", "tippecanoe": { "layer": "2AFCA7FBC7F01583917891139", "minzoom": 2, "maxzoom": 8 }, "properties": { "halo": 0.8, "title": "祖赫人", "fontsize": 12, "tyid": "304001", "oid": "103:1576575146423", "color": "#262626" }, "geometry": { "type": "Point", "coordinates": [ -92.109375, 16.045813 ] } }
{ "type": "Feature", "tippecanoe": { "layer": "2AFCA7FBC7F01583917891139", "minzoom": 2, "maxzoom": 8 }, "properties": { "halo": 0.8, "title": "基切人", "fontsize": 12, "tyid": "304001", "oid": "103:1576575146053", "color": "#262626" }, "geometry": { "type": "Point", "coordinates": [ -90.966797, 15.029686 ] } }
{ "type": "Feature", "tippecanoe": { "layer": "2AFCA7FBC7F01583917891139", "minzoom": 2, "maxzoom": 8 }, "properties": { "halo": 0.8, "title": "阿尔托山文化", "fontsize": 12, "tyid": "304002", "oid": "103:1576575146450", "color": "#262626" }, "geometry": { "type": "Point", "coordinates": [ -91.054688, 14.349548 ] } }
{ "type": "Feature", "tippecanoe": { "layer": "2AFCA7FBC7F01583917891139", "minzoom": 2, "maxzoom": 8 }, "properties": { "halo": 0.8, "title": "怒溪文化", "fontsize": 12, "tyid": "304002", "oid": "103:1576575146077", "color": "#262626" }, "geometry": { "type": "Point", "coordinates": [ -72.421875, 41.574361 ] } }
{ "type": "Feature", "tippecanoe": { "layer": "2AFCA7FBC7F01583917891139", "minzoom": 2, "maxzoom": 8 }, "properties": { "halo": 0.8, "title": "威廉文化", "fontsize": 12, "tyid": "304002", "oid": "103:1576575146085", "color": "#262626" }, "geometry": { "type": "Point", "coordinates": [ -80.771484, 39.639538 ] } }
{ "type": "Feature", "tippecanoe": { "layer": "2AFCA7FBC7F01583917891139", "minzoom": 2, "maxzoom": 8 }, "properties": { "halo": 0.8, "title": "玛纳索塔文化", "fontsize": 12, "tyid": "304002", "oid": "103:1576575146215", "color": "#262626" }, "geometry": { "type": "Point", "coordinates": [ -82.441406, 27.683528 ] } }
{ "type": "Feature", "tippecanoe": { "layer": "2AFCA7FBC7F01583917891139", "minzoom": 2, "maxzoom": 8 }, "properties": { "halo": 0.8, "title": "卡卢萨人", "fontsize": 12, "tyid": "304001", "oid": "103:1576575146131", "color": "#262626" }, "geometry": { "type": "Point", "coordinates": [ -81.650391, 27.137368 ] } }
{ "type": "Feature", "tippecanoe": { "layer": "2AFCA7FBC7F01583917891139", "minzoom": 2, "maxzoom": 8 }, "properties": { "halo": 0.8, "title": "圣约翰文化", "fontsize": 12, "tyid": "304002", "oid": "103:1576575146226", "color": "#262626" }, "geometry": { "type": "Point", "coordinates": [ -81.474609, 29.382175 ] } }
{ "type": "Feature", "tippecanoe": { "layer": "2AFCA7FBC7F01583917891139", "minzoom": 2, "maxzoom": 8 }, "properties": { "halo": 0.8, "title": "贝尔格莱德文化", "fontsize": 12, "tyid": "304002", "oid": "103:1576575146219", "color": "#262626" }, "geometry": { "type": "Point", "coordinates": [ -80.859375, 27.449790 ] } }
{ "type": "Feature", "tippecanoe": { "layer": "2AFCA7FBC7F01583917891139", "minzoom": 2, "maxzoom": 8 }, "properties": { "halo": 0.8, "title": "格莱兹文化", "fontsize": 12, "tyid": "304002", "oid": "103:1576575146217", "color": "#262626" }, "geometry": { "type": "Point", "coordinates": [ -80.771484, 26.037042 ] } }
{ "type": "Feature", "tippecanoe": { "layer": "2AFCA7FBC7F01583917891139", "minzoom": 2, "maxzoom": 8 }, "properties": { "halo": 0.8, "title": "德贵斯塔族", "fontsize": 12, "tyid": "304001", "oid": "103:1576575146037", "color": "#262626" }, "geometry": { "type": "Point", "coordinates": [ -80.244141, 25.878994 ] } }
{ "type": "Feature", "tippecanoe": { "layer": "2AFCA7FBC7F01583917891139", "minzoom": 2, "maxzoom": 8 }, "properties": { "halo": 0.8, "title": "雷卡人", "fontsize": 12, "tyid": "304001", "oid": "103:1576575146190", "color": "#262626" }, "geometry": { "type": "Point", "coordinates": [ -87.802734, 13.752725 ] } }
{ "type": "Feature", "tippecanoe": { "layer": "2AFCA7FBC7F01583917891139", "minzoom": 2, "maxzoom": 8 }, "properties": { "halo": 0.8, "title": "格兰科克勒文化", "fontsize": 12, "tyid": "304002", "oid": "103:1576575146121", "color": "#262626" }, "geometry": { "type": "Point", "coordinates": [ -80.507812, 8.581021 ] } }
{ "type": "Feature", "tippecanoe": { "layer": "2AFCA7FBC7F01583917891139", "minzoom": 2, "maxzoom": 8 }, "properties": { "halo": 0.8, "title": "泰罗纳", "fontsize": 12, "tyid": "304002", "oid": "103:1576575146360", "color": "#262626" }, "geometry": { "type": "Point", "coordinates": [ -73.564453, 10.833306 ] } }
{ "type": "Feature", "tippecanoe": { "layer": "2AFCA7FBC7F01583917891139", "minzoom": 2, "maxzoom": 8 }, "properties": { "halo": 0.8, "title": "卡利玛文化", "fontsize": 12, "tyid": "304002", "oid": "103:1576575146191", "color": "#262626" }, "geometry": { "type": "Point", "coordinates": [ -76.728516, 4.214943 ] } }
{ "type": "Feature", "tippecanoe": { "layer": "2AFCA7FBC7F01583917891139", "minzoom": 2, "maxzoom": 8 }, "properties": { "halo": 0.8, "title": "马拉加纳文化", "fontsize": 12, "tyid": "304002", "oid": "103:1576575146254", "color": "#262626" }, "geometry": { "type": "Point", "coordinates": [ -76.289062, 3.425692 ] } }
{ "type": "Feature", "tippecanoe": { "layer": "2AFCA7FBC7F01583917891139", "minzoom": 2, "maxzoom": 8 }, "properties": { "halo": 0.8, "title": "昆巴雅文明", "fontsize": 12, "tyid": "304002", "oid": "103:1576575146101", "color": "#262626" }, "geometry": { "type": "Point", "coordinates": [ -75.761719, 5.090944 ] } }
{ "type": "Feature", "tippecanoe": { "layer": "2AFCA7FBC7F01583917891139", "minzoom": 2, "maxzoom": 8 }, "properties": { "halo": 0.8, "title": "科罗索文化", "fontsize": 12, "tyid": "304002", "oid": "103:1576575146125", "color": "#262626" }, "geometry": { "type": "Point", "coordinates": [ -66.533203, 18.229351 ] } }
{ "type": "Feature", "tippecanoe": { "layer": "2AFCA7FBC7F01583917891139", "minzoom": 2, "maxzoom": 8 }, "properties": { "halo": 0.8, "title": "大庄园文化", "fontsize": 12, "tyid": "304002", "oid": "103:1576575146377", "color": "#262626" }, "geometry": { "type": "Point", "coordinates": [ -65.917969, 18.396230 ] } }
{ "type": "Feature", "tippecanoe": { "layer": "2AFCA7FBC7F01583917891139", "minzoom": 2, "maxzoom": 8 }, "properties": { "halo": 0.8, "title": "萨拉杜文化", "fontsize": 12, "tyid": "304002", "oid": "103:1576575146402", "color": "#262626" }, "geometry": { "type": "Point", "coordinates": [ -61.699219, 16.214675 ] } }
{ "type": "Feature", "tippecanoe": { "layer": "2AFCA7FBC7F01583917891139", "minzoom": 2, "maxzoom": 8 }, "properties": { "halo": 0.8, "title": "皮克特人", "fontsize": 12, "tyid": "304001", "oid": "103:1576575146444", "color": "#262626" }, "geometry": { "type": "Point", "coordinates": [ -1.406250, 60.326948 ] } }
{ "type": "Feature", "tippecanoe": { "layer": "2AFCA7FBC7F01583917891139", "minzoom": 2, "maxzoom": 8 }, "properties": { "halo": 0.8, "title": "凯雷尼人", "fontsize": 12, "tyid": "304001", "oid": "103:1576575146271", "color": "#262626" }, "geometry": { "type": "Point", "coordinates": [ -5.097656, 58.077876 ] } }
{ "type": "Feature", "tippecanoe": { "layer": "2AFCA7FBC7F01583917891139", "minzoom": 2, "maxzoom": 8 }, "properties": { "halo": 0.8, "title": "卡诺奈卡人", "fontsize": 12, "tyid": "304001", "oid": "103:1576575146016", "color": "#262626" }, "geometry": { "type": "Point", "coordinates": [ -5.537109, 57.657158 ] } }
{ "type": "Feature", "tippecanoe": { "layer": "2AFCA7FBC7F01583917891139", "minzoom": 2, "maxzoom": 8 }, "properties": { "halo": 0.8, "title": "斯梅尔泰人", "fontsize": 12, "tyid": "304001", "oid": "103:1576575146270", "color": "#262626" }, "geometry": { "type": "Point", "coordinates": [ -4.746094, 57.984808 ] } }
{ "type": "Feature", "tippecanoe": { "layer": "2AFCA7FBC7F01583917891139", "minzoom": 2, "maxzoom": 8 }, "properties": { "halo": 0.8, "title": "卢吉人", "fontsize": 12, "tyid": "304001", "oid": "103:1576575146393", "color": "#262626" }, "geometry": { "type": "Point", "coordinates": [ -4.130859, 58.124320 ] } }
{ "type": "Feature", "tippecanoe": { "layer": "2AFCA7FBC7F01583917891139", "minzoom": 2, "maxzoom": 8 }, "properties": { "halo": 0.8, "title": "克洛维人[凯瑟尼斯]", "fontsize": 12, "tyid": "304001", "oid": "103:1576575145976", "color": "#262626" }, "geometry": { "type": "Point", "coordinates": [ -3.867188, 58.447733 ] } }
{ "type": "Feature", "tippecanoe": { "layer": "2AFCA7FBC7F01583917891139", "minzoom": 2, "maxzoom": 8 }, "properties": { "halo": 0.8, "title": "德坎泰人", "fontsize": 12, "tyid": "304001", "oid": "103:1576575146259", "color": "#262626" }, "geometry": { "type": "Point", "coordinates": [ -4.218750, 57.610107 ] } }
{ "type": "Feature", "tippecanoe": { "layer": "2AFCA7FBC7F01583917891139", "minzoom": 2, "maxzoom": 8 }, "properties": { "halo": 0.8, "title": "维格梅京人", "fontsize": 12, "tyid": "304001", "oid": "103:1576575146262", "color": "#262626" }, "geometry": { "type": "Point", "coordinates": [ -3.339844, 57.515823 ] } }
{ "type": "Feature", "tippecanoe": { "layer": "2AFCA7FBC7F01583917891139", "minzoom": 2, "maxzoom": 8 }, "properties": { "halo": 0.8, "title": "克鲁尼人", "fontsize": 12, "tyid": "304001", "oid": "103:1576575146260", "color": "#262626" }, "geometry": { "type": "Point", "coordinates": [ -5.449219, 57.040730 ] } }
{ "type": "Feature", "tippecanoe": { "layer": "2AFCA7FBC7F01583917891139", "minzoom": 2, "maxzoom": 8 }, "properties": { "halo": 0.8, "title": "维尼科内人", "fontsize": 12, "tyid": "304001", "oid": "103:1576575146264", "color": "#262626" }, "geometry": { "type": "Point", "coordinates": [ -3.691406, 56.365250 ] } }
{ "type": "Feature", "tippecanoe": { "layer": "2AFCA7FBC7F01583917891139", "minzoom": 2, "maxzoom": 8 }, "properties": { "halo": 0.8, "title": "德克萨利人", "fontsize": 12, "tyid": "304001", "oid": "103:1576575146275", "color": "#262626" }, "geometry": { "type": "Point", "coordinates": [ -2.197266, 57.326521 ] } }
{ "type": "Feature", "tippecanoe": { "layer": "2AFCA7FBC7F01583917891139", "minzoom": 2, "maxzoom": 8 }, "properties": { "halo": 0.8, "title": "埃皮迪人", "fontsize": 12, "tyid": "304001", "oid": "103:1576575146269", "color": "#262626" }, "geometry": { "type": "Point", "coordinates": [ -5.537109, 55.677584 ] } }
{ "type": "Feature", "tippecanoe": { "layer": "2AFCA7FBC7F01583917891139", "minzoom": 2, "maxzoom": 8 }, "properties": { "halo": 0.8, "title": "诺万忒人", "fontsize": 12, "tyid": "304001", "oid": "103:1576575146392", "color": "#262626" }, "geometry": { "type": "Point", "coordinates": [ -4.658203, 55.078367 ] } }
{ "type": "Feature", "tippecanoe": { "layer": "2AFCA7FBC7F01583917891139", "minzoom": 2, "maxzoom": 8 }, "properties": { "halo": 0.8, "title": "达姆诺尼人", "fontsize": 12, "tyid": "304001", "oid": "103:1576575146394", "color": "#262626" }, "geometry": { "type": "Point", "coordinates": [ -4.130859, 55.776573 ] } }
{ "type": "Feature", "tippecanoe": { "layer": "2AFCA7FBC7F01583917891139", "minzoom": 2, "maxzoom": 8 }, "properties": { "halo": 0.8, "title": "赛格威人", "fontsize": 12, "tyid": "304001", "oid": "103:1576575146389", "color": "#262626" }, "geometry": { "type": "Point", "coordinates": [ -3.691406, 55.229023 ] } }
{ "type": "Feature", "tippecanoe": { "layer": "2AFCA7FBC7F01583917891139", "minzoom": 2, "maxzoom": 8 }, "properties": { "halo": 0.8, "title": "卡尔维蒂人[坎布里亚郡]", "fontsize": 12, "tyid": "304001", "oid": "103:1576575145977", "color": "#262626" }, "geometry": { "type": "Point", "coordinates": [ -3.076172, 54.572062 ] } }
{ "type": "Feature", "tippecanoe": { "layer": "2AFCA7FBC7F01583917891139", "minzoom": 2, "maxzoom": 8 }, "properties": { "halo": 0.8, "title": "甘加尼人", "fontsize": 12, "tyid": "304001", "oid": "103:1576575146272", "color": "#262626" }, "geometry": { "type": "Point", "coordinates": [ -4.570312, 52.908902 ] } }
{ "type": "Feature", "tippecanoe": { "layer": "2AFCA7FBC7F01583917891139", "minzoom": 2, "maxzoom": 8 }, "properties": { "halo": 0.8, "title": "奥陶维斯人", "fontsize": 12, "tyid": "304001", "oid": "103:1576575146033", "color": "#262626" }, "geometry": { "type": "Point", "coordinates": [ -3.691406, 52.643063 ] } }
{ "type": "Feature", "tippecanoe": { "layer": "2AFCA7FBC7F01583917891139", "minzoom": 2, "maxzoom": 8 }, "properties": { "halo": 0.8, "title": "德克安格利人", "fontsize": 12, "tyid": "304001", "oid": "103:1576575145983", "color": "#262626" }, "geometry": { "type": "Point", "coordinates": [ -3.427734, 53.173119 ] } }
{ "type": "Feature", "tippecanoe": { "layer": "2AFCA7FBC7F01583917891139", "minzoom": 2, "maxzoom": 8 }, "properties": { "halo": 0.8, "title": "沃塔迪尼人", "fontsize": 12, "tyid": "304000", "oid": "103:1576575146385", "color": "#202020" }, "geometry": { "type": "Point", "coordinates": [ -2.724609, 55.677584 ] } }
{ "type": "Feature", "tippecanoe": { "layer": "2AFCA7FBC7F01583917891139", "minzoom": 2, "maxzoom": 8 }, "properties": { "halo": 0.8, "title": "克洛维人[米德兰兹]", "fontsize": 12, "tyid": "304001", "oid": "103:1576575145964", "color": "#262626" }, "geometry": { "type": "Point", "coordinates": [ -2.636719, 52.802761 ] } }
{ "type": "Feature", "tippecanoe": { "layer": "2AFCA7FBC7F01583917891139", "minzoom": 2, "maxzoom": 8 }, "properties": { "halo": 0.8, "title": "帕里斯人", "fontsize": 12, "tyid": "304001", "oid": "103:1576575146476", "color": "#262626" }, "geometry": { "type": "Point", "coordinates": [ -0.615234, 53.956086 ] } }
{ "type": "Feature", "tippecanoe": { "layer": "2AFCA7FBC7F01583917891139", "minzoom": 2, "maxzoom": 8 }, "properties": { "halo": 0.8, "title": "德米忒人", "fontsize": 12, "tyid": "304001", "oid": "103:1576575146388", "color": "#262626" }, "geometry": { "type": "Point", "coordinates": [ -4.658203, 51.944265 ] } }
{ "type": "Feature", "tippecanoe": { "layer": "2AFCA7FBC7F01583917891139", "minzoom": 2, "maxzoom": 8 }, "properties": { "halo": 0.8, "title": "西卢尔人", "fontsize": 12, "tyid": "304001", "oid": "103:1576575146024", "color": "#262626" }, "geometry": { "type": "Point", "coordinates": [ -3.427734, 51.781436 ] } }
{ "type": "Feature", "tippecanoe": { "layer": "2AFCA7FBC7F01583917891139", "minzoom": 2, "maxzoom": 8 }, "properties": { "halo": 0.8, "title": "杜蒙尼人", "fontsize": 12, "tyid": "304001", "oid": "103:1576575146395", "color": "#262626" }, "geometry": { "type": "Point", "coordinates": [ -4.130859, 50.736455 ] } }
{ "type": "Feature", "tippecanoe": { "layer": "2AFCA7FBC7F01583917891139", "minzoom": 2, "maxzoom": 8 }, "properties": { "halo": 0.8, "title": "多布尼人", "fontsize": 12, "tyid": "304001", "oid": "103:1576575146478", "color": "#262626" }, "geometry": { "type": "Point", "coordinates": [ -2.197266, 51.944265 ] } }
{ "type": "Feature", "tippecanoe": { "layer": "2AFCA7FBC7F01583917891139", "minzoom": 2, "maxzoom": 8 }, "properties": { "halo": 0.8, "title": "杜罗特里吉人", "fontsize": 12, "tyid": "304001", "oid": "103:1576575146396", "color": "#262626" }, "geometry": { "type": "Point", "coordinates": [ -2.548828, 50.903033 ] } }
{ "type": "Feature", "tippecanoe": { "layer": "2AFCA7FBC7F01583917891139", "minzoom": 2, "maxzoom": 8 }, "properties": { "halo": 0.8, "title": "贝尔盖人", "fontsize": 12, "tyid": "304001", "oid": "103:1576575146279", "color": "#262626" }, "geometry": { "type": "Point", "coordinates": [ -1.845703, 51.124213 ] } }
{ "type": "Feature", "tippecanoe": { "layer": "2AFCA7FBC7F01583917891139", "minzoom": 2, "maxzoom": 8 }, "properties": { "halo": 0.8, "title": "卡图维劳尼人", "fontsize": 12, "tyid": "304001", "oid": "103:1576575146027", "color": "#262626" }, "geometry": { "type": "Point", "coordinates": [ -0.439453, 51.890054 ] } }
{ "type": "Feature", "tippecanoe": { "layer": "2AFCA7FBC7F01583917891139", "minzoom": 2, "maxzoom": 8 }, "properties": { "halo": 0.8, "title": "阿特雷巴特人", "fontsize": 12, "tyid": "304000", "oid": "103:1576575146383", "color": "#202020" }, "geometry": { "type": "Point", "coordinates": [ -1.406250, 51.399206 ] } }
{ "type": "Feature", "tippecanoe": { "layer": "2AFCA7FBC7F01583917891139", "minzoom": 2, "maxzoom": 8 }, "properties": { "halo": 0.8, "title": "雷恩尼斯人", "fontsize": 12, "tyid": "304001", "oid": "103:1576575146384", "color": "#262626" }, "geometry": { "type": "Point", "coordinates": [ -0.439453, 51.179343 ] } }
{ "type": "Feature", "tippecanoe": { "layer": "2AFCA7FBC7F01583917891139", "minzoom": 2, "maxzoom": 8 }, "properties": { "halo": 0.8, "title": "关切人", "fontsize": 12, "tyid": "304001", "oid": "103:1576575146197", "color": "#262626" }, "geometry": { "type": "Point", "coordinates": [ -16.611328, 28.304381 ] } }
{ "type": "Feature", "tippecanoe": { "layer": "2AFCA7FBC7F01583917891139", "minzoom": 2, "maxzoom": 8 }, "properties": { "halo": 0.8, "title": "后迦太基人控制区", "fontsize": 12, "tyid": "304002", "oid": "103:1576575146292", "color": "#262626" }, "geometry": { "type": "Point", "coordinates": [ -5.888672, 35.389050 ] } }
{ "type": "Feature", "tippecanoe": { "layer": "2AFCA7FBC7F01583917891139", "minzoom": 2, "maxzoom": 8 }, "properties": { "halo": 0.8, "title": "瓜纳加拉文化", "fontsize": 12, "tyid": "304002", "oid": "103:1576575146213", "color": "#262626" }, "geometry": { "type": "Point", "coordinates": [ -80.595703, -1.669686 ] } }
{ "type": "Feature", "tippecanoe": { "layer": "2AFCA7FBC7F01583917891139", "minzoom": 2, "maxzoom": 8 }, "properties": { "halo": 0.8, "title": "巴伊亚文化", "fontsize": 12, "tyid": "304002", "oid": "103:1576575146434", "color": "#262626" }, "geometry": { "type": "Point", "coordinates": [ -80.068359, -0.527336 ] } }
{ "type": "Feature", "tippecanoe": { "layer": "2AFCA7FBC7F01583917891139", "minzoom": 2, "maxzoom": 8 }, "properties": { "halo": 0.8, "title": "维克斯文化", "fontsize": 12, "tyid": "304002", "oid": "103:1576575146093", "color": "#262626" }, "geometry": { "type": "Point", "coordinates": [ -80.419922, -5.878332 ] } }
{ "type": "Feature", "tippecanoe": { "layer": "2AFCA7FBC7F01583917891139", "minzoom": 2, "maxzoom": 8 }, "properties": { "halo": 0.8, "title": "萨利纳尔文化", "fontsize": 12, "tyid": "304002", "oid": "103:1576575146452", "color": "#262626" }, "geometry": { "type": "Point", "coordinates": [ -78.925781, -7.885147 ] } }
{ "type": "Feature", "tippecanoe": { "layer": "2AFCA7FBC7F01583917891139", "minzoom": 2, "maxzoom": 8 }, "properties": { "halo": 0.8, "title": "维鲁文化", "fontsize": 12, "tyid": "304002", "oid": "103:1576575146071", "color": "#262626" }, "geometry": { "type": "Point", "coordinates": [ -78.837891, -8.320212 ] } }
{ "type": "Feature", "tippecanoe": { "layer": "2AFCA7FBC7F01583917891139", "minzoom": 2, "maxzoom": 8 }, "properties": { "halo": 0.8, "title": "瑞克文化", "fontsize": 12, "tyid": "304002", "oid": "103:1576575146148", "color": "#262626" }, "geometry": { "type": "Point", "coordinates": [ -77.607422, -9.622414 ] } }
{ "type": "Feature", "tippecanoe": { "layer": "2AFCA7FBC7F01583917891139", "minzoom": 2, "maxzoom": 8 }, "properties": { "halo": 0.8, "title": "加伊纳索文化", "fontsize": 12, "tyid": "304002", "oid": "103:1576575146317", "color": "#262626" }, "geometry": { "type": "Point", "coordinates": [ -77.080078, -11.092166 ] } }
{ "type": "Feature", "tippecanoe": { "layer": "2AFCA7FBC7F01583917891139", "minzoom": 2, "maxzoom": 8 }, "properties": { "halo": 0.8, "title": "托帕拉文化", "fontsize": 12, "tyid": "304002", "oid": "103:1576575146189", "color": "#262626" }, "geometry": { "type": "Point", "coordinates": [ -75.937500, -13.667338 ] } }
{ "type": "Feature", "tippecanoe": { "layer": "2AFCA7FBC7F01583917891139", "minzoom": 2, "maxzoom": 8 }, "properties": { "halo": 0.8, "title": "华帕文化", "fontsize": 12, "tyid": "304002", "oid": "103:1576575146102", "color": "#262626" }, "geometry": { "type": "Point", "coordinates": [ -74.179688, -13.581921 ] } }
{ "type": "Feature", "tippecanoe": { "layer": "2AFCA7FBC7F01583917891139", "minzoom": 2, "maxzoom": 8 }, "properties": { "halo": 0.8, "title": "纳斯卡文化", "fontsize": 12, "tyid": "304002", "oid": "103:1576575146087", "color": "#262626" }, "geometry": { "type": "Point", "coordinates": [ -75.058594, -14.944785 ] } }
{ "type": "Feature", "tippecanoe": { "layer": "2AFCA7FBC7F01583917891139", "minzoom": 2, "maxzoom": 8 }, "properties": { "halo": 0.8, "title": "普加拉文化", "fontsize": 12, "tyid": "304002", "oid": "103:1576575146066", "color": "#262626" }, "geometry": { "type": "Point", "coordinates": [ -69.697266, -13.838080 ] } }
{ "type": "Feature", "tippecanoe": { "layer": "2AFCA7FBC7F01583917891139", "minzoom": 2, "maxzoom": 8 }, "properties": { "halo": 0.8, "title": "塔夫文化", "fontsize": 12, "tyid": "304002", "oid": "103:1576575146100", "color": "#262626" }, "geometry": { "type": "Point", "coordinates": [ -65.654297, -26.980829 ] } }
{ "type": "Feature", "tippecanoe": { "layer": "2AFCA7FBC7F01583917891139", "minzoom": 2, "maxzoom": 8 }, "properties": { "halo": 0.8, "title": "豪什人", "fontsize": 12, "tyid": "304001", "oid": "103:1576575145988", "color": "#262626" }, "geometry": { "type": "Point", "coordinates": [ -65.917969, -54.724620 ] } }
{ "type": "Feature", "tippecanoe": { "layer": "2AFCA7FBC7F01583917891139", "minzoom": 2, "maxzoom": 8 }, "properties": { "halo": 0.8, "title": "哥得兰人", "fontsize": 12, "tyid": "304001", "oid": "103:1576575146416", "color": "#262626" }, "geometry": { "type": "Point", "coordinates": [ 18.457031, 57.515823 ] } }
{ "type": "Feature", "tippecanoe": { "layer": "2AFCA7FBC7F01583917891139", "minzoom": 2, "maxzoom": 8 }, "properties": { "halo": 0.8, "title": "爱西尼人", "fontsize": 12, "tyid": "304001", "oid": "103:1576575146261", "color": "#262626" }, "geometry": { "type": "Point", "coordinates": [ 0.791016, 52.589701 ] } }
{ "type": "Feature", "tippecanoe": { "layer": "2AFCA7FBC7F01583917891139", "minzoom": 2, "maxzoom": 8 }, "properties": { "halo": 0.8, "title": "特里诺文特人", "fontsize": 12, "tyid": "304000", "oid": "103:1576575146032", "color": "#202020" }, "geometry": { "type": "Point", "coordinates": [ 0.791016, 51.998410 ] } }
{ "type": "Feature", "tippecanoe": { "layer": "2AFCA7FBC7F01583917891139", "minzoom": 2, "maxzoom": 8 }, "properties": { "halo": 0.8, "title": "坎蒂亚奇人", "fontsize": 12, "tyid": "304001", "oid": "103:1576575146387", "color": "#262626" }, "geometry": { "type": "Point", "coordinates": [ 0.527344, 51.179343 ] } }
{ "type": "Feature", "tippecanoe": { "layer": "2AFCA7FBC7F01583917891139", "minzoom": 2, "maxzoom": 8 }, "properties": { "halo": 0.8, "title": "盎格鲁人", "fontsize": 12, "tyid": "304001", "oid": "103:1576575146265", "color": "#262626" }, "geometry": { "type": "Point", "coordinates": [ 9.316406, 54.622978 ] } }
{ "type": "Feature", "tippecanoe": { "layer": "2AFCA7FBC7F01583917891139", "minzoom": 2, "maxzoom": 8 }, "properties": { "halo": 0.8, "title": "萨克森人", "fontsize": 12, "tyid": "304001", "oid": "103:1576575146282", "color": "#262626" }, "geometry": { "type": "Point", "coordinates": [ 10.019531, 54.007769 ] } }
{ "type": "Feature", "tippecanoe": { "layer": "2AFCA7FBC7F01583917891139", "minzoom": 2, "maxzoom": 8 }, "properties": { "halo": 0.8, "title": "查马维人", "fontsize": 12, "tyid": "304001", "oid": "103:1576575146268", "color": "#262626" }, "geometry": { "type": "Point", "coordinates": [ 7.119141, 51.944265 ] } }
{ "type": "Feature", "tippecanoe": { "layer": "2AFCA7FBC7F01583917891139", "minzoom": 2, "maxzoom": 8 }, "properties": { "halo": 0.8, "title": "辛坎布雷人", "fontsize": 12, "tyid": "304001", "oid": "103:1576575146274", "color": "#262626" }, "geometry": { "type": "Point", "coordinates": [ 7.646484, 51.289406 ] } }
{ "type": "Feature", "tippecanoe": { "layer": "2AFCA7FBC7F01583917891139", "minzoom": 2, "maxzoom": 8 }, "properties": { "halo": 0.8, "title": "布鲁克特人", "fontsize": 12, "tyid": "304001", "oid": "103:1576575145996", "color": "#262626" }, "geometry": { "type": "Point", "coordinates": [ 8.437500, 51.998410 ] } }
{ "type": "Feature", "tippecanoe": { "layer": "2AFCA7FBC7F01583917891139", "minzoom": 2, "maxzoom": 8 }, "properties": { "halo": 0.8, "title": "马提亚西人", "fontsize": 12, "tyid": "304001", "oid": "103:1576575146280", "color": "#262626" }, "geometry": { "type": "Point", "coordinates": [ 9.404297, 50.289339 ] } }
{ "type": "Feature", "tippecanoe": { "layer": "2AFCA7FBC7F01583917891139", "minzoom": 2, "maxzoom": 8 }, "properties": { "halo": 0.8, "title": "奥耶塞利人", "fontsize": 12, "tyid": "304001", "oid": "103:1576575146308", "color": "#262626" }, "geometry": { "type": "Point", "coordinates": [ 22.500000, 58.447733 ] } }
{ "type": "Feature", "tippecanoe": { "layer": "2AFCA7FBC7F01583917891139", "minzoom": 2, "maxzoom": 8 }, "properties": { "halo": 0.8, "title": "希斯特里亚", "fontsize": 12, "tyid": "304000", "oid": "103:1576575146482", "color": "#202020" }, "geometry": { "type": "Point", "coordinates": [ 28.828125, 44.590467 ] } }
{ "type": "Feature", "tippecanoe": { "layer": "2AFCA7FBC7F01583917891139", "minzoom": 2, "maxzoom": 8 }, "properties": { "halo": 0.8, "title": "拜占庭", "fontsize": 12, "tyid": "304000", "oid": "103:1576575146446", "color": "#202020" }, "geometry": { "type": "Point", "coordinates": [ 28.740234, 41.178654 ] } }
{ "type": "Feature", "tippecanoe": { "layer": "2AFCA7FBC7F01583917891139", "minzoom": 2, "maxzoom": 8 }, "properties": { "halo": 0.8, "title": "自由拉科尼亚同盟", "fontsize": 12, "tyid": "304000", "oid": "103:1576575146523", "color": "#202020" }, "geometry": { "type": "Point", "coordinates": [ 22.851562, 36.879621 ] } }
{ "type": "Feature", "tippecanoe": { "layer": "2AFCA7FBC7F01583917891139", "minzoom": 2, "maxzoom": 8 }, "properties": { "halo": 0.8, "title": "罗德斯国", "fontsize": 12, "tyid": "304000", "oid": "103:1576575146549", "color": "#202020" }, "geometry": { "type": "Point", "coordinates": [ 27.949219, 36.244273 ] } }
{ "type": "Feature", "tippecanoe": { "layer": "2AFCA7FBC7F01583917891139", "minzoom": 2, "maxzoom": 8 }, "properties": { "halo": 0.8, "title": "利西亚人联盟", "fontsize": 12, "tyid": "304002", "oid": "103:1576575146535", "color": "#262626" }, "geometry": { "type": "Point", "coordinates": [ 29.794922, 36.527295 ] } }
{ "type": "Feature", "tippecanoe": { "layer": "2AFCA7FBC7F01583917891139", "minzoom": 2, "maxzoom": 8 }, "properties": { "halo": 0.8, "title": "科马基尼王国", "fontsize": 12, "tyid": "304000", "oid": "103:1576575146006", "color": "#202020" }, "geometry": { "type": "Point", "coordinates": [ 37.880859, 37.718590 ] } }
{ "type": "Feature", "tippecanoe": { "layer": "2AFCA7FBC7F01583917891139", "minzoom": 2, "maxzoom": 8 }, "properties": { "halo": 0.8, "title": "卡尔基斯王国", "fontsize": 12, "tyid": "304000", "oid": "103:1576575146539", "color": "#202020" }, "geometry": { "type": "Point", "coordinates": [ 35.859375, 33.724340 ] } }
{ "type": "Feature", "tippecanoe": { "layer": "2AFCA7FBC7F01583917891139", "minzoom": 2, "maxzoom": 8 }, "properties": { "halo": 0.8, "title": "希律合众国", "fontsize": 12, "tyid": "304000", "oid": "103:1576575146548", "color": "#202020" }, "geometry": { "type": "Point", "coordinates": [ 35.771484, 32.990236 ] } }
{ "type": "Feature", "tippecanoe": { "layer": "2AFCA7FBC7F01583917891139", "minzoom": 2, "maxzoom": 8 }, "properties": { "halo": 0.8, "title": "德卡波利斯联盟", "fontsize": 12, "tyid": "304002", "oid": "103:1576575146552", "color": "#262626" }, "geometry": { "type": "Point", "coordinates": [ 35.859375, 32.546813 ] } }
{ "type": "Feature", "tippecanoe": { "layer": "2AFCA7FBC7F01583917891139", "minzoom": 2, "maxzoom": 8 }, "properties": { "halo": 0.8, "title": "埃米萨王朝", "fontsize": 12, "tyid": "304000", "oid": "103:1576575146537", "color": "#202020" }, "geometry": { "type": "Point", "coordinates": [ 36.650391, 34.741612 ] } }
{ "type": "Feature", "tippecanoe": { "layer": "2AFCA7FBC7F01583917891139", "minzoom": 2, "maxzoom": 8 }, "properties": { "halo": 0.8, "title": "索芬尼王国", "fontsize": 12, "tyid": "304000", "oid": "103:1576575146008", "color": "#202020" }, "geometry": { "type": "Point", "coordinates": [ 39.638672, 37.996163 ] } }
{ "type": "Feature", "tippecanoe": { "layer": "2AFCA7FBC7F01583917891139", "minzoom": 2, "maxzoom": 8 }, "properties": { "halo": 0.8, "title": "列兹金人", "fontsize": 12, "tyid": "304001", "oid": "103:1576575146339", "color": "#262626" }, "geometry": { "type": "Point", "coordinates": [ 47.988281, 41.771312 ] } }
{ "type": "Feature", "tippecanoe": { "layer": "2AFCA7FBC7F01583917891139", "minzoom": 2, "maxzoom": 8 }, "properties": { "halo": 0.8, "title": "乌贪訾离国", "fontsize": 12, "tyid": "304000", "oid": "103:1576575146013", "color": "#202020" }, "geometry": { "type": "Point", "coordinates": [ 86.748047, 44.465151 ] } }
{ "type": "Feature", "tippecanoe": { "layer": "2AFCA7FBC7F01583917891139", "minzoom": 2, "maxzoom": 8 }, "properties": { "halo": 0.8, "title": "西且弥国", "fontsize": 12, "tyid": "304000", "oid": "103:1576575146350", "color": "#202020" }, "geometry": { "type": "Point", "coordinates": [ 86.220703, 43.834527 ] } }
{ "type": "Feature", "tippecanoe": { "layer": "2AFCA7FBC7F01583917891139", "minzoom": 2, "maxzoom": 8 }, "properties": { "halo": 0.8, "title": "东且弥国", "fontsize": 12, "tyid": "304000", "oid": "103:1576575146043", "color": "#202020" }, "geometry": { "type": "Point", "coordinates": [ 86.923828, 43.707594 ] } }
{ "type": "Feature", "tippecanoe": { "layer": "2AFCA7FBC7F01583917891139", "minzoom": 2, "maxzoom": 8 }, "properties": { "halo": 0.8, "title": "劫国", "fontsize": 12, "tyid": "304000", "oid": "103:1576575146455", "color": "#202020" }, "geometry": { "type": "Point", "coordinates": [ 87.802734, 44.150681 ] } }
{ "type": "Feature", "tippecanoe": { "layer": "2AFCA7FBC7F01583917891139", "minzoom": 2, "maxzoom": 8 }, "properties": { "halo": 0.8, "title": "卑陆后国", "fontsize": 12, "tyid": "304000", "oid": "103:1576575146468", "color": "#202020" }, "geometry": { "type": "Point", "coordinates": [ 88.154297, 44.276671 ] } }
{ "type": "Feature", "tippecanoe": { "layer": "2AFCA7FBC7F01583917891139", "minzoom": 2, "maxzoom": 8 }, "properties": { "halo": 0.8, "title": "单桓国", "fontsize": 12, "tyid": "304000", "oid": "103:1576575146459", "color": "#202020" }, "geometry": { "type": "Point", "coordinates": [ 87.539062, 44.024422 ] } }
{ "type": "Feature", "tippecanoe": { "layer": "2AFCA7FBC7F01583917891139", "minzoom": 2, "maxzoom": 8 }, "properties": { "halo": 0.8, "title": "卑陆国", "fontsize": 12, "tyid": "304000", "oid": "103:1576575146216", "color": "#202020" }, "geometry": { "type": "Point", "coordinates": [ 88.066406, 43.961191 ] } }
{ "type": "Feature", "tippecanoe": { "layer": "2AFCA7FBC7F01583917891139", "minzoom": 2, "maxzoom": 8 }, "properties": { "halo": 0.8, "title": "郁立师国", "fontsize": 12, "tyid": "304000", "oid": "103:1576575146257", "color": "#202020" }, "geometry": { "type": "Point", "coordinates": [ 88.945312, 43.961191 ] } }
{ "type": "Feature", "tippecanoe": { "layer": "2AFCA7FBC7F01583917891139", "minzoom": 2, "maxzoom": 8 }, "properties": { "halo": 0.8, "title": "卡塔班王国", "fontsize": 12, "tyid": "304000", "oid": "103:1576575146531", "color": "#202020" }, "geometry": { "type": "Point", "coordinates": [ 45.791016, 14.774883 ] } }
{ "type": "Feature", "tippecanoe": { "layer": "2AFCA7FBC7F01583917891139", "minzoom": 2, "maxzoom": 8 }, "properties": { "halo": 0.8, "title": "奥桑王国", "fontsize": 12, "tyid": "304000", "oid": "103:1576575146562", "color": "#202020" }, "geometry": { "type": "Point", "coordinates": [ 46.230469, 13.752725 ] } }
{ "type": "Feature", "tippecanoe": { "layer": "2AFCA7FBC7F01583917891139", "minzoom": 2, "maxzoom": 8 }, "properties": { "halo": 0.8, "title": "难兜国", "fontsize": 12, "tyid": "304000", "oid": "103:1576575146458", "color": "#202020" }, "geometry": { "type": "Point", "coordinates": [ 74.091797, 36.949892 ] } }
{ "type": "Feature", "tippecanoe": { "layer": "2AFCA7FBC7F01583917891139", "minzoom": 2, "maxzoom": 8 }, "properties": { "halo": 0.8, "title": "蒲犁国", "fontsize": 12, "tyid": "304000", "oid": "103:1576575146306", "color": "#202020" }, "geometry": { "type": "Point", "coordinates": [ 75.234375, 37.996163 ] } }
{ "type": "Feature", "tippecanoe": { "layer": "2AFCA7FBC7F01583917891139", "minzoom": 2, "maxzoom": 8 }, "properties": { "halo": 0.8, "title": "疏勒国", "fontsize": 12, "tyid": "304000", "oid": "103:1576575146152", "color": "#202020" }, "geometry": { "type": "Point", "coordinates": [ 76.289062, 39.504041 ] } }
{ "type": "Feature", "tippecanoe": { "layer": "2AFCA7FBC7F01583917891139", "minzoom": 2, "maxzoom": 8 }, "properties": { "halo": 0.8, "title": "依耐国", "fontsize": 12, "tyid": "304000", "oid": "103:1576575146187", "color": "#202020" }, "geometry": { "type": "Point", "coordinates": [ 75.937500, 38.616870 ] } }
{ "type": "Feature", "tippecanoe": { "layer": "2AFCA7FBC7F01583917891139", "minzoom": 2, "maxzoom": 8 }, "properties": { "halo": 0.8, "title": "子合国", "fontsize": 12, "tyid": "304000", "oid": "103:1576575146228", "color": "#202020" }, "geometry": { "type": "Point", "coordinates": [ 76.376953, 37.718590 ] } }
{ "type": "Feature", "tippecanoe": { "layer": "2AFCA7FBC7F01583917891139", "minzoom": 2, "maxzoom": 8 }, "properties": { "halo": 0.8, "title": "皮山国", "fontsize": 12, "tyid": "304000", "oid": "103:1576575146204", "color": "#202020" }, "geometry": { "type": "Point", "coordinates": [ 78.574219, 37.509726 ] } }
{ "type": "Feature", "tippecanoe": { "layer": "2AFCA7FBC7F01583917891139", "minzoom": 2, "maxzoom": 8 }, "properties": { "halo": 0.8, "title": "戎卢国", "fontsize": 12, "tyid": "304000", "oid": "103:1576575146256", "color": "#202020" }, "geometry": { "type": "Point", "coordinates": [ 83.144531, 36.668419 ] } }
{ "type": "Feature", "tippecanoe": { "layer": "2AFCA7FBC7F01583917891139", "minzoom": 2, "maxzoom": 8 }, "properties": { "halo": 0.8, "title": "渠勒国", "fontsize": 12, "tyid": "304000", "oid": "103:1576575146136", "color": "#202020" }, "geometry": { "type": "Point", "coordinates": [ 80.947266, 36.385913 ] } }
{ "type": "Feature", "tippecanoe": { "layer": "2AFCA7FBC7F01583917891139", "minzoom": 2, "maxzoom": 8 }, "properties": { "halo": 0.8, "title": "小宛国", "fontsize": 12, "tyid": "304000", "oid": "103:1576575146447", "color": "#202020" }, "geometry": { "type": "Point", "coordinates": [ 85.078125, 37.090240 ] } }
{ "type": "Feature", "tippecanoe": { "layer": "2AFCA7FBC7F01583917891139", "minzoom": 2, "maxzoom": 8 }, "properties": { "halo": 0.8, "title": "罗昂", "fontsize": 12, "tyid": "304000", "oid": "103:1576575146233", "color": "#202020" }, "geometry": { "type": "Point", "coordinates": [ 89.208984, 29.152161 ] } }
{ "type": "Feature", "tippecanoe": { "layer": "2AFCA7FBC7F01583917891139", "minzoom": 2, "maxzoom": 8 }, "properties": { "halo": 0.8, "title": "藏", "fontsize": 12, "tyid": "304000", "oid": "103:1576575146408", "color": "#202020" }, "geometry": { "type": "Point", "coordinates": [ 89.736328, 28.844674 ] } }
{ "type": "Feature", "tippecanoe": { "layer": "2AFCA7FBC7F01583917891139", "minzoom": 2, "maxzoom": 8 }, "properties": { "halo": 0.8, "title": "卓木南木松", "fontsize": 12, "tyid": "304000", "oid": "103:1576575146234", "color": "#202020" }, "geometry": { "type": "Point", "coordinates": [ 88.945312, 27.839076 ] } }
{ "type": "Feature", "tippecanoe": { "layer": "2AFCA7FBC7F01583917891139", "minzoom": 2, "maxzoom": 8 }, "properties": { "halo": 0.8, "title": "牟湿迦王国", "fontsize": 12, "tyid": "304000", "oid": "103:1576575146129", "color": "#202020" }, "geometry": { "type": "Point", "coordinates": [ 75.322266, 12.640338 ] } }
{ "type": "Feature", "tippecanoe": { "layer": "2AFCA7FBC7F01583917891139", "minzoom": 2, "maxzoom": 8 }, "properties": { "halo": 0.8, "title": "阿伊王国", "fontsize": 12, "tyid": "304000", "oid": "103:1576575146442", "color": "#202020" }, "geometry": { "type": "Point", "coordinates": [ 77.080078, 8.667918 ] } }
{ "type": "Feature", "tippecanoe": { "layer": "2AFCA7FBC7F01583917891139", "minzoom": 2, "maxzoom": 8 }, "properties": { "halo": 0.8, "title": "吉", "fontsize": 12, "tyid": "304000", "oid": "103:1576575146411", "color": "#202020" }, "geometry": { "type": "Point", "coordinates": [ 91.406250, 29.764377 ] } }
{ "type": "Feature", "tippecanoe": { "layer": "2AFCA7FBC7F01583917891139", "minzoom": 2, "maxzoom": 8 }, "properties": { "halo": 0.8, "title": "琛", "fontsize": 12, "tyid": "304000", "oid": "103:1576575145985", "color": "#202020" }, "geometry": { "type": "Point", "coordinates": [ 91.230469, 29.382175 ] } }
{ "type": "Feature", "tippecanoe": { "layer": "2AFCA7FBC7F01583917891139", "minzoom": 2, "maxzoom": 8 }, "properties": { "halo": 0.8, "title": "悉补野", "fontsize": 12, "tyid": "304000", "oid": "103:1576575146231", "color": "#202020" }, "geometry": { "type": "Point", "coordinates": [ 91.845703, 29.152161 ] } }
{ "type": "Feature", "tippecanoe": { "layer": "2AFCA7FBC7F01583917891139", "minzoom": 2, "maxzoom": 8 }, "properties": { "halo": 0.8, "title": "俄玉邦噶", "fontsize": 12, "tyid": "304000", "oid": "103:1576575146203", "color": "#202020" }, "geometry": { "type": "Point", "coordinates": [ 92.548828, 29.152161 ] } }
{ "type": "Feature", "tippecanoe": { "layer": "2AFCA7FBC7F01583917891139", "minzoom": 2, "maxzoom": 8 }, "properties": { "halo": 0.8, "title": "娘", "fontsize": 12, "tyid": "304000", "oid": "103:1576575146357", "color": "#202020" }, "geometry": { "type": "Point", "coordinates": [ 93.339844, 29.916852 ] } }
{ "type": "Feature", "tippecanoe": { "layer": "2AFCA7FBC7F01583917891139", "minzoom": 2, "maxzoom": 8 }, "properties": { "halo": 0.8, "title": "贡", "fontsize": 12, "tyid": "304000", "oid": "103:1576575146112", "color": "#202020" }, "geometry": { "type": "Point", "coordinates": [ 94.482422, 29.688053 ] } }
{ "type": "Feature", "tippecanoe": { "layer": "2AFCA7FBC7F01583917891139", "minzoom": 2, "maxzoom": 8 }, "properties": { "halo": 0.8, "title": "达", "fontsize": 12, "tyid": "304000", "oid": "103:1576575146229", "color": "#202020" }, "geometry": { "type": "Point", "coordinates": [ 93.603516, 29.152161 ] } }
{ "type": "Feature", "tippecanoe": { "layer": "2AFCA7FBC7F01583917891139", "minzoom": 2, "maxzoom": 8 }, "properties": { "halo": 0.8, "title": "烧当羌", "fontsize": 12, "tyid": "304001", "oid": "103:1576575146410", "color": "#262626" }, "geometry": { "type": "Point", "coordinates": [ 101.777344, 35.960223 ] } }
{ "type": "Feature", "tippecanoe": { "layer": "2AFCA7FBC7F01583917891139", "minzoom": 2, "maxzoom": 8 }, "properties": { "halo": 0.8, "title": "石坛文化", "fontsize": 12, "tyid": "304002", "oid": "103:1576575146235", "color": "#262626" }, "geometry": { "type": "Point", "coordinates": [ 103.359375, 19.559790 ] } }
{ "type": "Feature", "tippecanoe": { "layer": "2AFCA7FBC7F01583917891139", "minzoom": 2, "maxzoom": 8 }, "properties": { "halo": 0.8, "title": "佼彊", "fontsize": 12, "tyid": "304002", "oid": "103:1576575146398", "color": "#262626" }, "geometry": { "type": "Point", "coordinates": [ 116.103516, 35.317366 ] } }
{ "type": "Feature", "tippecanoe": { "layer": "2AFCA7FBC7F01583917891139", "minzoom": 2, "maxzoom": 8 }, "properties": { "halo": 0.8, "title": "刁子都", "fontsize": 12, "tyid": "304002", "oid": "103:1576575146520", "color": "#262626" }, "geometry": { "type": "Point", "coordinates": [ 117.158203, 34.957995 ] } }
{ "type": "Feature", "tippecanoe": { "layer": "2AFCA7FBC7F01583917891139", "minzoom": 2, "maxzoom": 8 }, "properties": { "halo": 0.8, "title": "张步", "fontsize": 12, "tyid": "304002", "oid": "103:1576575146014", "color": "#262626" }, "geometry": { "type": "Point", "coordinates": [ 119.355469, 35.675147 ] } }
{ "type": "Feature", "tippecanoe": { "layer": "2AFCA7FBC7F01583917891139", "minzoom": 2, "maxzoom": 8 }, "properties": { "halo": 0.8, "title": "番仔园文化", "fontsize": 12, "tyid": "304002", "oid": "103:1576575146561", "color": "#262626" }, "geometry": { "type": "Point", "coordinates": [ 120.673828, 24.287027 ] } }
{ "type": "Feature", "tippecanoe": { "layer": "2AFCA7FBC7F01583917891139", "minzoom": 2, "maxzoom": 8 }, "properties": { "halo": 0.8, "title": "茑松文化", "fontsize": 12, "tyid": "304002", "oid": "103:1576575146557", "color": "#262626" }, "geometry": { "type": "Point", "coordinates": [ 120.322266, 23.079732 ] } }
{ "type": "Feature", "tippecanoe": { "layer": "2AFCA7FBC7F01583917891139", "minzoom": 2, "maxzoom": 8 }, "properties": { "halo": 0.8, "title": "龟山文化", "fontsize": 12, "tyid": "304002", "oid": "103:1576575146558", "color": "#262626" }, "geometry": { "type": "Point", "coordinates": [ 120.585938, 22.674847 ] } }
{ "type": "Feature", "tippecanoe": { "layer": "2AFCA7FBC7F01583917891139", "minzoom": 2, "maxzoom": 8 }, "properties": { "halo": 0.8, "title": "十三行文化", "fontsize": 12, "tyid": "304002", "oid": "103:1576575146555", "color": "#262626" }, "geometry": { "type": "Point", "coordinates": [ 121.376953, 24.846565 ] } }
{ "type": "Feature", "tippecanoe": { "layer": "2AFCA7FBC7F01583917891139", "minzoom": 2, "maxzoom": 8 }, "properties": { "halo": 0.8, "title": "静浦文化", "fontsize": 12, "tyid": "304002", "oid": "103:1576575146559", "color": "#262626" }, "geometry": { "type": "Point", "coordinates": [ 121.025391, 22.998852 ] } }
{ "type": "Feature", "tippecanoe": { "layer": "2AFCA7FBC7F01583917891139", "minzoom": 2, "maxzoom": 8 }, "properties": { "halo": 0.8, "title": "百济", "fontsize": 12, "tyid": "304000", "oid": "103:1576575146236", "color": "#202020" }, "geometry": { "type": "Point", "coordinates": [ 127.089844, 37.300275 ] } }
{ "type": "Feature", "tippecanoe": { "layer": "2AFCA7FBC7F01583917891139", "minzoom": 2, "maxzoom": 8 }, "properties": { "halo": 0.8, "title": "耽罗国", "fontsize": 12, "tyid": "304000", "oid": "103:1576575146258", "color": "#202020" }, "geometry": { "type": "Point", "coordinates": [ 126.474609, 33.431441 ] } }
{ "type": "Feature", "tippecanoe": { "layer": "2AFCA7FBC7F01583917891139", "minzoom": 2, "maxzoom": 8 },