{"year": "AD280",  "type": "Feature", "tippecanoe": { "layer": "2AFCA107E7101583916970429", "minzoom": 2, "maxzoom": 8 }, "properties": { "halo": 0.8, "title": "拉霍亚文化", "fontsize": 12, "tyid": "304002", "oid": "103:1576575169965", "color": "#262626" }, "geometry": { "type": "Point", "coordinates": [ -118.212891, 34.379713 ] } }
{"year": "AD280",  "type": "Feature", "tippecanoe": { "layer": "2AFCA107E7101583916970429", "minzoom": 2, "maxzoom": 8 }, "properties": { "halo": 0.8, "title": "维珍阿纳萨齐人", "fontsize": 12, "tyid": "304001", "oid": "103:1576575170008", "color": "#262626" }, "geometry": { "type": "Point", "coordinates": [ -113.818359, 36.879621 ] } }
{"year": "AD280",  "type": "Feature", "tippecanoe": { "layer": "2AFCA107E7101583916970429", "minzoom": 2, "maxzoom": 8 }, "properties": { "halo": 0.8, "title": "弗里蒙特文化", "fontsize": 12, "tyid": "304002", "oid": "103:1576575169722", "color": "#262626" }, "geometry": { "type": "Point", "coordinates": [ -111.533203, 38.134557 ] } }
{"year": "AD280",  "type": "Feature", "tippecanoe": { "layer": "2AFCA107E7101583916970429", "minzoom": 2, "maxzoom": 8 }, "properties": { "halo": 0.8, "title": "奥沙拉文化", "fontsize": 12, "tyid": "304002", "oid": "103:1576575169714", "color": "#262626" }, "geometry": { "type": "Point", "coordinates": [ -107.841797, 37.509726 ] } }
{"year": "AD280",  "type": "Feature", "tippecanoe": { "layer": "2AFCA107E7101583916970429", "minzoom": 2, "maxzoom": 8 }, "properties": { "halo": 0.8, "title": "古普韦布洛人", "fontsize": 12, "tyid": "304001", "oid": "103:1576575169699", "color": "#262626" }, "geometry": { "type": "Point", "coordinates": [ -109.951172, 36.527295 ] } }
{"year": "AD280",  "type": "Feature", "tippecanoe": { "layer": "2AFCA107E7101583916970429", "minzoom": 2, "maxzoom": 8 }, "properties": { "halo": 0.8, "title": "莫戈隆文化", "fontsize": 12, "tyid": "304002", "oid": "103:1576575169705", "color": "#262626" }, "geometry": { "type": "Point", "coordinates": [ -108.808594, 31.802893 ] } }
{"year": "AD280",  "type": "Feature", "tippecanoe": { "layer": "2AFCA107E7101583916970429", "minzoom": 2, "maxzoom": 8 }, "properties": { "halo": 0.8, "title": "瓜伊库拉人", "fontsize": 12, "tyid": "304001", "oid": "103:1576575169764", "color": "#262626" }, "geometry": { "type": "Point", "coordinates": [ -111.269531, 24.846565 ] } }
{"year": "AD280",  "type": "Feature", "tippecanoe": { "layer": "2AFCA107E7101583916970429", "minzoom": 2, "maxzoom": 8 }, "properties": { "halo": 0.8, "title": "堪萨斯城霍普韦尔文化", "fontsize": 12, "tyid": "304002", "oid": "103:1576575169805", "color": "#262626" }, "geometry": { "type": "Point", "coordinates": [ -94.042969, 39.027719 ] } }
{"year": "AD280",  "type": "Feature", "tippecanoe": { "layer": "2AFCA107E7101583916970429", "minzoom": 2, "maxzoom": 8 }, "properties": { "halo": 0.8, "title": "哈瓦那霍普韦尔文化", "fontsize": 12, "tyid": "304002", "oid": "103:1576575169778", "color": "#262626" }, "geometry": { "type": "Point", "coordinates": [ -90.966797, 40.245992 ] } }
{"year": "AD280",  "type": "Feature", "tippecanoe": { "layer": "2AFCA107E7101583916970429", "minzoom": 2, "maxzoom": 8 }, "properties": { "halo": 0.8, "title": "喀多语密西西比文化", "fontsize": 12, "tyid": "304002", "oid": "103:1576575169896", "color": "#262626" }, "geometry": { "type": "Point", "coordinates": [ -94.482422, 35.960223 ] } }
{"year": "AD280",  "type": "Feature", "tippecanoe": { "layer": "2AFCA107E7101583916970429", "minzoom": 2, "maxzoom": 8 }, "properties": { "halo": 0.8, "title": "福切马里尼文化", "fontsize": 12, "tyid": "304002", "oid": "103:1576575169696", "color": "#262626" }, "geometry": { "type": "Point", "coordinates": [ -94.130859, 33.284620 ] } }
{"year": "AD280",  "type": "Feature", "tippecanoe": { "layer": "2AFCA107E7101583916970429", "minzoom": 2, "maxzoom": 8 }, "properties": { "halo": 0.8, "title": "华斯塔克文明", "fontsize": 12, "tyid": "304002", "oid": "103:1576575169546", "color": "#262626" }, "geometry": { "type": "Point", "coordinates": [ -98.613281, 22.105999 ] } }
{"year": "AD280",  "type": "Feature", "tippecanoe": { "layer": "2AFCA107E7101583916970429", "minzoom": 2, "maxzoom": 8 }, "properties": { "halo": 0.8, "title": "奇蒂玛察人", "fontsize": 12, "tyid": "304001", "oid": "103:1576575169879", "color": "#262626" }, "geometry": { "type": "Point", "coordinates": [ -90.966797, 30.977609 ] } }
{"year": "AD280",  "type": "Feature", "tippecanoe": { "layer": "2AFCA107E7101583916970429", "minzoom": 2, "maxzoom": 8 }, "properties": { "halo": 0.8, "title": "马克斯维尔文化", "fontsize": 12, "tyid": "304002", "oid": "103:1576575169549", "color": "#262626" }, "geometry": { "type": "Point", "coordinates": [ -90.878906, 29.764377 ] } }
{"year": "AD280",  "type": "Feature", "tippecanoe": { "layer": "2AFCA107E7101583916970429", "minzoom": 2, "maxzoom": 8 }, "properties": { "halo": 0.8, "title": "萨波特克文明", "fontsize": 12, "tyid": "304002", "oid": "103:1576575169727", "color": "#262626" }, "geometry": { "type": "Point", "coordinates": [ -96.064453, 16.888660 ] } }
{"year": "AD280",  "type": "Feature", "tippecanoe": { "layer": "2AFCA107E7101583916970429", "minzoom": 2, "maxzoom": 8 }, "properties": { "halo": 0.8, "title": "古德尔文化", "fontsize": 12, "tyid": "304002", "oid": "103:1576575169540", "color": "#262626" }, "geometry": { "type": "Point", "coordinates": [ -85.869141, 43.133061 ] } }
{"year": "AD280",  "type": "Feature", "tippecanoe": { "layer": "2AFCA107E7101583916970429", "minzoom": 2, "maxzoom": 8 }, "properties": { "halo": 0.8, "title": "索根文化", "fontsize": 12, "tyid": "304002", "oid": "103:1576575169811", "color": "#262626" }, "geometry": { "type": "Point", "coordinates": [ -81.298828, 43.707594 ] } }
{"year": "AD280",  "type": "Feature", "tippecanoe": { "layer": "2AFCA107E7101583916970429", "minzoom": 2, "maxzoom": 8 }, "properties": { "halo": 0.8, "title": "蟹园文化", "fontsize": 12, "tyid": "304002", "oid": "103:1576575169780", "color": "#262626" }, "geometry": { "type": "Point", "coordinates": [ -88.593750, 37.230328 ] } }
{"year": "AD280",  "type": "Feature", "tippecanoe": { "layer": "2AFCA107E7101583916970429", "minzoom": 2, "maxzoom": 8 }, "properties": { "halo": 0.8, "title": "科佩纳文化", "fontsize": 12, "tyid": "304002", "oid": "103:1576575169620", "color": "#262626" }, "geometry": { "type": "Point", "coordinates": [ -87.275391, 34.307144 ] } }
{"year": "AD280",  "type": "Feature", "tippecanoe": { "layer": "2AFCA107E7101583916970429", "minzoom": 2, "maxzoom": 8 }, "properties": { "halo": 0.8, "title": "斯威夫特溪文化", "fontsize": 12, "tyid": "304002", "oid": "103:1576575169842", "color": "#262626" }, "geometry": { "type": "Point", "coordinates": [ -84.814453, 32.175612 ] } }
{"year": "AD280",  "type": "Feature", "tippecanoe": { "layer": "2AFCA107E7101583916970429", "minzoom": 2, "maxzoom": 8 }, "properties": { "halo": 0.8, "title": "俄亥俄霍普韦尔文化", "fontsize": 12, "tyid": "304002", "oid": "103:1576575169723", "color": "#262626" }, "geometry": { "type": "Point", "coordinates": [ -82.089844, 39.639538 ] } }
{"year": "AD280",  "type": "Feature", "tippecanoe": { "layer": "2AFCA107E7101583916970429", "minzoom": 2, "maxzoom": 8 }, "properties": { "halo": 0.8, "title": "阿姆斯特朗文化", "fontsize": 12, "tyid": "304002", "oid": "103:1576575169859", "color": "#262626" }, "geometry": { "type": "Point", "coordinates": [ -82.968750, 38.134557 ] } }
{"year": "AD280",  "type": "Feature", "tippecanoe": { "layer": "2AFCA107E7101583916970429", "minzoom": 2, "maxzoom": 8 }, "properties": { "halo": 0.8, "title": "德普特福德文化", "fontsize": 12, "tyid": "304002", "oid": "103:1576575169864", "color": "#262626" }, "geometry": { "type": "Point", "coordinates": [ -79.628906, 33.431441 ] } }
{"year": "AD280",  "type": "Feature", "tippecanoe": { "layer": "2AFCA107E7101583916970429", "minzoom": 2, "maxzoom": 8 }, "properties": { "halo": 0.8, "title": "圣罗莎-斯威夫特溪文化", "fontsize": 12, "tyid": "304002", "oid": "103:1576575169571", "color": "#262626" }, "geometry": { "type": "Point", "coordinates": [ -86.748047, 30.977609 ] } }
{"year": "AD280",  "type": "Feature", "tippecanoe": { "layer": "2AFCA107E7101583916970429", "minzoom": 2, "maxzoom": 8 }, "properties": { "halo": 0.8, "title": "维登岛文化", "fontsize": 12, "tyid": "304002", "oid": "103:1576575169820", "color": "#262626" }, "geometry": { "type": "Point", "coordinates": [ -84.902344, 30.524413 ] } }
{"year": "AD280",  "type": "Feature", "tippecanoe": { "layer": "2AFCA107E7101583916970429", "minzoom": 2, "maxzoom": 8 }, "properties": { "halo": 0.8, "title": "兹努文化", "fontsize": 12, "tyid": "304002", "oid": "103:1576575169594", "color": "#262626" }, "geometry": { "type": "Point", "coordinates": [ -75.585938, 8.581021 ] } }
{"year": "AD280",  "type": "Feature", "tippecanoe": { "layer": "2AFCA107E7101583916970429", "minzoom": 2, "maxzoom": 8 }, "properties": { "halo": 0.8, "title": "埃雷拉时期", "fontsize": 12, "tyid": "304002", "oid": "103:1576575169702", "color": "#262626" }, "geometry": { "type": "Point", "coordinates": [ -73.476562, 5.441022 ] } }
{"year": "AD280",  "type": "Feature", "tippecanoe": { "layer": "2AFCA107E7101583916970429", "minzoom": 2, "maxzoom": 8 }, "properties": { "halo": 0.8, "title": "伊奈里人", "fontsize": 12, "tyid": "304001", "oid": "103:1576575169557", "color": "#262626" }, "geometry": { "type": "Point", "coordinates": [ -61.787109, 8.754795 ] } }
{"year": "AD280",  "type": "Feature", "tippecanoe": { "layer": "2AFCA107E7101583916970429", "minzoom": 2, "maxzoom": 8 }, "properties": { "halo": 0.8, "title": "喀里多尼亚人", "fontsize": 12, "tyid": "304001", "oid": "103:1576575169846", "color": "#262626" }, "geometry": { "type": "Point", "coordinates": [ -4.042969, 56.992883 ] } }
{"year": "AD280",  "type": "Feature", "tippecanoe": { "layer": "2AFCA107E7101583916970429", "minzoom": 2, "maxzoom": 8 }, "properties": { "halo": 0.8, "title": "盖尔人", "fontsize": 12, "tyid": "304001", "oid": "103:1576575169576", "color": "#262626" }, "geometry": { "type": "Point", "coordinates": [ -9.228516, 52.052490 ] } }
{"year": "AD280",  "type": "Feature", "tippecanoe": { "layer": "2AFCA107E7101583916970429", "minzoom": 2, "maxzoom": 8 }, "properties": { "halo": 0.8, "title": "皮克特人", "fontsize": 12, "tyid": "304001", "oid": "103:1576575169831", "color": "#262626" }, "geometry": { "type": "Point", "coordinates": [ -4.130859, 55.379110 ] } }
{"year": "AD280",  "type": "Feature", "tippecanoe": { "layer": "2AFCA107E7101583916970429", "minzoom": 2, "maxzoom": 8 }, "properties": { "halo": 0.8, "title": "杰内-杰诺文化二期", "fontsize": 12, "tyid": "304002", "oid": "103:1576575169582", "color": "#262626" }, "geometry": { "type": "Point", "coordinates": [ -5.097656, 13.752725 ] } }
{"year": "AD280",  "type": "Feature", "tippecanoe": { "layer": "2AFCA107E7101583916970429", "minzoom": 2, "maxzoom": 8 }, "properties": { "halo": 0.8, "title": "楚真文化", "fontsize": 12, "tyid": "304002", "oid": "103:1576575169754", "color": "#262626" }, "geometry": { "type": "Point", "coordinates": [ -70.576172, -16.299051 ] } }
{"year": "AD280",  "type": "Feature", "tippecanoe": { "layer": "2AFCA107E7101583916970429", "minzoom": 2, "maxzoom": 8 }, "properties": { "halo": 0.8, "title": "艾马拉人", "fontsize": 12, "tyid": "304001", "oid": "103:1576575169698", "color": "#262626" }, "geometry": { "type": "Point", "coordinates": [ -68.291016, -17.224758 ] } }
{"year": "AD280",  "type": "Feature", "tippecanoe": { "layer": "2AFCA107E7101583916970429", "minzoom": 2, "maxzoom": 8 }, "properties": { "halo": 0.8, "title": "昌戈人", "fontsize": 12, "tyid": "304001", "oid": "103:1576575169718", "color": "#262626" }, "geometry": { "type": "Point", "coordinates": [ -69.960938, -23.725012 ] } }
{"year": "AD280",  "type": "Feature", "tippecanoe": { "layer": "2AFCA107E7101583916970429", "minzoom": 2, "maxzoom": 8 }, "properties": { "halo": 0.8, "title": "阿拉米托文化", "fontsize": 12, "tyid": "304002", "oid": "103:1576575169717", "color": "#262626" }, "geometry": { "type": "Point", "coordinates": [ -67.851562, -26.588527 ] } }
{"year": "AD280",  "type": "Feature", "tippecanoe": { "layer": "2AFCA107E7101583916970429", "minzoom": 2, "maxzoom": 8 }, "properties": { "halo": 0.8, "title": "埃尔莫尔文化", "fontsize": 12, "tyid": "304002", "oid": "103:1576575169632", "color": "#262626" }, "geometry": { "type": "Point", "coordinates": [ -70.927734, -30.675715 ] } }
{"year": "AD280",  "type": "Feature", "tippecanoe": { "layer": "2AFCA107E7101583916970429", "minzoom": 2, "maxzoom": 8 }, "properties": { "halo": 0.8, "title": "安西尔塔文化", "fontsize": 12, "tyid": "304002", "oid": "103:1576575169707", "color": "#262626" }, "geometry": { "type": "Point", "coordinates": [ -68.818359, -31.353637 ] } }
{"year": "AD280",  "type": "Feature", "tippecanoe": { "layer": "2AFCA107E7101583916970429", "minzoom": 2, "maxzoom": 8 }, "properties": { "halo": 0.8, "title": "洛勒洛文化", "fontsize": 12, "tyid": "304002", "oid": "103:1576575169736", "color": "#262626" }, "geometry": { "type": "Point", "coordinates": [ -70.664062, -33.724340 ] } }
{"year": "AD280",  "type": "Feature", "tippecanoe": { "layer": "2AFCA107E7101583916970429", "minzoom": 2, "maxzoom": 8 }, "properties": { "halo": 0.8, "title": "马普切人", "fontsize": 12, "tyid": "304001", "oid": "103:1576575169746", "color": "#262626" }, "geometry": { "type": "Point", "coordinates": [ -71.455078, -38.959409 ] } }
{"year": "AD280",  "type": "Feature", "tippecanoe": { "layer": "2AFCA107E7101583916970429", "minzoom": 2, "maxzoom": 8 }, "properties": { "halo": 0.8, "title": "希德拉里卡文化", "fontsize": 12, "tyid": "304002", "oid": "103:1576575169634", "color": "#262626" }, "geometry": { "type": "Point", "coordinates": [ -66.005859, -12.297068 ] } }
{"year": "AD280",  "type": "Feature", "tippecanoe": { "layer": "2AFCA107E7101583916970429", "minzoom": 2, "maxzoom": 8 }, "properties": { "halo": 0.8, "title": "摩克索人", "fontsize": 12, "tyid": "304001", "oid": "103:1576575169559", "color": "#262626" }, "geometry": { "type": "Point", "coordinates": [ -65.830078, -13.923404 ] } }
{"year": "AD280",  "type": "Feature", "tippecanoe": { "layer": "2AFCA107E7101583916970429", "minzoom": 2, "maxzoom": 8 }, "properties": { "halo": 0.8, "title": "瓦卡拉尼文化", "fontsize": 12, "tyid": "304002", "oid": "103:1576575169810", "color": "#262626" }, "geometry": { "type": "Point", "coordinates": [ -64.951172, -17.811456 ] } }
{"year": "AD280",  "type": "Feature", "tippecanoe": { "layer": "2AFCA107E7101583916970429", "minzoom": 2, "maxzoom": 8 }, "properties": { "halo": 0.8, "title": "拉坎德拉里亚文化", "fontsize": 12, "tyid": "304002", "oid": "103:1576575169708", "color": "#262626" }, "geometry": { "type": "Point", "coordinates": [ -65.390625, -25.720735 ] } }
{"year": "AD280",  "type": "Feature", "tippecanoe": { "layer": "2AFCA107E7101583916970429", "minzoom": 2, "maxzoom": 8 }, "properties": { "halo": 0.8, "title": "康多拉瓦西文化", "fontsize": 12, "tyid": "304002", "oid": "103:1576575169635", "color": "#262626" }, "geometry": { "type": "Point", "coordinates": [ -66.708984, -27.293689 ] } }
{"year": "AD280",  "type": "Feature", "tippecanoe": { "layer": "2AFCA107E7101583916970429", "minzoom": 2, "maxzoom": 8 }, "properties": { "halo": 0.8, "title": "拉斯梅塞德斯文化", "fontsize": 12, "tyid": "304002", "oid": "103:1576575169715", "color": "#262626" }, "geometry": { "type": "Point", "coordinates": [ -63.808594, -27.605671 ] } }
{"year": "AD280",  "type": "Feature", "tippecanoe": { "layer": "2AFCA107E7101583916970429", "minzoom": 2, "maxzoom": 8 }, "properties": { "halo": 0.8, "title": "查鲁亚人", "fontsize": 12, "tyid": "304001", "oid": "103:1576575169808", "color": "#262626" }, "geometry": { "type": "Point", "coordinates": [ -57.128906, -32.398516 ] } }
{"year": "AD280",  "type": "Feature", "tippecanoe": { "layer": "2AFCA107E7101583916970429", "minzoom": 2, "maxzoom": 8 }, "properties": { "halo": 0.8, "title": "特胡尔切人", "fontsize": 12, "tyid": "304001", "oid": "103:1576575169917", "color": "#262626" }, "geometry": { "type": "Point", "coordinates": [ -70.751953, -50.176898 ] } }
{"year": "AD280",  "type": "Feature", "tippecanoe": { "layer": "2AFCA107E7101583916970429", "minzoom": 2, "maxzoom": 8 }, "properties": { "halo": 0.8, "title": "塞尔克南人", "fontsize": 12, "tyid": "304001", "oid": "103:1576575169712", "color": "#262626" }, "geometry": { "type": "Point", "coordinates": [ -68.378906, -53.696706 ] } }
{"year": "AD280",  "type": "Feature", "tippecanoe": { "layer": "2AFCA107E7101583916970429", "minzoom": 2, "maxzoom": 8 }, "properties": { "halo": 0.8, "title": "雅干人", "fontsize": 12, "tyid": "304001", "oid": "103:1576575169563", "color": "#262626" }, "geometry": { "type": "Point", "coordinates": [ -68.554688, -54.521081 ] } }
{"year": "AD280",  "type": "Feature", "tippecanoe": { "layer": "2AFCA107E7101583916970429", "minzoom": 2, "maxzoom": 8 }, "properties": { "halo": 0.8, "title": "朱特人", "fontsize": 12, "tyid": "304001", "oid": "103:1576575169918", "color": "#262626" }, "geometry": { "type": "Point", "coordinates": [ 9.316406, 56.267761 ] } }
{"year": "AD280",  "type": "Feature", "tippecanoe": { "layer": "2AFCA107E7101583916970429", "minzoom": 2, "maxzoom": 8 }, "properties": { "halo": 0.8, "title": "耶阿特人", "fontsize": 12, "tyid": "304001", "oid": "103:1576575169834", "color": "#262626" }, "geometry": { "type": "Point", "coordinates": [ 13.710938, 57.657158 ] } }
{"year": "AD280",  "type": "Feature", "tippecanoe": { "layer": "2AFCA107E7101583916970429", "minzoom": 2, "maxzoom": 8 }, "properties": { "halo": 0.8, "title": "赫鲁利人", "fontsize": 12, "tyid": "304001", "oid": "103:1576575169653", "color": "#262626" }, "geometry": { "type": "Point", "coordinates": [ 13.447266, 55.875311 ] } }
{"year": "AD280",  "type": "Feature", "tippecanoe": { "layer": "2AFCA107E7101583916970429", "minzoom": 2, "maxzoom": 8 }, "properties": { "halo": 0.8, "title": "弗里西人", "fontsize": 12, "tyid": "304001", "oid": "103:1576575169761", "color": "#262626" }, "geometry": { "type": "Point", "coordinates": [ 6.503906, 52.696361 ] } }
{"year": "AD280",  "type": "Feature", "tippecanoe": { "layer": "2AFCA107E7101583916970429", "minzoom": 2, "maxzoom": 8 }, "properties": { "halo": 0.8, "title": "乔西人", "fontsize": 12, "tyid": "304001", "oid": "103:1576575169687", "color": "#262626" }, "geometry": { "type": "Point", "coordinates": [ 8.613281, 53.120405 ] } }
{"year": "AD280",  "type": "Feature", "tippecanoe": { "layer": "2AFCA107E7101583916970429", "minzoom": 2, "maxzoom": 8 }, "properties": { "halo": 0.8, "title": "查蒂人", "fontsize": 12, "tyid": "304001", "oid": "103:1576575169772", "color": "#262626" }, "geometry": { "type": "Point", "coordinates": [ 8.964844, 50.847573 ] } }
{"year": "AD280",  "type": "Feature", "tippecanoe": { "layer": "2AFCA107E7101583916970429", "minzoom": 2, "maxzoom": 8 }, "properties": { "halo": 0.8, "title": "切鲁西人", "fontsize": 12, "tyid": "304001", "oid": "103:1576575169623", "color": "#262626" }, "geometry": { "type": "Point", "coordinates": [ 10.634766, 52.429222 ] } }
{"year": "AD280",  "type": "Feature", "tippecanoe": { "layer": "2AFCA107E7101583916970429", "minzoom": 2, "maxzoom": 8 }, "properties": { "halo": 0.8, "title": "赫门杜里人", "fontsize": 12, "tyid": "304001", "oid": "103:1576575169665", "color": "#262626" }, "geometry": { "type": "Point", "coordinates": [ 11.162109, 50.345460 ] } }
{"year": "AD280",  "type": "Feature", "tippecanoe": { "layer": "2AFCA107E7101583916970429", "minzoom": 2, "maxzoom": 8 }, "properties": { "halo": 0.8, "title": "阿勒曼尼人", "fontsize": 12, "tyid": "304001", "oid": "103:1576575169758", "color": "#262626" }, "geometry": { "type": "Point", "coordinates": [ 9.140625, 48.806863 ] } }
{"year": "AD280",  "type": "Feature", "tippecanoe": { "layer": "2AFCA107E7101583916970429", "minzoom": 2, "maxzoom": 8 }, "properties": { "halo": 0.8, "title": "伦巴第人", "fontsize": 12, "tyid": "304001", "oid": "103:1576575169757", "color": "#262626" }, "geometry": { "type": "Point", "coordinates": [ 12.656250, 53.540307 ] } }
{"year": "AD280",  "type": "Feature", "tippecanoe": { "layer": "2AFCA107E7101583916970429", "minzoom": 2, "maxzoom": 8 }, "properties": { "halo": 0.8, "title": "鲁基人", "fontsize": 12, "tyid": "304001", "oid": "103:1576575169756", "color": "#262626" }, "geometry": { "type": "Point", "coordinates": [ 16.611328, 53.748711 ] } }
{"year": "AD280",  "type": "Feature", "tippecanoe": { "layer": "2AFCA107E7101583916970429", "minzoom": 2, "maxzoom": 8 }, "properties": { "halo": 0.8, "title": "苏维汇人", "fontsize": 12, "tyid": "304001", "oid": "103:1576575169952", "color": "#262626" }, "geometry": { "type": "Point", "coordinates": [ 13.271484, 51.672555 ] } }
{"year": "AD280",  "type": "Feature", "tippecanoe": { "layer": "2AFCA107E7101583916970429", "minzoom": 2, "maxzoom": 8 }, "properties": { "halo": 0.8, "title": "勃艮第人", "fontsize": 12, "tyid": "304001", "oid": "103:1576575169833", "color": "#262626" }, "geometry": { "type": "Point", "coordinates": [ 16.171875, 52.106505 ] } }
{"year": "AD280",  "type": "Feature", "tippecanoe": { "layer": "2AFCA107E7101583916970429", "minzoom": 2, "maxzoom": 8 }, "properties": { "halo": 0.8, "title": "马科曼尼人", "fontsize": 12, "tyid": "304001", "oid": "103:1576575169638", "color": "#262626" }, "geometry": { "type": "Point", "coordinates": [ 14.501953, 49.610710 ] } }
{"year": "AD280",  "type": "Feature", "tippecanoe": { "layer": "2AFCA107E7101583916970429", "minzoom": 2, "maxzoom": 8 }, "properties": { "halo": 0.8, "title": "西林吉人", "fontsize": 12, "tyid": "304001", "oid": "103:1576575169679", "color": "#262626" }, "geometry": { "type": "Point", "coordinates": [ 17.490234, 50.736455 ] } }
{"year": "AD280",  "type": "Feature", "tippecanoe": { "layer": "2AFCA107E7101583916970429", "minzoom": 2, "maxzoom": 8 }, "properties": { "halo": 0.8, "title": "卢基人", "fontsize": 12, "tyid": "304001", "oid": "103:1576575169827", "color": "#262626" }, "geometry": { "type": "Point", "coordinates": [ 19.687500, 51.672555 ] } }
{"year": "AD280",  "type": "Feature", "tippecanoe": { "layer": "2AFCA107E7101583916970429", "minzoom": 2, "maxzoom": 8 }, "properties": { "halo": 0.8, "title": "格皮德人", "fontsize": 12, "tyid": "304001", "oid": "103:1576575169637", "color": "#262626" }, "geometry": { "type": "Point", "coordinates": [ 22.236328, 49.037868 ] } }
{"year": "AD280",  "type": "Feature", "tippecanoe": { "layer": "2AFCA107E7101583916970429", "minzoom": 2, "maxzoom": 8 }, "properties": { "halo": 0.8, "title": "夸迪人", "fontsize": 12, "tyid": "304001", "oid": "103:1576575169618", "color": "#262626" }, "geometry": { "type": "Point", "coordinates": [ 18.369141, 48.864715 ] } }
{"year": "AD280",  "type": "Feature", "tippecanoe": { "layer": "2AFCA107E7101583916970429", "minzoom": 2, "maxzoom": 8 }, "properties": { "halo": 0.8, "title": "埃阿热格人", "fontsize": 12, "tyid": "304001", "oid": "103:1576575169769", "color": "#262626" }, "geometry": { "type": "Point", "coordinates": [ 20.566406, 47.100045 ] } }
{"year": "AD280",  "type": "Feature", "tippecanoe": { "layer": "2AFCA107E7101583916970429", "minzoom": 2, "maxzoom": 8 }, "properties": { "halo": 0.8, "title": "古爱沙尼亚人", "fontsize": 12, "tyid": "304001", "oid": "103:1576575169986", "color": "#262626" }, "geometry": { "type": "Point", "coordinates": [ 25.576172, 58.995311 ] } }
{"year": "AD280",  "type": "Feature", "tippecanoe": { "layer": "2AFCA107E7101583916970429", "minzoom": 2, "maxzoom": 8 }, "properties": { "halo": 0.8, "title": "利沃尼亚人", "fontsize": 12, "tyid": "304001", "oid": "103:1576575169796", "color": "#262626" }, "geometry": { "type": "Point", "coordinates": [ 25.839844, 58.170702 ] } }
{"year": "AD280",  "type": "Feature", "tippecanoe": { "layer": "2AFCA107E7101583916970429", "minzoom": 2, "maxzoom": 8 }, "properties": { "halo": 0.8, "title": "古拉脱维亚人", "fontsize": 12, "tyid": "304001", "oid": "103:1576575169943", "color": "#262626" }, "geometry": { "type": "Point", "coordinates": [ 26.630859, 56.848972 ] } }
{"year": "AD280",  "type": "Feature", "tippecanoe": { "layer": "2AFCA107E7101583916970429", "minzoom": 2, "maxzoom": 8 }, "properties": { "halo": 0.8, "title": "沃茨人", "fontsize": 12, "tyid": "304001", "oid": "103:1576575169857", "color": "#262626" }, "geometry": { "type": "Point", "coordinates": [ 29.794922, 59.040555 ] } }
{"year": "AD280",  "type": "Feature", "tippecanoe": { "layer": "2AFCA107E7101583916970429", "minzoom": 2, "maxzoom": 8 }, "properties": { "halo": 0.8, "title": "达契亚人", "fontsize": 12, "tyid": "304001", "oid": "103:1576575169689", "color": "#262626" }, "geometry": { "type": "Point", "coordinates": [ 24.960938, 47.635784 ] } }
{"year": "AD280",  "type": "Feature", "tippecanoe": { "layer": "2AFCA107E7101583916970429", "minzoom": 2, "maxzoom": 8 }, "properties": { "halo": 0.8, "title": "哈斯丁基人", "fontsize": 12, "tyid": "304001", "oid": "103:1576575169762", "color": "#262626" }, "geometry": { "type": "Point", "coordinates": [ 25.576172, 48.632909 ] } }
{"year": "AD280",  "type": "Feature", "tippecanoe": { "layer": "2AFCA107E7101583916970429", "minzoom": 2, "maxzoom": 8 }, "properties": { "halo": 0.8, "title": "卡尔皮人", "fontsize": 12, "tyid": "304001", "oid": "103:1576575169794", "color": "#262626" }, "geometry": { "type": "Point", "coordinates": [ 27.158203, 46.800059 ] } }
{"year": "AD280",  "type": "Feature", "tippecanoe": { "layer": "2AFCA107E7101583916970429", "minzoom": 2, "maxzoom": 8 }, "properties": { "halo": 0.8, "title": "罗克索拉尼人", "fontsize": 12, "tyid": "304001", "oid": "103:1576575169795", "color": "#262626" }, "geometry": { "type": "Point", "coordinates": [ 26.630859, 44.653024 ] } }
{"year": "AD280",  "type": "Feature", "tippecanoe": { "layer": "2AFCA107E7101583916970429", "minzoom": 2, "maxzoom": 8 }, "properties": { "halo": 0.8, "title": "瑟文吉人", "fontsize": 12, "tyid": "304001", "oid": "103:1576575169752", "color": "#262626" }, "geometry": { "type": "Point", "coordinates": [ 28.564453, 46.920255 ] } }
{"year": "AD280",  "type": "Feature", "tippecanoe": { "layer": "2AFCA107E7101583916970429", "minzoom": 2, "maxzoom": 8 }, "properties": { "halo": 0.8, "title": "格鲁森尼人", "fontsize": 12, "tyid": "304001", "oid": "103:1576575169825", "color": "#262626" }, "geometry": { "type": "Point", "coordinates": [ 32.080078, 48.107431 ] } }
{"year": "AD280",  "type": "Feature", "tippecanoe": { "layer": "2AFCA107E7101583916970429", "minzoom": 2, "maxzoom": 8 }, "properties": { "halo": 0.8, "title": "博斯普鲁斯王国", "fontsize": 12, "tyid": "304000", "oid": "103:1576575170000", "color": "#202020" }, "geometry": { "type": "Point", "coordinates": [ 38.144531, 45.274886 ] } }
{"year": "AD280",  "type": "Feature", "tippecanoe": { "layer": "2AFCA107E7101583916970429", "minzoom": 2, "maxzoom": 8 }, "properties": { "halo": 0.8, "title": "切尔克斯人", "fontsize": 12, "tyid": "304001", "oid": "103:1576575169828", "color": "#262626" }, "geometry": { "type": "Point", "coordinates": [ 41.748047, 43.771094 ] } }
{"year": "AD280",  "type": "Feature", "tippecanoe": { "layer": "2AFCA107E7101583916970429", "minzoom": 2, "maxzoom": 8 }, "properties": { "halo": 0.8, "title": "拉基卡王国", "fontsize": 12, "tyid": "304000", "oid": "103:1576575169987", "color": "#202020" }, "geometry": { "type": "Point", "coordinates": [ 42.363281, 42.423457 ] } }
{"year": "AD280",  "type": "Feature", "tippecanoe": { "layer": "2AFCA107E7101583916970429", "minzoom": 2, "maxzoom": 8 }, "properties": { "halo": 0.8, "title": "高加索伊比利亚王国", "fontsize": 12, "tyid": "304000", "oid": "103:1577244870899", "color": "#202020" }, "geometry": { "type": "Point", "coordinates": [ 44.384766, 42.098222 ] } }
{"year": "AD280",  "type": "Feature", "tippecanoe": { "layer": "2AFCA107E7101583916970429", "minzoom": 2, "maxzoom": 8 }, "properties": { "halo": 0.8, "title": "加拉曼特王国", "fontsize": 12, "tyid": "304000", "oid": "103:1576575169816", "color": "#202020" }, "geometry": { "type": "Point", "coordinates": [ 13.886719, 26.902477 ] } }
{"year": "AD280",  "type": "Feature", "tippecanoe": { "layer": "2AFCA107E7101583916970429", "minzoom": 2, "maxzoom": 8 }, "properties": { "halo": 0.8, "title": "布拉-阿辛达-西卡文化", "fontsize": 12, "tyid": "304002", "oid": "103:1576575169981", "color": "#262626" }, "geometry": { "type": "Point", "coordinates": [ 1.757812, 12.983148 ] } }
{"year": "AD280",  "type": "Feature", "tippecanoe": { "layer": "2AFCA107E7101583916970429", "minzoom": 2, "maxzoom": 8 }, "properties": { "halo": 0.8, "title": "约鲁巴人", "fontsize": 12, "tyid": "304001", "oid": "103:1576575169671", "color": "#262626" }, "geometry": { "type": "Point", "coordinates": [ 3.427734, 7.536764 ] } }
{"year": "AD280",  "type": "Feature", "tippecanoe": { "layer": "2AFCA107E7101583916970429", "minzoom": 2, "maxzoom": 8 }, "properties": { "halo": 0.8, "title": "伊博人", "fontsize": 12, "tyid": "304001", "oid": "103:1576575169905", "color": "#262626" }, "geometry": { "type": "Point", "coordinates": [ 7.998047, 5.965754 ] } }
{"year": "AD280",  "type": "Feature", "tippecanoe": { "layer": "2AFCA107E7101583916970429", "minzoom": 2, "maxzoom": 8 }, "properties": { "halo": 0.8, "title": "努比亚人", "fontsize": 12, "tyid": "304001", "oid": "103:1576575169947", "color": "#262626" }, "geometry": { "type": "Point", "coordinates": [ 31.904297, 22.024546 ] } }
{"year": "AD280",  "type": "Feature", "tippecanoe": { "layer": "2AFCA107E7101583916970429", "minzoom": 2, "maxzoom": 8 }, "properties": { "halo": 0.8, "title": "阿兹贾夫纳部落", "fontsize": 12, "tyid": "304001", "oid": "103:1576575169942", "color": "#262626" }, "geometry": { "type": "Point", "coordinates": [ 39.990234, 33.284620 ] } }
{"year": "AD280",  "type": "Feature", "tippecanoe": { "layer": "2AFCA107E7101583916970429", "minzoom": 2, "maxzoom": 8 }, "properties": { "halo": 0.8, "title": "拉赫姆王国", "fontsize": 12, "tyid": "304000", "oid": "103:1576575169949", "color": "#202020" }, "geometry": { "type": "Point", "coordinates": [ 43.330078, 32.101190 ] } }
{"year": "AD280",  "type": "Feature", "tippecanoe": { "layer": "2AFCA107E7101583916970429", "minzoom": 2, "maxzoom": 8 }, "properties": { "halo": 0.8, "title": "塔努联盟", "fontsize": 12, "tyid": "304002", "oid": "103:1576575169955", "color": "#262626" }, "geometry": { "type": "Point", "coordinates": [ 37.001953, 31.128199 ] } }
{"year": "AD280",  "type": "Feature", "tippecanoe": { "layer": "2AFCA107E7101583916970429", "minzoom": 2, "maxzoom": 8 }, "properties": { "halo": 0.8, "title": "赛莫德人", "fontsize": 12, "tyid": "304001", "oid": "103:1576575169660", "color": "#262626" }, "geometry": { "type": "Point", "coordinates": [ 41.132812, 24.046464 ] } }
{"year": "AD280",  "type": "Feature", "tippecanoe": { "layer": "2AFCA107E7101583916970429", "minzoom": 2, "maxzoom": 8 }, "properties": { "halo": 0.8, "title": "库施王国", "fontsize": 12, "tyid": "304000", "oid": "103:1576575169948", "color": "#202020" }, "geometry": { "type": "Point", "coordinates": [ 32.255859, 18.229351 ] } }
{"year": "AD280",  "type": "Feature", "tippecanoe": { "layer": "2AFCA107E7101583916970429", "minzoom": 2, "maxzoom": 8 }, "properties": { "halo": 0.8, "title": "布雷米耶国", "fontsize": 12, "tyid": "304001", "oid": "103:1576575169662", "color": "#262626" }, "geometry": { "type": "Point", "coordinates": [ 34.980469, 21.371244 ] } }
{"year": "AD280",  "type": "Feature", "tippecanoe": { "layer": "2AFCA107E7101583916970429", "minzoom": 2, "maxzoom": 8 }, "properties": { "halo": 0.8, "title": "贝扎人", "fontsize": 12, "tyid": "304001", "oid": "103:1576575169773", "color": "#262626" }, "geometry": { "type": "Point", "coordinates": [ 35.244141, 16.299051 ] } }
{"year": "AD280",  "type": "Feature", "tippecanoe": { "layer": "2AFCA107E7101583916970429", "minzoom": 2, "maxzoom": 8 }, "properties": { "halo": 0.8, "title": "马祖宁文化", "fontsize": 12, "tyid": "304002", "oid": "103:1576575169729", "color": "#262626" }, "geometry": { "type": "Point", "coordinates": [ 50.800781, 55.379110 ] } }
{"year": "AD280",  "type": "Feature", "tippecanoe": { "layer": "2AFCA107E7101583916970429", "minzoom": 2, "maxzoom": 8 }, "properties": { "halo": 0.8, "title": "纳赫人", "fontsize": 12, "tyid": "304001", "oid": "103:1576575169970", "color": "#262626" }, "geometry": { "type": "Point", "coordinates": [ 45.878906, 42.875964 ] } }
{"year": "AD280",  "type": "Feature", "tippecanoe": { "layer": "2AFCA107E7101583916970429", "minzoom": 2, "maxzoom": 8 }, "properties": { "halo": 0.8, "title": "塞迦人", "fontsize": 12, "tyid": "304001", "oid": "103:1576575169574", "color": "#262626" }, "geometry": { "type": "Point", "coordinates": [ 55.371094, 42.747012 ] } }
{"year": "AD280",  "type": "Feature", "tippecanoe": { "layer": "2AFCA107E7101583916970429", "minzoom": 2, "maxzoom": 8 }, "properties": { "halo": 0.8, "title": "巴赫穆廷诺文化", "fontsize": 12, "tyid": "304002", "oid": "103:1576575169597", "color": "#262626" }, "geometry": { "type": "Point", "coordinates": [ 56.513672, 53.330873 ] } }
{"year": "AD280",  "type": "Feature", "tippecanoe": { "layer": "2AFCA107E7101583916970429", "minzoom": 2, "maxzoom": 8 }, "properties": { "halo": 0.8, "title": "驩潜国", "fontsize": 12, "tyid": "304000", "oid": "103:1576575170004", "color": "#202020" }, "geometry": { "type": "Point", "coordinates": [ 59.765625, 42.488302 ] } }
{"year": "AD280",  "type": "Feature", "tippecanoe": { "layer": "2AFCA107E7101583916970429", "minzoom": 2, "maxzoom": 8 }, "properties": { "halo": 0.8, "title": "车师前国", "fontsize": 12, "tyid": "304000", "oid": "103:1576575169522", "color": "#202020" }, "geometry": { "type": "Point", "coordinates": [ 88.593750, 44.276671 ] } }
{"year": "AD280",  "type": "Feature", "tippecanoe": { "layer": "2AFCA107E7101583916970429", "minzoom": 2, "maxzoom": 8 }, "properties": { "halo": 0.8, "title": "焉耆国", "fontsize": 12, "tyid": "304000", "oid": "103:1576575169994", "color": "#202020" }, "geometry": { "type": "Point", "coordinates": [ 87.451172, 41.705729 ] } }
{"year": "AD280",  "type": "Feature", "tippecanoe": { "layer": "2AFCA107E7101583916970429", "minzoom": 2, "maxzoom": 8 }, "properties": { "halo": 0.8, "title": "高加索阿尔巴尼亚王国", "fontsize": 12, "tyid": "304000", "oid": "103:1576575169989", "color": "#202020" }, "geometry": { "type": "Point", "coordinates": [ 46.845703, 40.647304 ] } }
{"year": "AD280",  "type": "Feature", "tippecanoe": { "layer": "2AFCA107E7101583916970429", "minzoom": 2, "maxzoom": 8 }, "properties": { "halo": 0.8, "title": "卡尤王国", "fontsize": 12, "tyid": "304000", "oid": "103:1576575169521", "color": "#202020" }, "geometry": { "type": "Point", "coordinates": [ 45.175781, 35.245619 ] } }
{"year": "AD280",  "type": "Feature", "tippecanoe": { "layer": "2AFCA107E7101583916970429", "minzoom": 2, "maxzoom": 8 }, "properties": { "halo": 0.8, "title": "阿兹达巴部落", "fontsize": 12, "tyid": "304001", "oid": "103:1576575169967", "color": "#262626" }, "geometry": { "type": "Point", "coordinates": [ 57.832031, 23.241346 ] } }
{"year": "AD280",  "type": "Feature", "tippecanoe": { "layer": "2AFCA107E7101583916970429", "minzoom": 2, "maxzoom": 8 }, "properties": { "halo": 0.8, "title": "阿德王国", "fontsize": 12, "tyid": "304000", "oid": "103:1576575169548", "color": "#202020" }, "geometry": { "type": "Point", "coordinates": [ 52.382812, 18.646245 ] } }
{"year": "AD280",  "type": "Feature", "tippecanoe": { "layer": "2AFCA107E7101583916970429", "minzoom": 2, "maxzoom": 8 }, "properties": { "halo": 0.8, "title": "哈德拉毛王国", "fontsize": 12, "tyid": "304000", "oid": "103:1576575169892", "color": "#202020" }, "geometry": { "type": "Point", "coordinates": [ 51.064453, 16.383391 ] } }
{"year": "AD280",  "type": "Feature", "tippecanoe": { "layer": "2AFCA107E7101583916970429", "minzoom": 2, "maxzoom": 8 }, "properties": { "halo": 0.8, "title": "大宛国", "fontsize": 12, "tyid": "304000", "oid": "103:1576575169657", "color": "#202020" }, "geometry": { "type": "Point", "coordinates": [ 71.455078, 40.713956 ] } }
{"year": "AD280",  "type": "Feature", "tippecanoe": { "layer": "2AFCA107E7101583916970429", "minzoom": 2, "maxzoom": 8 }, "properties": { "halo": 0.8, "title": "疏勒国", "fontsize": 12, "tyid": "304000", "oid": "103:1576575169992", "color": "#202020" }, "geometry": { "type": "Point", "coordinates": [ 74.003906, 38.754083 ] } }
{"year": "AD280",  "type": "Feature", "tippecanoe": { "layer": "2AFCA107E7101583916970429", "minzoom": 2, "maxzoom": 8 }, "properties": { "halo": 0.8, "title": "于阗国", "fontsize": 12, "tyid": "304000", "oid": "103:1576575169524", "color": "#202020" }, "geometry": { "type": "Point", "coordinates": [ 78.398438, 37.509726 ] } }
{"year": "AD280",  "type": "Feature", "tippecanoe": { "layer": "2AFCA107E7101583916970429", "minzoom": 2, "maxzoom": 8 }, "properties": { "halo": 0.8, "title": "西萨特拉普王朝", "fontsize": 12, "tyid": "304000", "oid": "103:1576575169823", "color": "#202020" }, "geometry": { "type": "Point", "coordinates": [ 71.894531, 22.998852 ] } }
{"year": "AD280",  "type": "Feature", "tippecanoe": { "layer": "2AFCA107E7101583916970429", "minzoom": 2, "maxzoom": 8 }, "properties": { "halo": 0.8, "title": "摩腊婆人", "fontsize": 12, "tyid": "304001", "oid": "103:1576575169883", "color": "#262626" }, "geometry": { "type": "Point", "coordinates": [ 73.476562, 25.799891 ] } }
{"year": "AD280",  "type": "Feature", "tippecanoe": { "layer": "2AFCA107E7101583916970429", "minzoom": 2, "maxzoom": 8 }, "properties": { "halo": 0.8, "title": "巴什瓦王朝", "fontsize": 12, "tyid": "304000", "oid": "103:1576575169912", "color": "#202020" }, "geometry": { "type": "Point", "coordinates": [ 77.871094, 24.846565 ] } }
{"year": "AD280",  "type": "Feature", "tippecanoe": { "layer": "2AFCA107E7101583916970429", "minzoom": 2, "maxzoom": 8 }, "properties": { "halo": 0.8, "title": "龟兹国", "fontsize": 12, "tyid": "304000", "oid": "103:1576575170003", "color": "#202020" }, "geometry": { "type": "Point", "coordinates": [ 81.035156, 40.913513 ] } }
{"year": "AD280",  "type": "Feature", "tippecanoe": { "layer": "2AFCA107E7101583916970429", "minzoom": 2, "maxzoom": 8 }, "properties": { "halo": 0.8, "title": "扜弥国", "fontsize": 12, "tyid": "304000", "oid": "103:1576575169526", "color": "#202020" }, "geometry": { "type": "Point", "coordinates": [ 81.914062, 38.616870 ] } }
{"year": "AD280",  "type": "Feature", "tippecanoe": { "layer": "2AFCA107E7101583916970429", "minzoom": 2, "maxzoom": 8 }, "properties": { "halo": 0.8, "title": "般遮罗国", "fontsize": 12, "tyid": "304000", "oid": "103:1576575169516", "color": "#202020" }, "geometry": { "type": "Point", "coordinates": [ 79.541016, 28.690588 ] } }
{"year": "AD280",  "type": "Feature", "tippecanoe": { "layer": "2AFCA107E7101583916970429", "minzoom": 2, "maxzoom": 8 }, "properties": { "halo": 0.8, "title": "克拉底王国", "fontsize": 12, "tyid": "304000", "oid": "103:1576575169501", "color": "#202020" }, "geometry": { "type": "Point", "coordinates": [ 84.199219, 28.071980 ] } }
{"year": "AD280",  "type": "Feature", "tippecanoe": { "layer": "2AFCA107E7101583916970429", "minzoom": 2, "maxzoom": 8 }, "properties": { "halo": 0.8, "title": "耽摩栗底国", "fontsize": 12, "tyid": "304000", "oid": "103:1576575169935", "color": "#202020" }, "geometry": { "type": "Point", "coordinates": [ 88.593750, 22.593726 ] } }
{"year": "AD280",  "type": "Feature", "tippecanoe": { "layer": "2AFCA107E7101583916970429", "minzoom": 2, "maxzoom": 8 }, "properties": { "halo": 0.8, "title": "阿布罗王国", "fontsize": 12, "tyid": "304000", "oid": "103:1576575169847", "color": "#202020" }, "geometry": { "type": "Point", "coordinates": [ 73.476562, 17.392579 ] } }
{"year": "AD280",  "type": "Feature", "tippecanoe": { "layer": "2AFCA107E7101583916970429", "minzoom": 2, "maxzoom": 8 }, "properties": { "halo": 0.8, "title": "楚图王朝", "fontsize": 12, "tyid": "304000", "oid": "103:1576575169824", "color": "#202020" }, "geometry": { "type": "Point", "coordinates": [ 75.849609, 14.944785 ] } }
{"year": "AD280",  "type": "Feature", "tippecanoe": { "layer": "2AFCA107E7101583916970429", "minzoom": 2, "maxzoom": 8 }, "properties": { "halo": 0.8, "title": "帕拉瓦王朝", "fontsize": 12, "tyid": "304000", "oid": "103:1576575169680", "color": "#202020" }, "geometry": { "type": "Point", "coordinates": [ 78.662109, 13.923404 ] } }
{"year": "AD280",  "type": "Feature", "tippecanoe": { "layer": "2AFCA107E7101583916970429", "minzoom": 2, "maxzoom": 8 }, "properties": { "halo": 0.8, "title": "卡拉波拉王朝", "fontsize": 12, "tyid": "304000", "oid": "103:1576575169861", "color": "#202020" }, "geometry": { "type": "Point", "coordinates": [ 77.783203, 10.833306 ] } }
{"year": "AD280",  "type": "Feature", "tippecanoe": { "layer": "2AFCA107E7101583916970429", "minzoom": 2, "maxzoom": 8 }, "properties": { "halo": 0.8, "title": "安度罗甘蔗王朝", "fontsize": 12, "tyid": "304000", "oid": "103:1576575169822", "color": "#202020" }, "geometry": { "type": "Point", "coordinates": [ 79.892578, 16.551962 ] } }
{"year": "AD280",  "type": "Feature", "tippecanoe": { "layer": "2AFCA107E7101583916970429", "minzoom": 2, "maxzoom": 8 }, "properties": { "halo": 0.8, "title": "质多王朝", "fontsize": 12, "tyid": "304000", "oid": "103:1576575169539", "color": "#202020" }, "geometry": { "type": "Point", "coordinates": [ 84.375000, 20.385825 ] } }
{"year": "AD280",  "type": "Feature", "tippecanoe": { "layer": "2AFCA107E7101583916970429", "minzoom": 2, "maxzoom": 8 }, "properties": { "halo": 0.8, "title": "阿努拉德普勒王国", "fontsize": 12, "tyid": "304000", "oid": "103:1576575169862", "color": "#202020" }, "geometry": { "type": "Point", "coordinates": [ 80.683594, 7.623887 ] } }
{"year": "AD280",  "type": "Feature", "tippecanoe": { "layer": "2AFCA107E7101583916970429", "minzoom": 2, "maxzoom": 8 }, "properties": { "halo": 0.8, "title": "北沃沮", "fontsize": 12, "tyid": "304001", "oid": "103:1576575169877", "color": "#262626" }, "geometry": { "type": "Point", "coordinates": [ 128.935547, 41.967659 ] } }
{"year": "AD280",  "type": "Feature", "tippecanoe": { "layer": "2AFCA107E7101583916970429", "minzoom": 2, "maxzoom": 8 }, "properties": { "halo": 0.8, "title": "波缪王朝", "fontsize": 12, "tyid": "304000", "oid": "103:1576575169925", "color": "#202020" }, "geometry": { "type": "Point", "coordinates": [ 92.724609, 25.958045 ] } }
{"year": "AD280",  "type": "Feature", "tippecanoe": { "layer": "2AFCA107E7101583916970429", "minzoom": 2, "maxzoom": 8 }, "properties": { "halo": 0.8, "title": "三摩呾吒国", "fontsize": 12, "tyid": "304000", "oid": "103:1576575169919", "color": "#202020" }, "geometry": { "type": "Point", "coordinates": [ 91.054688, 23.725012 ] } }
{"year": "AD280",  "type": "Feature", "tippecanoe": { "layer": "2AFCA107E7101583916970429", "minzoom": 2, "maxzoom": 8 }, "properties": { "halo": 0.8, "title": "古曼尼普尔王国", "fontsize": 12, "tyid": "304000", "oid": "103:1576575169568", "color": "#202020" }, "geometry": { "type": "Point", "coordinates": [ 93.867188, 24.766785 ] } }
{"year": "AD280",  "type": "Feature", "tippecanoe": { "layer": "2AFCA107E7101583916970429", "minzoom": 2, "maxzoom": 8 }, "properties": { "halo": 0.8, "title": "达雅瓦底王国", "fontsize": 12, "tyid": "304000", "oid": "103:1576575169550", "color": "#202020" }, "geometry": { "type": "Point", "coordinates": [ 93.339844, 20.550509 ] } }
{"year": "AD280",  "type": "Feature", "tippecanoe": { "layer": "2AFCA107E7101583916970429", "minzoom": 2, "maxzoom": 8 }, "properties": { "halo": 0.8, "title": "骠国", "fontsize": 12, "tyid": "304000", "oid": "103:1576575169851", "color": "#202020" }, "geometry": { "type": "Point", "coordinates": [ 95.888672, 21.125498 ] } }
{"year": "AD280",  "type": "Feature", "tippecanoe": { "layer": "2AFCA107E7101583916970429", "minzoom": 2, "maxzoom": 8 }, "properties": { "halo": 0.8, "title": "直通王国", "fontsize": 12, "tyid": "304000", "oid": "103:1576575169853", "color": "#202020" }, "geometry": { "type": "Point", "coordinates": [ 96.152344, 17.140790 ] } }
{"year": "AD280",  "type": "Feature", "tippecanoe": { "layer": "2AFCA107E7101583916970429", "minzoom": 2, "maxzoom": 8 }, "properties": { "halo": 0.8, "title": "林邑国", "fontsize": 12, "tyid": "304000", "oid": "103:1576575169913", "color": "#202020" }, "geometry": { "type": "Point", "coordinates": [ 108.808594, 14.179186 ] } }
{"year": "AD280",  "type": "Feature", "tippecanoe": { "layer": "2AFCA107E7101583916970429", "minzoom": 2, "maxzoom": 8 }, "properties": { "halo": 0.8, "title": "赤土国", "fontsize": 12, "tyid": "304000", "oid": "103:1576575169542", "color": "#202020" }, "geometry": { "type": "Point", "coordinates": [ 102.128906, 5.441022 ] } }
{"year": "AD280",  "type": "Feature", "tippecanoe": { "layer": "2AFCA107E7101583916970429", "minzoom": 2, "maxzoom": 8 }, "properties": { "halo": 0.8, "title": "高句丽", "fontsize": 12, "tyid": "304000", "oid": "103:1576575169875", "color": "#202020" }, "geometry": { "type": "Point", "coordinates": [ 126.210938, 40.979898 ] } }
{"year": "AD280",  "type": "Feature", "tippecanoe": { "layer": "2AFCA107E7101583916970429", "minzoom": 2, "maxzoom": 8 }, "properties": { "halo": 0.8, "title": "东濊", "fontsize": 12, "tyid": "304001", "oid": "103:1576575169922", "color": "#262626" }, "geometry": { "type": "Point", "coordinates": [ 127.792969, 38.065392 ] } }
{"year": "AD280",  "type": "Feature", "tippecanoe": { "layer": "2AFCA107E7101583916970429", "minzoom": 2, "maxzoom": 8 }, "properties": { "halo": 0.8, "title": "马韩", "fontsize": 12, "tyid": "304001", "oid": "103:1576575169652", "color": "#262626" }, "geometry": { "type": "Point", "coordinates": [ 127.529297, 36.385913 ] } }
{"year": "AD280",  "type": "Feature", "tippecanoe": { "layer": "2AFCA107E7101583916970429", "minzoom": 2, "maxzoom": 8 }, "properties": { "halo": 0.8, "title": "辰韩", "fontsize": 12, "tyid": "304001", "oid": "103:1576575169910", "color": "#262626" }, "geometry": { "type": "Point", "coordinates": [ 128.759766, 36.315125 ] } }
{"year": "AD280",  "type": "Feature", "tippecanoe": { "layer": "2AFCA107E7101583916970429", "minzoom": 2, "maxzoom": 8 }, "properties": { "halo": 0.8, "title": "绳文人", "fontsize": 12, "tyid": "304001", "oid": "103:1576575169872", "color": "#262626" }, "geometry": { "type": "Point", "coordinates": [ 142.558594, 43.389082 ] } }
{"year": "AD280",  "type": "Feature", "tippecanoe": { "layer": "2AFCA107E7101583916970429", "minzoom": 2, "maxzoom": 8 }, "properties": { "halo": 0.8, "title": "乌莱维文明", "fontsize": 12, "tyid": "304002", "oid": "103:1576575169858", "color": "#262626" }, "geometry": { "type": "Point", "coordinates": [ 29.882812, -2.547988 ] } }
{"year": "AD280",  "type": "Feature", "tippecanoe": { "layer": "2AFCA107E7101583916970429", "minzoom": 2, "maxzoom": 8 }, "properties": { "halo": 0.8, "title": "艾布兰文化五期", "fontsize": 12, "tyid": "304002", "oid": "103:1576575169577", "color": "#262626" }, "geometry": { "type": "Point", "coordinates": [ 36.474609, -0.175781 ] } }
{"year": "AD280",  "type": "Feature", "tippecanoe": { "layer": "2AFCA107E7101583916970429", "minzoom": 2, "maxzoom": 8 }, "properties": { "halo": 0.8, "title": "挲叻珂奴葛逻王国", "fontsize": 12, "tyid": "304000", "oid": "103:1576575169661", "color": "#202020" }, "geometry": { "type": "Point", "coordinates": [ 107.226562, -6.751896 ] } }
{"year": "AD280",  "type": "Feature", "tippecanoe": { "layer": "2AFCA107E7101583916970429", "minzoom": 2, "maxzoom": 8 }, "properties": { "halo": 0.8, "title": "巴拉瓦人", "fontsize": 12, "tyid": "304001", "oid": "103:1576575169515", "color": "#262626" }, "geometry": { "type": "Point", "coordinates": [ 146.513672, -41.967659 ] } }
{"year": "AD280",  "type": "Feature", "tippecanoe": { "layer": "2AFCA107EDA01583916970431", "minzoom": 2, "maxzoom": 8 }, "properties": { "halo": 0.8, "title": "古白令海文化", "fontsize": 12, "tyid": "304002", "oid": "103:1576575169885", "color": "#262626" }, "geometry": { "type": "Point", "coordinates": [ -170.332031, 63.470145 ] } }
{"year": "AD280",  "type": "Feature", "tippecanoe": { "layer": "2AFCA107EDA01583916970431", "minzoom": 2, "maxzoom": 8 }, "properties": { "halo": 0.8, "title": "梅奥人", "fontsize": 12, "tyid": "304001", "oid": "103:1576575169927", "color": "#262626" }, "geometry": { "type": "Point", "coordinates": [ -109.160156, 26.667096 ] } }
{"year": "AD280",  "type": "Feature", "tippecanoe": { "layer": "2AFCA107EDA01583916970431", "minzoom": 2, "maxzoom": 8 }, "properties": { "halo": 0.8, "title": "查尔奇维特斯文化", "fontsize": 12, "tyid": "304002", "oid": "103:1576575169747", "color": "#262626" }, "geometry": { "type": "Point", "coordinates": [ -103.974609, 23.483401 ] } }
{"year": "AD280",  "type": "Feature", "tippecanoe": { "layer": "2AFCA107EDA01583916970431", "minzoom": 2, "maxzoom": 8 }, "properties": { "halo": 0.8, "title": "查普卡洛文化", "fontsize": 12, "tyid": "304002", "oid": "103:1576575169744", "color": "#262626" }, "geometry": { "type": "Point", "coordinates": [ -99.931641, 20.303418 ] } }
{"year": "AD280",  "type": "Feature", "tippecanoe": { "layer": "2AFCA107EDA01583916970431", "minzoom": 2, "maxzoom": 8 }, "properties": { "halo": 0.8, "title": "特奥蒂瓦坎", "fontsize": 12, "tyid": "304002", "oid": "103:1576575169763", "color": "#262626" }, "geometry": { "type": "Point", "coordinates": [ -99.404297, 19.808054 ] } }
{"year": "AD280",  "type": "Feature", "tippecanoe": { "layer": "2AFCA107EDA01583916970431", "minzoom": 2, "maxzoom": 8 }, "properties": { "halo": 0.8, "title": "古韦拉克鲁斯文化", "fontsize": 12, "tyid": "304002", "oid": "103:1576575169792", "color": "#262626" }, "geometry": { "type": "Point", "coordinates": [ -96.767578, 19.642588 ] } }
{"year": "AD280",  "type": "Feature", "tippecanoe": { "layer": "2AFCA107EDA01583916970431", "minzoom": 2, "maxzoom": 8 }, "properties": { "halo": 0.8, "title": "米斯特克人", "fontsize": 12, "tyid": "304001", "oid": "103:1576575169978", "color": "#262626" }, "geometry": { "type": "Point", "coordinates": [ -98.349609, 17.224758 ] } }
{"year": "AD280",  "type": "Feature", "tippecanoe": { "layer": "2AFCA107EDA01583916970431", "minzoom": 2, "maxzoom": 8 }, "properties": { "halo": 0.8, "title": "特里克人", "fontsize": 12, "tyid": "304001", "oid": "103:1576575169929", "color": "#262626" }, "geometry": { "type": "Point", "coordinates": [ -97.382812, 17.811456 ] } }
{"year": "AD280",  "type": "Feature", "tippecanoe": { "layer": "2AFCA107EDA01583916970431", "minzoom": 2, "maxzoom": 8 }, "properties": { "halo": 0.8, "title": "洛瓦贾达斯文化", "fontsize": 12, "tyid": "304002", "oid": "103:1576575169845", "color": "#262626" }, "geometry": { "type": "Point", "coordinates": [ -96.416016, 19.145168 ] } }
{"year": "AD280",  "type": "Feature", "tippecanoe": { "layer": "2AFCA107EDA01583916970431", "minzoom": 2, "maxzoom": 8 }, "properties": { "halo": 0.8, "title": "麦克斯人", "fontsize": 12, "tyid": "304001", "oid": "103:1576575169889", "color": "#262626" }, "geometry": { "type": "Point", "coordinates": [ -96.503906, 18.312811 ] } }
{"year": "AD280",  "type": "Feature", "tippecanoe": { "layer": "2AFCA107EDA01583916970431", "minzoom": 2, "maxzoom": 8 }, "properties": { "halo": 0.8, "title": "佐齐尔人", "fontsize": 12, "tyid": "304001", "oid": "103:1576575169604", "color": "#262626" }, "geometry": { "type": "Point", "coordinates": [ -93.339844, 16.551962 ] } }
{"year": "AD280",  "type": "Feature", "tippecanoe": { "layer": "2AFCA107EDA01583916970431", "minzoom": 2, "maxzoom": 8 }, "properties": { "halo": 0.8, "title": "祖赫人", "fontsize": 12, "tyid": "304001", "oid": "103:1576575169856", "color": "#262626" }, "geometry": { "type": "Point", "coordinates": [ -92.109375, 16.045813 ] } }
{"year": "AD280",  "type": "Feature", "tippecanoe": { "layer": "2AFCA107EDA01583916970431", "minzoom": 2, "maxzoom": 8 }, "properties": { "halo": 0.8, "title": "基切人", "fontsize": 12, "tyid": "304001", "oid": "103:1576575169750", "color": "#262626" }, "geometry": { "type": "Point", "coordinates": [ -90.966797, 15.029686 ] } }
{"year": "AD280",  "type": "Feature", "tippecanoe": { "layer": "2AFCA107EDA01583916970431", "minzoom": 2, "maxzoom": 8 }, "properties": { "halo": 0.8, "title": "怒溪文化", "fontsize": 12, "tyid": "304002", "oid": "103:1576575169886", "color": "#262626" }, "geometry": { "type": "Point", "coordinates": [ -72.421875, 41.574361 ] } }
{"year": "AD280",  "type": "Feature", "tippecanoe": { "layer": "2AFCA107EDA01583916970431", "minzoom": 2, "maxzoom": 8 }, "properties": { "halo": 0.8, "title": "埃里森-拉莫特文化", "fontsize": 12, "tyid": "304002", "oid": "103:1576575169984", "color": "#262626" }, "geometry": { "type": "Point", "coordinates": [ -87.626953, 39.095963 ] } }
{"year": "AD280",  "type": "Feature", "tippecanoe": { "layer": "2AFCA107EDA01583916970431", "minzoom": 2, "maxzoom": 8 }, "properties": { "halo": 0.8, "title": "米勒文化", "fontsize": 12, "tyid": "304002", "oid": "103:1576575169849", "color": "#262626" }, "geometry": { "type": "Point", "coordinates": [ -88.242188, 34.161818 ] } }
{"year": "AD280",  "type": "Feature", "tippecanoe": { "layer": "2AFCA107EDA01583916970431", "minzoom": 2, "maxzoom": 8 }, "properties": { "halo": 0.8, "title": "威廉文化", "fontsize": 12, "tyid": "304002", "oid": "103:1576575169843", "color": "#262626" }, "geometry": { "type": "Point", "coordinates": [ -80.771484, 39.639538 ] } }
{"year": "AD280",  "type": "Feature", "tippecanoe": { "layer": "2AFCA107EDA01583916970431", "minzoom": 2, "maxzoom": 8 }, "properties": { "halo": 0.8, "title": "山地霍普维尔文化", "fontsize": 12, "tyid": "304002", "oid": "103:1576575169616", "color": "#262626" }, "geometry": { "type": "Point", "coordinates": [ -79.980469, 39.300299 ] } }
{"year": "AD280",  "type": "Feature", "tippecanoe": { "layer": "2AFCA107EDA01583916970431", "minzoom": 2, "maxzoom": 8 }, "properties": { "halo": 0.8, "title": "凯兹池塘文化", "fontsize": 12, "tyid": "304002", "oid": "103:1576575169814", "color": "#262626" }, "geometry": { "type": "Point", "coordinates": [ -82.265625, 29.535230 ] } }
{"year": "AD280",  "type": "Feature", "tippecanoe": { "layer": "2AFCA107EDA01583916970431", "minzoom": 2, "maxzoom": 8 }, "properties": { "halo": 0.8, "title": "玛纳索塔文化", "fontsize": 12, "tyid": "304002", "oid": "103:1576575169569", "color": "#262626" }, "geometry": { "type": "Point", "coordinates": [ -82.441406, 27.683528 ] } }
{"year": "AD280",  "type": "Feature", "tippecanoe": { "layer": "2AFCA107EDA01583916970431", "minzoom": 2, "maxzoom": 8 }, "properties": { "halo": 0.8, "title": "卡卢萨人", "fontsize": 12, "tyid": "304001", "oid": "103:1576575169863", "color": "#262626" }, "geometry": { "type": "Point", "coordinates": [ -81.650391, 27.137368 ] } }
{"year": "AD280",  "type": "Feature", "tippecanoe": { "layer": "2AFCA107EDA01583916970431", "minzoom": 2, "maxzoom": 8 }, "properties": { "halo": 0.8, "title": "圣约翰文化", "fontsize": 12, "tyid": "304002", "oid": "103:1576575169964", "color": "#262626" }, "geometry": { "type": "Point", "coordinates": [ -81.474609, 29.382175 ] } }
{"year": "AD280",  "type": "Feature", "tippecanoe": { "layer": "2AFCA107EDA01583916970431", "minzoom": 2, "maxzoom": 8 }, "properties": { "halo": 0.8, "title": "贝尔格莱德文化", "fontsize": 12, "tyid": "304002", "oid": "103:1576575169642", "color": "#262626" }, "geometry": { "type": "Point", "coordinates": [ -80.859375, 27.527758 ] } }
{"year": "AD280",  "type": "Feature", "tippecanoe": { "layer": "2AFCA107EDA01583916970431", "minzoom": 2, "maxzoom": 8 }, "properties": { "halo": 0.8, "title": "格莱兹文化", "fontsize": 12, "tyid": "304002", "oid": "103:1576575169528", "color": "#262626" }, "geometry": { "type": "Point", "coordinates": [ -80.859375, 26.037042 ] } }
{"year": "AD280",  "type": "Feature", "tippecanoe": { "layer": "2AFCA107EDA01583916970431", "minzoom": 2, "maxzoom": 8 }, "properties": { "halo": 0.8, "title": "德贵斯塔族", "fontsize": 12, "tyid": "304001", "oid": "103:1576575169959", "color": "#262626" }, "geometry": { "type": "Point", "coordinates": [ -80.419922, 25.641526 ] } }
{"year": "AD280",  "type": "Feature", "tippecanoe": { "layer": "2AFCA107EDA01583916970431", "minzoom": 2, "maxzoom": 8 }, "properties": { "halo": 0.8, "title": "雷卡人", "fontsize": 12, "tyid": "304001", "oid": "103:1576575169703", "color": "#262626" }, "geometry": { "type": "Point", "coordinates": [ -87.802734, 13.752725 ] } }
{"year": "AD280",  "type": "Feature", "tippecanoe": { "layer": "2AFCA107EDA01583916970431", "minzoom": 2, "maxzoom": 8 }, "properties": { "halo": 0.8, "title": "格兰科克勒文化", "fontsize": 12, "tyid": "304002", "oid": "103:1576575169767", "color": "#262626" }, "geometry": { "type": "Point", "coordinates": [ -80.507812, 8.581021 ] } }
{"year": "AD280",  "type": "Feature", "tippecanoe": { "layer": "2AFCA107EDA01583916970431", "minzoom": 2, "maxzoom": 8 }, "properties": { "halo": 0.8, "title": "泰罗纳", "fontsize": 12, "tyid": "304000", "oid": "103:1576575169641", "color": "#202020" }, "geometry": { "type": "Point", "coordinates": [ -73.564453, 10.833306 ] } }
{"year": "AD280",  "type": "Feature", "tippecanoe": { "layer": "2AFCA107EDA01583916970431", "minzoom": 2, "maxzoom": 8 }, "properties": { "halo": 0.8, "title": "约托科文化", "fontsize": 12, "tyid": "304002", "oid": "103:1576575169838", "color": "#262626" }, "geometry": { "type": "Point", "coordinates": [ -76.289062, 4.302591 ] } }
{"year": "AD280",  "type": "Feature", "tippecanoe": { "layer": "2AFCA107EDA01583916970431", "minzoom": 2, "maxzoom": 8 }, "properties": { "halo": 0.8, "title": "卡利玛文化", "fontsize": 12, "tyid": "304002", "oid": "103:1576575169813", "color": "#262626" }, "geometry": { "type": "Point", "coordinates": [ -76.728516, 4.214943 ] } }
{"year": "AD280",  "type": "Feature", "tippecanoe": { "layer": "2AFCA107EDA01583916970431", "minzoom": 2, "maxzoom": 8 }, "properties": { "halo": 0.8, "title": "马拉加纳文化", "fontsize": 12, "tyid": "304002", "oid": "103:1576575169537", "color": "#262626" }, "geometry": { "type": "Point", "coordinates": [ -76.289062, 3.425692 ] } }
{"year": "AD280",  "type": "Feature", "tippecanoe": { "layer": "2AFCA107EDA01583916970431", "minzoom": 2, "maxzoom": 8 }, "properties": { "halo": 0.8, "title": "昆巴雅文明", "fontsize": 12, "tyid": "304002", "oid": "103:1576575170007", "color": "#262626" }, "geometry": { "type": "Point", "coordinates": [ -75.761719, 5.090944 ] } }
{"year": "AD280",  "type": "Feature", "tippecanoe": { "layer": "2AFCA107EDA01583916970431", "minzoom": 2, "maxzoom": 8 }, "properties": { "halo": 0.8, "title": "大庄园文化", "fontsize": 12, "tyid": "304002", "oid": "103:1576575169681", "color": "#262626" }, "geometry": { "type": "Point", "coordinates": [ -65.917969, 18.396230 ] } }
{"year": "AD280",  "type": "Feature", "tippecanoe": { "layer": "2AFCA107EDA01583916970431", "minzoom": 2, "maxzoom": 8 }, "properties": { "halo": 0.8, "title": "萨拉杜文化", "fontsize": 12, "tyid": "304002", "oid": "103:1576575169867", "color": "#262626" }, "geometry": { "type": "Point", "coordinates": [ -61.699219, 16.214675 ] } }
{"year": "AD280",  "type": "Feature", "tippecanoe": { "layer": "2AFCA107EDA01583916970431", "minzoom": 2, "maxzoom": 8 }, "properties": { "halo": 0.8, "title": "凯雷尼人", "fontsize": 12, "tyid": "304001", "oid": "103:1576575169801", "color": "#262626" }, "geometry": { "type": "Point", "coordinates": [ -5.097656, 58.077876 ] } }
{"year": "AD280",  "type": "Feature", "tippecanoe": { "layer": "2AFCA107EDA01583916970431", "minzoom": 2, "maxzoom": 8 }, "properties": { "halo": 0.8, "title": "卡诺奈卡人", "fontsize": 12, "tyid": "304001", "oid": "103:1576575169631", "color": "#262626" }, "geometry": { "type": "Point", "coordinates": [ -5.537109, 57.657158 ] } }
{"year": "AD280",  "type": "Feature", "tippecanoe": { "layer": "2AFCA107EDA01583916970431", "minzoom": 2, "maxzoom": 8 }, "properties": { "halo": 0.8, "title": "斯梅尔泰人", "fontsize": 12, "tyid": "304001", "oid": "103:1576575169755", "color": "#262626" }, "geometry": { "type": "Point", "coordinates": [ -4.746094, 57.984808 ] } }
{"year": "AD280",  "type": "Feature", "tippecanoe": { "layer": "2AFCA107EDA01583916970431", "minzoom": 2, "maxzoom": 8 }, "properties": { "halo": 0.8, "title": "卢吉人", "fontsize": 12, "tyid": "304001", "oid": "103:1576575169651", "color": "#262626" }, "geometry": { "type": "Point", "coordinates": [ -4.130859, 58.124320 ] } }
{"year": "AD280",  "type": "Feature", "tippecanoe": { "layer": "2AFCA107EDA01583916970431", "minzoom": 2, "maxzoom": 8 }, "properties": { "halo": 0.8, "title": "克洛维人[凯瑟尼斯]", "fontsize": 12, "tyid": "304001", "oid": "103:1576575169517", "color": "#262626" }, "geometry": { "type": "Point", "coordinates": [ -3.867188, 58.447733 ] } }
{"year": "AD280",  "type": "Feature", "tippecanoe": { "layer": "2AFCA107EDA01583916970431", "minzoom": 2, "maxzoom": 8 }, "properties": { "halo": 0.8, "title": "德坎泰人", "fontsize": 12, "tyid": "304001", "oid": "103:1576575169551", "color": "#262626" }, "geometry": { "type": "Point", "coordinates": [ -4.218750, 57.610107 ] } }
{"year": "AD280",  "type": "Feature", "tippecanoe": { "layer": "2AFCA107EDA01583916970431", "minzoom": 2, "maxzoom": 8 }, "properties": { "halo": 0.8, "title": "维格梅京人", "fontsize": 12, "tyid": "304001", "oid": "103:1576575169587", "color": "#262626" }, "geometry": { "type": "Point", "coordinates": [ -3.339844, 57.515823 ] } }
{"year": "AD280",  "type": "Feature", "tippecanoe": { "layer": "2AFCA107EDA01583916970431", "minzoom": 2, "maxzoom": 8 }, "properties": { "halo": 0.8, "title": "克鲁尼人", "fontsize": 12, "tyid": "304001", "oid": "103:1576575169688", "color": "#262626" }, "geometry": { "type": "Point", "coordinates": [ -5.449219, 57.040730 ] } }
{"year": "AD280",  "type": "Feature", "tippecanoe": { "layer": "2AFCA107EDA01583916970431", "minzoom": 2, "maxzoom": 8 }, "properties": { "halo": 0.8, "title": "维尼科内人", "fontsize": 12, "tyid": "304001", "oid": "103:1576575169670", "color": "#262626" }, "geometry": { "type": "Point", "coordinates": [ -3.691406, 56.218923 ] } }
{"year": "AD280",  "type": "Feature", "tippecanoe": { "layer": "2AFCA107EDA01583916970431", "minzoom": 2, "maxzoom": 8 }, "properties": { "halo": 0.8, "title": "德克萨利人", "fontsize": 12, "tyid": "304001", "oid": "103:1576575169678", "color": "#262626" }, "geometry": { "type": "Point", "coordinates": [ -2.197266, 57.326521 ] } }
{"year": "AD280",  "type": "Feature", "tippecanoe": { "layer": "2AFCA107EDA01583916970431", "minzoom": 2, "maxzoom": 8 }, "properties": { "halo": 0.8, "title": "奥斯拉尔王国", "fontsize": 12, "tyid": "304000", "oid": "103:1576575169719", "color": "#202020" }, "geometry": { "type": "Point", "coordinates": [ -7.470703, 52.802761 ] } }
{"year": "AD280",  "type": "Feature", "tippecanoe": { "layer": "2AFCA107EDA01583916970431", "minzoom": 2, "maxzoom": 8 }, "properties": { "halo": 0.8, "title": "埃皮迪人", "fontsize": 12, "tyid": "304001", "oid": "103:1576575169884", "color": "#262626" }, "geometry": { "type": "Point", "coordinates": [ -5.537109, 55.677584 ] } }
{"year": "AD280",  "type": "Feature", "tippecanoe": { "layer": "2AFCA107EDA01583916970431", "minzoom": 2, "maxzoom": 8 }, "properties": { "halo": 0.8, "title": "沃塔迪尼人", "fontsize": 12, "tyid": "304000", "oid": "103:1576575169691", "color": "#202020" }, "geometry": { "type": "Point", "coordinates": [ -2.548828, 55.528631 ] } }
{"year": "AD280",  "type": "Feature", "tippecanoe": { "layer": "2AFCA107EDA01583916970431", "minzoom": 2, "maxzoom": 8 }, "properties": { "halo": 0.8, "title": "关切人", "fontsize": 12, "tyid": "304001", "oid": "103:1576575169554", "color": "#262626" }, "geometry": { "type": "Point", "coordinates": [ -16.611328, 28.304381 ] } }
{"year": "AD280",  "type": "Feature", "tippecanoe": { "layer": "2AFCA107EDA01583916970431", "minzoom": 2, "maxzoom": 8 }, "properties": { "halo": 0.8, "title": "瓜纳加拉文化", "fontsize": 12, "tyid": "304002", "oid": "103:1576575169553", "color": "#262626" }, "geometry": { "type": "Point", "coordinates": [ -80.595703, -1.669686 ] } }
{"year": "AD280",  "type": "Feature", "tippecanoe": { "layer": "2AFCA107EDA01583916970431", "minzoom": 2, "maxzoom": 8 }, "properties": { "halo": 0.8, "title": "巴伊亚文化", "fontsize": 12, "tyid": "304002", "oid": "103:1576575169900", "color": "#262626" }, "geometry": { "type": "Point", "coordinates": [ -80.068359, -0.527336 ] } }
{"year": "AD280",  "type": "Feature", "tippecanoe": { "layer": "2AFCA107EDA01583916970431", "minzoom": 2, "maxzoom": 8 }, "properties": { "halo": 0.8, "title": "维克斯文化", "fontsize": 12, "tyid": "304002", "oid": "103:1576575169785", "color": "#262626" }, "geometry": { "type": "Point", "coordinates": [ -80.419922, -5.878332 ] } }
{"year": "AD280",  "type": "Feature", "tippecanoe": { "layer": "2AFCA107EDA01583916970431", "minzoom": 2, "maxzoom": 8 }, "properties": { "halo": 0.8, "title": "萨利纳尔文化", "fontsize": 12, "tyid": "304002", "oid": "103:1576575169933", "color": "#262626" }, "geometry": { "type": "Point", "coordinates": [ -78.925781, -7.798079 ] } }
{"year": "AD280",  "type": "Feature", "tippecanoe": { "layer": "2AFCA107EDA01583916970431", "minzoom": 2, "maxzoom": 8 }, "properties": { "halo": 0.8, "title": "莫切文明", "fontsize": 12, "tyid": "304002", "oid": "103:1576575169564", "color": "#262626" }, "geometry": { "type": "Point", "coordinates": [ -79.013672, -8.146243 ] } }
{"year": "AD280",  "type": "Feature", "tippecanoe": { "layer": "2AFCA107EDA01583916970431", "minzoom": 2, "maxzoom": 8 }, "properties": { "halo": 0.8, "title": "维鲁文化", "fontsize": 12, "tyid": "304002", "oid": "103:1576575169904", "color": "#262626" }, "geometry": { "type": "Point", "coordinates": [ -78.837891, -8.320212 ] } }
{"year": "AD280",  "type": "Feature", "tippecanoe": { "layer": "2AFCA107EDA01583916970431", "minzoom": 2, "maxzoom": 8 }, "properties": { "halo": 0.8, "title": "卡哈马卡文化", "fontsize": 12, "tyid": "304002", "oid": "103:1576575169710", "color": "#262626" }, "geometry": { "type": "Point", "coordinates": [ -78.750000, -6.227934 ] } }
{"year": "AD280",  "type": "Feature", "tippecanoe": { "layer": "2AFCA107EDA01583916970431", "minzoom": 2, "maxzoom": 8 }, "properties": { "halo": 0.8, "title": "瑞克文化", "fontsize": 12, "tyid": "304002", "oid": "103:1576575169980", "color": "#262626" }, "geometry": { "type": "Point", "coordinates": [ -77.607422, -9.622414 ] } }
{"year": "AD280",  "type": "Feature", "tippecanoe": { "layer": "2AFCA107EDA01583916970431", "minzoom": 2, "maxzoom": 8 }, "properties": { "halo": 0.8, "title": "加伊纳索文化", "fontsize": 12, "tyid": "304002", "oid": "103:1576575169775", "color": "#262626" }, "geometry": { "type": "Point", "coordinates": [ -77.080078, -11.092166 ] } }
{"year": "AD280",  "type": "Feature", "tippecanoe": { "layer": "2AFCA107EDA01583916970431", "minzoom": 2, "maxzoom": 8 }, "properties": { "halo": 0.8, "title": "利马文化", "fontsize": 12, "tyid": "304002", "oid": "103:1576575169924", "color": "#262626" }, "geometry": { "type": "Point", "coordinates": [ -76.289062, -12.382928 ] } }
{"year": "AD280",  "type": "Feature", "tippecanoe": { "layer": "2AFCA107EDA01583916970431", "minzoom": 2, "maxzoom": 8 }, "properties": { "halo": 0.8, "title": "华帕文化", "fontsize": 12, "tyid": "304002", "oid": "103:1576575169770", "color": "#262626" }, "geometry": { "type": "Point", "coordinates": [ -74.179688, -13.581921 ] } }
{"year": "AD280",  "type": "Feature", "tippecanoe": { "layer": "2AFCA107EDA01583916970431", "minzoom": 2, "maxzoom": 8 }, "properties": { "halo": 0.8, "title": "纳斯卡文化", "fontsize": 12, "tyid": "304002", "oid": "103:1576575169739", "color": "#262626" }, "geometry": { "type": "Point", "coordinates": [ -75.058594, -14.944785 ] } }
{"year": "AD280",  "type": "Feature", "tippecanoe": { "layer": "2AFCA107EDA01583916970431", "minzoom": 2, "maxzoom": 8 }, "properties": { "halo": 0.8, "title": "普加拉文化", "fontsize": 12, "tyid": "304002", "oid": "103:1576575169740", "color": "#262626" }, "geometry": { "type": "Point", "coordinates": [ -69.697266, -13.838080 ] } }
{"year": "AD280",  "type": "Feature", "tippecanoe": { "layer": "2AFCA107EDA01583916970431", "minzoom": 2, "maxzoom": 8 }, "properties": { "halo": 0.8, "title": "巴托文化", "fontsize": 12, "tyid": "304002", "oid": "103:1576575169605", "color": "#262626" }, "geometry": { "type": "Point", "coordinates": [ -71.367188, -33.211116 ] } }
{"year": "AD280",  "type": "Feature", "tippecanoe": { "layer": "2AFCA107EDA01583916970431", "minzoom": 2, "maxzoom": 8 }, "properties": { "halo": 0.8, "title": "塔夫文化", "fontsize": 12, "tyid": "304002", "oid": "103:1576575169645", "color": "#262626" }, "geometry": { "type": "Point", "coordinates": [ -65.654297, -26.980829 ] } }
{"year": "AD280",  "type": "Feature", "tippecanoe": { "layer": "2AFCA107EDA01583916970431", "minzoom": 2, "maxzoom": 8 }, "properties": { "halo": 0.8, "title": "豪什人", "fontsize": 12, "tyid": "304001", "oid": "103:1576575169511", "color": "#262626" }, "geometry": { "type": "Point", "coordinates": [ -65.917969, -54.724620 ] } }
{"year": "AD280",  "type": "Feature", "tippecanoe": { "layer": "2AFCA107EDA01583916970431", "minzoom": 2, "maxzoom": 8 }, "properties": { "halo": 0.8, "title": "哥得兰人", "fontsize": 12, "tyid": "304001", "oid": "103:1576575169663", "color": "#262626" }, "geometry": { "type": "Point", "coordinates": [ 18.457031, 57.515823 ] } }
{"year": "AD280",  "type": "Feature", "tippecanoe": { "layer": "2AFCA107EDA01583916970431", "minzoom": 2, "maxzoom": 8 }, "properties": { "halo": 0.8, "title": "盎格鲁人", "fontsize": 12, "tyid": "304001", "oid": "103:1576575169668", "color": "#262626" }, "geometry": { "type": "Point", "coordinates": [ 9.316406, 54.622978 ] } }
{"year": "AD280",  "type": "Feature", "tippecanoe": { "layer": "2AFCA107EDA01583916970431", "minzoom": 2, "maxzoom": 8 }, "properties": { "halo": 0.8, "title": "萨克森人", "fontsize": 12, "tyid": "304001", "oid": "103:1576575169694", "color": "#262626" }, "geometry": { "type": "Point", "coordinates": [ 10.019531, 54.007769 ] } }
{"year": "AD280",  "type": "Feature", "tippecanoe": { "layer": "2AFCA107EDA01583916970431", "minzoom": 2, "maxzoom": 8 }, "properties": { "halo": 0.8, "title": "查马维人", "fontsize": 12, "tyid": "304001", "oid": "103:1576575169931", "color": "#262626" }, "geometry": { "type": "Point", "coordinates": [ 7.119141, 51.944265 ] } }
{"year": "AD280",  "type": "Feature", "tippecanoe": { "layer": "2AFCA107EDA01583916970431", "minzoom": 2, "maxzoom": 8 }, "properties": { "halo": 0.8, "title": "法兰克人", "fontsize": 12, "tyid": "304001", "oid": "103:1576575169640", "color": "#262626" }, "geometry": { "type": "Point", "coordinates": [ 7.646484, 51.289406 ] } }
{"year": "AD280",  "type": "Feature", "tippecanoe": { "layer": "2AFCA107EDA01583916970431", "minzoom": 2, "maxzoom": 8 }, "properties": { "halo": 0.8, "title": "布鲁克特人", "fontsize": 12, "tyid": "304001", "oid": "103:1576575169693", "color": "#262626" }, "geometry": { "type": "Point", "coordinates": [ 8.437500, 51.998410 ] } }
{"year": "AD280",  "type": "Feature", "tippecanoe": { "layer": "2AFCA107EDA01583916970431", "minzoom": 2, "maxzoom": 8 }, "properties": { "halo": 0.8, "title": "西里人", "fontsize": 12, "tyid": "304001", "oid": "103:1576575169607", "color": "#262626" }, "geometry": { "type": "Point", "coordinates": [ 19.775391, 49.837982 ] } }
{"year": "AD280",  "type": "Feature", "tippecanoe": { "layer": "2AFCA107EDA01583916970431", "minzoom": 2, "maxzoom": 8 }, "properties": { "halo": 0.8, "title": "奥耶塞利人", "fontsize": 12, "tyid": "304001", "oid": "103:1576575169817", "color": "#262626" }, "geometry": { "type": "Point", "coordinates": [ 22.500000, 58.447733 ] } }
{"year": "AD280",  "type": "Feature", "tippecanoe": { "layer": "2AFCA107EDA01583916970431", "minzoom": 2, "maxzoom": 8 }, "properties": { "halo": 0.8, "title": "巴斯塔奈人", "fontsize": 12, "tyid": "304001", "oid": "103:1576575169683", "color": "#262626" }, "geometry": { "type": "Point", "coordinates": [ 28.476562, 48.574790 ] } }
{"year": "AD280",  "type": "Feature", "tippecanoe": { "layer": "2AFCA107EDA01583916970431", "minzoom": 2, "maxzoom": 8 }, "properties": { "halo": 0.8, "title": "科尔基斯山中诸部", "fontsize": 12, "tyid": "304002", "oid": "103:1576575169603", "color": "#262626" }, "geometry": { "type": "Point", "coordinates": [ 41.132812, 43.133061 ] } }
{"year": "AD280",  "type": "Feature", "tippecanoe": { "layer": "2AFCA107EDA01583916970431", "minzoom": 2, "maxzoom": 8 }, "properties": { "halo": 0.8, "title": "列兹金人", "fontsize": 12, "tyid": "304001", "oid": "103:1576575169972", "color": "#262626" }, "geometry": { "type": "Point", "coordinates": [ 47.812500, 41.640078 ] } }
{"year": "AD280",  "type": "Feature", "tippecanoe": { "layer": "2AFCA107EDA01583916970431", "minzoom": 2, "maxzoom": 8 }, "properties": { "halo": 0.8, "title": "竭盘陀国", "fontsize": 12, "tyid": "304000", "oid": "103:1576575169995", "color": "#202020" }, "geometry": { "type": "Point", "coordinates": [ 75.234375, 37.996163 ] } }
{"year": "AD280",  "type": "Feature", "tippecanoe": { "layer": "2AFCA107EDA01583916970431", "minzoom": 2, "maxzoom": 8 }, "properties": { "halo": 0.8, "title": "罗昂", "fontsize": 12, "tyid": "304000", "oid": "103:1576575169908", "color": "#202020" }, "geometry": { "type": "Point", "coordinates": [ 89.208984, 29.152161 ] } }
{"year": "AD280",  "type": "Feature", "tippecanoe": { "layer": "2AFCA107EDA01583916970431", "minzoom": 2, "maxzoom": 8 }, "properties": { "halo": 0.8, "title": "藏", "fontsize": 12, "tyid": "304000", "oid": "103:1576575169588", "color": "#202020" }, "geometry": { "type": "Point", "coordinates": [ 89.736328, 28.844674 ] } }
{"year": "AD280",  "type": "Feature", "tippecanoe": { "layer": "2AFCA107EDA01583916970431", "minzoom": 2, "maxzoom": 8 }, "properties": { "halo": 0.8, "title": "卓木南木松", "fontsize": 12, "tyid": "304000", "oid": "103:1576575169565", "color": "#202020" }, "geometry": { "type": "Point", "coordinates": [ 88.945312, 27.839076 ] } }
{"year": "AD280",  "type": "Feature", "tippecanoe": { "layer": "2AFCA107EDA01583916970431", "minzoom": 2, "maxzoom": 8 }, "properties": { "halo": 0.8, "title": "阿拉帕王朝", "fontsize": 12, "tyid": "304000", "oid": "103:1576575169873", "color": "#202020" }, "geometry": { "type": "Point", "coordinates": [ 75.322266, 12.811801 ] } }
{"year": "AD280",  "type": "Feature", "tippecanoe": { "layer": "2AFCA107EDA01583916970431", "minzoom": 2, "maxzoom": 8 }, "properties": { "halo": 0.8, "title": "吉", "fontsize": 12, "tyid": "304000", "oid": "103:1576575169544", "color": "#202020" }, "geometry": { "type": "Point", "coordinates": [ 91.406250, 29.764377 ] } }
{"year": "AD280",  "type": "Feature", "tippecanoe": { "layer": "2AFCA107EDA01583916970431", "minzoom": 2, "maxzoom": 8 }, "properties": { "halo": 0.8, "title": "琛", "fontsize": 12, "tyid": "304000", "oid": "103:1576575169508", "color": "#202020" }, "geometry": { "type": "Point", "coordinates": [ 91.230469, 29.382175 ] } }
{"year": "AD280",  "type": "Feature", "tippecanoe": { "layer": "2AFCA107EDA01583916970431", "minzoom": 2, "maxzoom": 8 }, "properties": { "halo": 0.8, "title": "悉补野", "fontsize": 12, "tyid": "304000", "oid": "103:1576575169974", "color": "#202020" }, "geometry": { "type": "Point", "coordinates": [ 91.845703, 29.152161 ] } }
{"year": "AD280",  "type": "Feature", "tippecanoe": { "layer": "2AFCA107EDA01583916970431", "minzoom": 2, "maxzoom": 8 }, "properties": { "halo": 0.8, "title": "俄玉邦噶", "fontsize": 12, "tyid": "304000", "oid": "103:1576575169802", "color": "#202020" }, "geometry": { "type": "Point", "coordinates": [ 92.548828, 29.152161 ] } }
{"year": "AD280",  "type": "Feature", "tippecanoe": { "layer": "2AFCA107EDA01583916970431", "minzoom": 2, "maxzoom": 8 }, "properties": { "halo": 0.8, "title": "娘", "fontsize": 12, "tyid": "304000", "oid": "103:1576575169590", "color": "#202020" }, "geometry": { "type": "Point", "coordinates": [ 93.339844, 29.916852 ] } }
{"year": "AD280",  "type": "Feature", "tippecanoe": { "layer": "2AFCA107EDA01583916970431", "minzoom": 2, "maxzoom": 8 }, "properties": { "halo": 0.8, "title": "贡", "fontsize": 12, "tyid": "304000", "oid": "103:1576575169881", "color": "#202020" }, "geometry": { "type": "Point", "coordinates": [ 94.482422, 29.688053 ] } }
{"year": "AD280",  "type": "Feature", "tippecanoe": { "layer": "2AFCA107EDA01583916970431", "minzoom": 2, "maxzoom": 8 }, "properties": { "halo": 0.8, "title": "达", "fontsize": 12, "tyid": "304000", "oid": "103:1576575169535", "color": "#202020" }, "geometry": { "type": "Point", "coordinates": [ 93.603516, 29.152161 ] } }
{"year": "AD280",  "type": "Feature", "tippecanoe": { "layer": "2AFCA107EDA01583916970431", "minzoom": 2, "maxzoom": 8 }, "properties": { "halo": 0.8, "title": "狼牙脩国", "fontsize": 12, "tyid": "304000", "oid": "103:1576575169536", "color": "#202020" }, "geometry": { "type": "Point", "coordinates": [ 100.810547, 6.140555 ] } }
{"year": "AD280",  "type": "Feature", "tippecanoe": { "layer": "2AFCA107EDA01583916970431", "minzoom": 2, "maxzoom": 8 }, "properties": { "halo": 0.8, "title": "刚迦王国", "fontsize": 12, "tyid": "304000", "oid": "103:1576575169791", "color": "#202020" }, "geometry": { "type": "Point", "coordinates": [ 101.074219, 4.828260 ] } }
{"year": "AD280",  "type": "Feature", "tippecanoe": { "layer": "2AFCA107EDA01583916970431", "minzoom": 2, "maxzoom": 8 }, "properties": { "halo": 0.8, "title": "石坛文化", "fontsize": 12, "tyid": "304002", "oid": "103:1576575169798", "color": "#262626" }, "geometry": { "type": "Point", "coordinates": [ 103.359375, 19.559790 ] } }
{"year": "AD280",  "type": "Feature", "tippecanoe": { "layer": "2AFCA107EDA01583916970431", "minzoom": 2, "maxzoom": 8 }, "properties": { "halo": 0.8, "title": "番仔园文化", "fontsize": 12, "tyid": "304002", "oid": "103:1576575169585", "color": "#262626" }, "geometry": { "type": "Point", "coordinates": [ 120.673828, 24.287027 ] } }
{"year": "AD280",  "type": "Feature", "tippecanoe": { "layer": "2AFCA107EDA01583916970431", "minzoom": 2, "maxzoom": 8 }, "properties": { "halo": 0.8, "title": "茑松文化", "fontsize": 12, "tyid": "304002", "oid": "103:1576575169584", "color": "#262626" }, "geometry": { "type": "Point", "coordinates": [ 120.322266, 23.079732 ] } }
{"year": "AD280",  "type": "Feature", "tippecanoe": { "layer": "2AFCA107EDA01583916970431", "minzoom": 2, "maxzoom": 8 }, "properties": { "halo": 0.8, "title": "龟山文化", "fontsize": 12, "tyid": "304002", "oid": "103:1576575169936", "color": "#262626" }, "geometry": { "type": "Point", "coordinates": [ 120.673828, 22.512557 ] } }
{"year": "AD280",  "type": "Feature", "tippecanoe": { "layer": "2AFCA107EDA01583916970431", "minzoom": 2, "maxzoom": 8 }, "properties": { "halo": 0.8, "title": "十三行文化", "fontsize": 12, "tyid": "304002", "oid": "103:1576575169940", "color": "#262626" }, "geometry": { "type": "Point", "coordinates": [ 121.376953, 24.846565 ] } }
{"year": "AD280",  "type": "Feature", "tippecanoe": { "layer": "2AFCA107EDA01583916970431", "minzoom": 2, "maxzoom": 8 }, "properties": { "halo": 0.8, "title": "静浦文化", "fontsize": 12, "tyid": "304002", "oid": "103:1576575169937", "color": "#262626" }, "geometry": { "type": "Point", "coordinates": [ 121.025391, 22.917923 ] } }
{"year": "AD280",  "type": "Feature", "tippecanoe": { "layer": "2AFCA107EDA01583916970431", "minzoom": 2, "maxzoom": 8 }, "properties": { "halo": 0.8, "title": "耽罗国", "fontsize": 12, "tyid": "304000", "oid": "103:1576575169907", "color": "#202020" }, "geometry": { "type": "Point", "coordinates": [ 126.474609, 33.431441 ] } }
{"year": "AD280",  "type": "Feature", "tippecanoe": { "layer": "2AFCA107EDA01583916970431", "minzoom": 2, "maxzoom": 8 }, "properties": { "halo": 0.8, "title": "新罗", "fontsize": 12, "tyid": "304000", "oid": "103:1576575169647", "color": "#202020" }, "geometry": { "type": "Point", "coordinates": [ 129.199219, 35.817813 ] } }
{"year": "AD280",  "type": "Feature", "tippecanoe": { "layer": "2AFCA107EDA01583916970431", "minzoom": 2, "maxzoom": 8 }, "properties": { "halo": 0.8, "title": "弁韩", "fontsize": 12, "tyid": "304001", "oid": "103:1576575169543", "color": "#262626" }, "geometry": { "type": "Point", "coordinates": [ 127.968750, 35.317366 ] } }
{"year": "AD280",  "type": "Feature", "tippecanoe": { "layer": "2AFCA107EDA01583916970431", "minzoom": 2, "maxzoom": 8 }, "properties": { "halo": 0.8, "title": "伽倻", "fontsize": 12, "tyid": "304000", "oid": "103:1576575169625", "color": "#202020" }, "geometry": { "type": "Point", "coordinates": [ 128.847656, 35.245619 ] } }
{"year": "AD280",  "type": "Feature", "tippecanoe": { "layer": "2AFCA107EDA01583916970431", "minzoom": 2, "maxzoom": 8 }, "properties": { "halo": 0.8, "title": "对马国", "fontsize": 12, "tyid": "304000", "oid": "103:1576575169906", "color": "#202020" }, "geometry": { "type": "Point", "coordinates": [ 129.287109, 34.524661 ] } }
{"year": "AD280",  "type": "Feature", "tippecanoe": { "layer": "2AFCA107EDA01583916970431", "minzoom": 2, "maxzoom": 8 }, "properties": { "halo": 0.8, "title": "一支国", "fontsize": 12, "tyid": "304000", "oid": "103:1576575169650", "color": "#202020" }, "geometry": { "type": "Point", "coordinates": [ 129.638672, 33.797409 ] } }
{"year": "AD280",  "type": "Feature", "tippecanoe": { "layer": "2AFCA107EDA01583916970431", "minzoom": 2, "maxzoom": 8 }, "properties": { "halo": 0.8, "title": "末卢国", "fontsize": 12, "tyid": "304000", "oid": "103:1576575169626", "color": "#202020" }, "geometry": { "type": "Point", "coordinates": [ 129.902344, 33.431441 ] } }
{"year": "AD280",  "type": "Feature", "tippecanoe": { "layer": "2AFCA107EDA01583916970431", "minzoom": 2, "maxzoom": 8 }, "properties": { "halo": 0.8, "title": "伊都国", "fontsize": 12, "tyid": "304000", "oid": "103:1576575169969", "color": "#202020" }, "geometry": { "type": "Point", "coordinates": [ 130.166016, 33.578015 ] } }
{"year": "AD280",  "type": "Feature", "tippecanoe": { "layer": "2AFCA107EDA01583916970431", "minzoom": 2, "maxzoom": 8 }, "properties": { "halo": 0.8, "title": "奴国", "fontsize": 12, "tyid": "304000", "oid": "103:1576575169977", "color": "#202020" }, "geometry": { "type": "Point", "coordinates": [ 130.605469, 33.724340 ] } }
{"year": "AD280",  "type": "Feature", "tippecanoe": { "layer": "2AFCA107EDA01583916970431", "minzoom": 2, "maxzoom": 8 }, "properties": { "halo": 0.8, "title": "不弥国", "fontsize": 12, "tyid": "304000", "oid": "103:1576575169624", "color": "#202020" }, "geometry": { "type": "Point", "coordinates": [ 130.957031, 33.651208 ] } }
{"year": "AD280",  "type": "Feature", "tippecanoe": { "layer": "2AFCA107EDA01583916970431", "minzoom": 2, "maxzoom": 8 }, "properties": { "halo": 0.8, "title": "邪马台国", "fontsize": 12, "tyid": "304000", "oid": "103:1576575169926", "color": "#202020" }, "geometry": { "type": "Point", "coordinates": [ 130.869141, 33.137551 ] } }
{"year": "AD280",  "type": "Feature", "tippecanoe": { "layer": "2AFCA107EDA01583916970431", "minzoom": 2, "maxzoom": 8 }, "properties": { "halo": 0.8, "title": "投马国", "fontsize": 12, "tyid": "304000", "oid": "103:1576575169628", "color": "#202020" }, "geometry": { "type": "Point", "coordinates": [ 131.220703, 32.249974 ] } }
{"year": "AD280",  "type": "Feature", "tippecanoe": { "layer": "2AFCA107EDA01583916970431", "minzoom": 2, "maxzoom": 8 }, "properties": { "halo": 0.8, "title": "狗奴国", "fontsize": 12, "tyid": "304000", "oid": "103:1576575169627", "color": "#202020" }, "geometry": { "type": "Point", "coordinates": [ 130.605469, 31.952162 ] } }
{"year": "AD280",  "type": "Feature", "tippecanoe": { "layer": "2AFCA107EDA01583916970431", "minzoom": 2, "maxzoom": 8 }, "properties": { "halo": 0.8, "title": "尼格利陀人", "fontsize": 12, "tyid": "304001", "oid": "103:1576575169874", "color": "#262626" }, "geometry": { "type": "Point", "coordinates": [ 122.431641, 11.264612 ] } }
{"year": "AD280",  "type": "Feature", "tippecanoe": { "layer": "2AFCA107EDA01583916970431", "minzoom": 2, "maxzoom": 8 }, "properties": { "halo": 0.8, "title": "托雷斯海峡岛民", "fontsize": 12, "tyid": "304001", "oid": "103:1576575169572", "color": "#262626" }, "geometry": { "type": "Point", "coordinates": [ 142.382812, -11.264612 ] } }
{"year": "AD280",  "type": "Feature", "tippecanoe": { "layer": "2AFCA12C0F601583916970447", "minzoom": 2, "maxzoom": 8 }, "properties": { "halo": 1.6, "title": "古白令海文化", "fontsize": 12, "tyid": "304002", "oid": "103:1576575169885", "color": "#0056E7" }, "geometry": { "type": "Point", "coordinates": [ -170.332031, 63.470145 ] } }
{"year": "AD280",  "type": "Feature", "tippecanoe": { "layer": "2AFCA12C0F601583916970447", "minzoom": 2, "maxzoom": 8 }, "properties": { "halo": 1.6, "title": "梅奥人", "fontsize": 12, "tyid": "304001", "oid": "103:1576575169927", "color": "#0056E7" }, "geometry": { "type": "Point", "coordinates": [ -109.160156, 26.667096 ] } }
{"year": "AD280",  "type": "Feature", "tippecanoe": { "layer": "2AFCA12C0F601583916970447", "minzoom": 2, "maxzoom": 8 }, "properties": { "halo": 1.6, "title": "查尔奇维特斯文化", "fontsize": 12, "tyid": "304002", "oid": "103:1576575169747", "color": "#0056E7" }, "geometry": { "type": "Point", "coordinates": [ -103.974609, 23.483401 ] } }
{"year": "AD280",  "type": "Feature", "tippecanoe": { "layer": "2AFCA12C0F601583916970447", "minzoom": 2, "maxzoom": 8 }, "properties": { "halo": 1.6, "title": "查普卡洛文化", "fontsize": 12, "tyid": "304002", "oid": "103:1576575169744", "color": "#0056E7" }, "geometry": { "type": "Point", "coordinates": [ -99.931641, 20.303418 ] } }
{"year": "AD280",  "type": "Feature", "tippecanoe": { "layer": "2AFCA12C0F601583916970447", "minzoom": 2, "maxzoom": 8 }, "properties": { "halo": 1.6, "title": "特奥蒂瓦坎", "fontsize": 12, "tyid": "304002", "oid": "103:1576575169763", "color": "#0056E7" }, "geometry": { "type": "Point", "coordinates": [ -99.404297, 19.808054 ] } }
{"year": "AD280",  "type": "Feature", "tippecanoe": { "layer": "2AFCA12C0F601583916970447", "minzoom": 2, "maxzoom": 8 }, "properties": { "halo": 1.6, "title": "古韦拉克鲁斯文化", "fontsize": 12, "tyid": "304002", "oid": "103:1576575169792", "color": "#0056E7" }, "geometry": { "type": "Point", "coordinates": [ -96.767578, 19.642588 ] } }
{"year": "AD280",  "type": "Feature", "tippecanoe": { "layer": "2AFCA12C0F601583916970447", "minzoom": 2, "maxzoom": 8 }, "properties": { "halo": 1.6, "title": "米斯特克人", "fontsize": 12, "tyid": "304001", "oid": "103:1576575169978", "color": "#0056E7" }, "geometry": { "type": "Point", "coordinates": [ -98.349609, 17.224758 ] } }
{"year": "AD280",  "type": "Feature", "tippecanoe": { "layer": "2AFCA12C0F601583916970447", "minzoom": 2, "maxzoom": 8 }, "properties": { "halo": 1.6, "title": "特里克人", "fontsize": 12, "tyid": "304001", "oid": "103:1576575169929", "color": "#0056E7" }, "geometry": { "type": "Point", "coordinates": [ -97.382812, 17.811456 ] } }
{"year": "AD280",  "type": "Feature", "tippecanoe": { "layer": "2AFCA12C0F601583916970447", "minzoom": 2, "maxzoom": 8 }, "properties": { "halo": 1.6, "title": "洛瓦贾达斯文化", "fontsize": 12, "tyid": "304002", "oid": "103:1576575169845", "color": "#0056E7" }, "geometry": { "type": "Point", "coordinates": [ -96.416016, 19.145168 ] } }
{"year": "AD280",  "type": "Feature", "tippecanoe": { "layer": "2AFCA12C0F601583916970447", "minzoom": 2, "maxzoom": 8 }, "properties": { "halo": 1.6, "title": "麦克斯人", "fontsize": 12, "tyid": "304001", "oid": "103:1576575169889", "color": "#0056E7" }, "geometry": { "type": "Point", "coordinates": [ -96.503906, 18.312811 ] } }
{"year": "AD280",  "type": "Feature", "tippecanoe": { "layer": "2AFCA12C0F601583916970447", "minzoom": 2, "maxzoom": 8 }, "properties": { "halo": 1.6, "title": "佐齐尔人", "fontsize": 12, "tyid": "304001", "oid": "103:1576575169604", "color": "#0056E7" }, "geometry": { "type": "Point", "coordinates": [ -93.339844, 16.551962 ] } }
{"year": "AD280",  "type": "Feature", "tippecanoe": { "layer": "2AFCA12C0F601583916970447", "minzoom": 2, "maxzoom": 8 }, "properties": { "halo": 1.6, "title": "祖赫人", "fontsize": 12, "tyid": "304001", "oid": "103:1576575169856", "color": "#0056E7" }, "geometry": { "type": "Point", "coordinates": [ -92.109375, 16.045813 ] } }
{"year": "AD280",  "type": "Feature", "tippecanoe": { "layer": "2AFCA12C0F601583916970447", "minzoom": 2, "maxzoom": 8 }, "properties": { "halo": 1.6, "title": "基切人", "fontsize": 12, "tyid": "304001", "oid": "103:1576575169750", "color": "#0056E7" }, "geometry": { "type": "Point", "coordinates": [ -90.966797, 15.029686 ] } }
{"year": "AD280",  "type": "Feature", "tippecanoe": { "layer": "2AFCA12C0F601583916970447", "minzoom": 2, "maxzoom": 8 }, "properties": { "halo": 1.6, "title": "怒溪文化", "fontsize": 12, "tyid": "304002", "oid": "103:1576575169886", "color": "#0056E7" }, "geometry": { "type": "Point", "coordinates": [ -72.421875, 41.574361 ] } }
{"year": "AD280",  "type": "Feature", "tippecanoe": { "layer": "2AFCA12C0F601583916970447", "minzoom": 2, "maxzoom": 8 }, "properties": { "halo": 1.6, "title": "埃里森-拉莫特文化", "fontsize": 12, "tyid": "304002", "oid": "103:1576575169984", "color": "#0056E7" }, "geometry": { "type": "Point", "coordinates": [ -87.626953, 39.095963 ] } }
{"year": "AD280",  "type": "Feature", "tippecanoe": { "layer": "2AFCA12C0F601583916970447", "minzoom": 2, "maxzoom": 8 }, "properties": { "halo": 1.6, "title": "米勒文化", "fontsize": 12, "tyid": "304002", "oid": "103:1576575169849", "color": "#0056E7" }, "geometry": { "type": "Point", "coordinates": [ -88.242188, 34.161818 ] } }
{"year": "AD280",  "type": "Feature", "tippecanoe": { "layer": "2AFCA12C0F601583916970447", "minzoom": 2, "maxzoom": 8 }, "properties": { "halo": 1.6, "title": "威廉文化", "fontsize": 12, "tyid": "304002", "oid": "103:1576575169843", "color": "#0056E7" }, "geometry": { "type": "Point", "coordinates": [ -80.771484, 39.639538 ] } }
{"year": "AD280",  "type": "Feature", "tippecanoe": { "layer": "2AFCA12C0F601583916970447", "minzoom": 2, "maxzoom": 8 }, "properties": { "halo": 1.6, "title": "山地霍普维尔文化", "fontsize": 12, "tyid": "304002", "oid": "103:1576575169616", "color": "#0056E7" }, "geometry": { "type": "Point", "coordinates": [ -79.980469, 39.300299 ] } }
{"year": "AD280",  "type": "Feature", "tippecanoe": { "layer": "2AFCA12C0F601583916970447", "minzoom": 2, "maxzoom": 8 }, "properties": { "halo": 1.6, "title": "凯兹池塘文化", "fontsize": 12, "tyid": "304002", "oid": "103:1576575169814", "color": "#0056E7" }, "geometry": { "type": "Point", "coordinates": [ -82.265625, 29.535230 ] } }
{"year": "AD280",  "type": "Feature", "tippecanoe": { "layer": "2AFCA12C0F601583916970447", "minzoom": 2, "maxzoom": 8 }, "properties": { "halo": 1.6, "title": "玛纳索塔文化", "fontsize": 12, "tyid": "304002", "oid": "103:1576575169569", "color": "#0056E7" }, "geometry": { "type": "Point", "coordinates": [ -82.441406, 27.683528 ] } }
{"year": "AD280",  "type": "Feature", "tippecanoe": { "layer": "2AFCA12C0F601583916970447", "minzoom": 2, "maxzoom": 8 }, "properties": { "halo": 1.6, "title": "卡卢萨人", "fontsize": 12, "tyid": "304001", "oid": "103:1576575169863", "color": "#0056E7" }, "geometry": { "type": "Point", "coordinates": [ -81.650391, 27.137368 ] } }
{"year": "AD280",  "type": "Feature", "tippecanoe": { "layer": "2AFCA12C0F601583916970447", "minzoom": 2, "maxzoom": 8 }, "properties": { "halo": 1.6, "title": "圣约翰文化", "fontsize": 12, "tyid": "304002", "oid": "103:1576575169964", "color": "#0056E7" }, "geometry": { "type": "Point", "coordinates": [ -81.474609, 29.382175 ] } }
{"year": "AD280",  "type": "Feature", "tippecanoe": { "layer": "2AFCA12C0F601583916970447", "minzoom": 2, "maxzoom": 8 }, "properties": { "halo": 1.6, "title": "贝尔格莱德文化", "fontsize": 12, "tyid": "304002", "oid": "103:1576575169642", "color": "#0056E7" }, "geometry": { "type": "Point", "coordinates": [ -80.859375, 27.527758 ] } }
{"year": "AD280",  "type": "Feature", "tippecanoe": { "layer": "2AFCA12C0F601583916970447", "minzoom": 2, "maxzoom": 8 }, "properties": { "halo": 1.6, "title": "格莱兹文化", "fontsize": 12, "tyid": "304002", "oid": "103:1576575169528", "color": "#0056E7" }, "geometry": { "type": "Point", "coordinates": [ -80.859375, 26.037042 ] } }
{"year": "AD280",  "type": "Feature", "tippecanoe": { "layer": "2AFCA12C0F601583916970447", "minzoom": 2, "maxzoom": 8 }, "properties": { "halo": 1.6, "title": "德贵斯塔族", "fontsize": 12, "tyid": "304001", "oid": "103:1576575169959", "color": "#0056E7" }, "geometry": { "type": "Point", "coordinates": [ -80.419922, 25.641526 ] } }
{"year": "AD280",  "type": "Feature", "tippecanoe": { "layer": "2AFCA12C0F601583916970447", "minzoom": 2, "maxzoom": 8 }, "properties": { "halo": 1.6, "title": "雷卡人", "fontsize": 12, "tyid": "304001", "oid": "103:1576575169703", "color": "#0056E7" }, "geometry": { "type": "Point", "coordinates": [ -87.802734, 13.752725 ] } }
{"year": "AD280",  "type": "Feature", "tippecanoe": { "layer": "2AFCA12C0F601583916970447", "minzoom": 2, "maxzoom": 8 }, "properties": { "halo": 1.6, "title": "格兰科克勒文化", "fontsize": 12, "tyid": "304002", "oid": "103:1576575169767", "color": "#0056E7" }, "geometry": { "type": "Point", "coordinates": [ -80.507812, 8.581021 ] } }
{"year": "AD280",  "type": "Feature", "tippecanoe": { "layer": "2AFCA12C0F601583916970447", "minzoom": 2, "maxzoom": 8 }, "properties": { "halo": 1.8, "title": "泰罗纳", "fontsize": 12, "tyid": "304000", "oid": "103:1576575169641", "color": "#0056E7" }, "geometry": { "type": "Point", "coordinates": [ -73.564453, 10.833306 ] } }
{"year": "AD280",  "type": "Feature", "tippecanoe": { "layer": "2AFCA12C0F601583916970447", "minzoom": 2, "maxzoom": 8 }, "properties": { "halo": 1.6, "title": "约托科文化", "fontsize": 12, "tyid": "304002", "oid": "103:1576575169838", "color": "#0056E7" }, "geometry": { "type": "Point", "coordinates": [ -76.289062, 4.302591 ] } }
{"year": "AD280",  "type": "Feature", "tippecanoe": { "layer": "2AFCA12C0F601583916970447", "minzoom": 2, "maxzoom": 8 }, "properties": { "halo": 1.6, "title": "卡利玛文化", "fontsize": 12, "tyid": "304002", "oid": "103:1576575169813", "color": "#0056E7" }, "geometry": { "type": "Point", "coordinates": [ -76.728516, 4.214943 ] } }
{"year": "AD280",  "type": "Feature", "tippecanoe": { "layer": "2AFCA12C0F601583916970447", "minzoom": 2, "maxzoom": 8 }, "properties": { "halo": 1.6, "title": "马拉加纳文化", "fontsize": 12, "tyid": "304002", "oid": "103:1576575169537", "color": "#0056E7" }, "geometry": { "type": "Point", "coordinates": [ -76.289062, 3.425692 ] } }
{"year": "AD280",  "type": "Feature", "tippecanoe": { "layer": "2AFCA12C0F601583916970447", "minzoom": 2, "maxzoom": 8 }, "properties": { "halo": 1.6, "title": "昆巴雅文明", "fontsize": 12, "tyid": "304002", "oid": "103:1576575170007", "color": "#0056E7" }, "geometry": { "type": "Point", "coordinates": [ -75.761719, 5.090944 ] } }
{"year": "AD280",  "type": "Feature", "tippecanoe": { "layer": "2AFCA12C0F601583916970447", "minzoom": 2, "maxzoom": 8 }, "properties": { "halo": 1.6, "title": "大庄园文化", "fontsize": 12, "tyid": "304002", "oid": "103:1576575169681", "color": "#0056E7" }, "geometry": { "type": "Point", "coordinates": [ -65.917969, 18.396230 ] } }
{"year": "AD280",  "type": "Feature", "tippecanoe": { "layer": "2AFCA12C0F601583916970447", "minzoom": 2, "maxzoom": 8 }, "properties": { "halo": 1.6, "title": "萨拉杜文化", "fontsize": 12, "tyid": "304002", "oid": "103:1576575169867", "color": "#0056E7" }, "geometry": { "type": "Point", "coordinates": [ -61.699219, 16.214675 ] } }
{"year": "AD280",  "type": "Feature", "tippecanoe": { "layer": "2AFCA12C0F601583916970447", "minzoom": 2, "maxzoom": 8 }, "properties": { "halo": 1.6, "title": "凯雷尼人", "fontsize": 12, "tyid": "304001", "oid": "103:1576575169801", "color": "#0056E7" }, "geometry": { "type": "Point", "coordinates": [ -5.097656, 58.077876 ] } }
{"year": "AD280",  "type": "Feature", "tippecanoe": { "layer": "2AFCA12C0F601583916970447", "minzoom": 2, "maxzoom": 8 }, "properties": { "halo": 1.6, "title": "卡诺奈卡人", "fontsize": 12, "tyid": "304001", "oid": "103:1576575169631", "color": "#0056E7" }, "geometry": { "type": "Point", "coordinates": [ -5.537109, 57.657158 ] } }
{"year": "AD280",  "type": "Feature", "tippecanoe": { "layer": "2AFCA12C0F601583916970447", "minzoom": 2, "maxzoom": 8 }, "properties": { "halo": 1.6, "title": "斯梅尔泰人", "fontsize": 12, "tyid": "304001", "oid": "103:1576575169755", "color": "#0056E7" }, "geometry": { "type": "Point", "coordinates": [ -4.746094, 57.984808 ] } }
{"year": "AD280",  "type": "Feature", "tippecanoe": { "layer": "2AFCA12C0F601583916970447", "minzoom": 2, "maxzoom": 8 }, "properties": { "halo": 1.6, "title": "卢吉人", "fontsize": 12, "tyid": "304001", "oid": "103:1576575169651", "color": "#0056E7" }, "geometry": { "type": "Point", "coordinates": [ -4.130859, 58.124320 ] } }
{"year": "AD280",  "type": "Feature", "tippecanoe": { "layer": "2AFCA12C0F601583916970447", "minzoom": 2, "maxzoom": 8 }, "properties": { "halo": 1.6, "title": "克洛维人[凯瑟尼斯]", "fontsize": 12, "tyid": "304001", "oid": "103:1576575169517", "color": "#0056E7" }, "geometry": { "type": "Point", "coordinates": [ -3.867188, 58.447733 ] } }
{"year": "AD280",  "type": "Feature", "tippecanoe": { "layer": "2AFCA12C0F601583916970447", "minzoom": 2, "maxzoom": 8 }, "properties": { "halo": 1.6, "title": "德坎泰人", "fontsize": 12, "tyid": "304001", "oid": "103:1576575169551", "color": "#0056E7" }, "geometry": { "type": "Point", "coordinates": [ -4.218750, 57.610107 ] } }
{"year": "AD280",  "type": "Feature", "tippecanoe": { "layer": "2AFCA12C0F601583916970447", "minzoom": 2, "maxzoom": 8 }, "properties": { "halo": 1.6, "title": "维格梅京人", "fontsize": 12, "tyid": "304001", "oid": "103:1576575169587", "color": "#0056E7" }, "geometry": { "type": "Point", "coordinates": [ -3.339844, 57.515823 ] } }
{"year": "AD280",  "type": "Feature", "tippecanoe": { "layer": "2AFCA12C0F601583916970447", "minzoom": 2, "maxzoom": 8 }, "properties": { "halo": 1.6, "title": "克鲁尼人", "fontsize": 12, "tyid": "304001", "oid": "103:1576575169688", "color": "#0056E7" }, "geometry": { "type": "Point", "coordinates": [ -5.449219, 57.040730 ] } }
{"year": "AD280",  "type": "Feature", "tippecanoe": { "layer": "2AFCA12C0F601583916970447", "minzoom": 2, "maxzoom": 8 }, "properties": { "halo": 1.6, "title": "维尼科内人", "fontsize": 12, "tyid": "304001", "oid": "103:1576575169670", "color": "#0056E7" }, "geometry": { "type": "Point", "coordinates": [ -3.691406, 56.218923 ] } }
{"year": "AD280",  "type": "Feature", "tippecanoe": { "layer": "2AFCA12C0F601583916970447", "minzoom": 2, "maxzoom": 8 }, "properties": { "halo": 1.6, "title": "德克萨利人", "fontsize": 12, "tyid": "304001", "oid": "103:1576575169678", "color": "#0056E7" }, "geometry": { "type": "Point", "coordinates": [ -2.197266, 57.326521 ] } }
{"year": "AD280",  "type": "Feature", "tippecanoe": { "layer": "2AFCA12C0F601583916970447", "minzoom": 2, "maxzoom": 8 }, "properties": { "halo": 1.8, "title": "奥斯拉尔王国", "fontsize": 12, "tyid": "304000", "oid": "103:1576575169719", "color": "#0056E7" }, "geometry": { "type": "Point", "coordinates": [ -7.470703, 52.802761 ] } }
{"year": "AD280",  "type": "Feature", "tippecanoe": { "layer": "2AFCA12C0F601583916970447", "minzoom": 2, "maxzoom": 8 }, "properties": { "halo": 1.6, "title": "埃皮迪人", "fontsize": 12, "tyid": "304001", "oid": "103:1576575169884", "color": "#0056E7" }, "geometry": { "type": "Point", "coordinates": [ -5.537109, 55.677584 ] } }
{"year": "AD280",  "type": "Feature", "tippecanoe": { "layer": "2AFCA12C0F601583916970447", "minzoom": 2, "maxzoom": 8 }, "properties": { "halo": 1.8, "title": "沃塔迪尼人", "fontsize": 12, "tyid": "304000", "oid": "103:1576575169691", "color": "#0056E7" }, "geometry": { "type": "Point", "coordinates": [ -2.548828, 55.528631 ] } }
{"year": "AD280",  "type": "Feature", "tippecanoe": { "layer": "2AFCA12C0F601583916970447", "minzoom": 2, "maxzoom": 8 }, "properties": { "halo": 1.6, "title": "关切人", "fontsize": 12, "tyid": "304001", "oid": "103:1576575169554", "color": "#0056E7" }, "geometry": { "type": "Point", "coordinates": [ -16.611328, 28.304381 ] } }
{"year": "AD280",  "type": "Feature", "tippecanoe": { "layer": "2AFCA12C0F601583916970447", "minzoom": 2, "maxzoom": 8 }, "properties": { "halo": 1.6, "title": "瓜纳加拉文化", "fontsize": 12, "tyid": "304002", "oid": "103:1576575169553", "color": "#0056E7" }, "geometry": { "type": "Point", "coordinates": [ -80.595703, -1.669686 ] } }
{"year": "AD280",  "type": "Feature", "tippecanoe": { "layer": "2AFCA12C0F601583916970447", "minzoom": 2, "maxzoom": 8 }, "properties": { "halo": 1.6, "title": "巴伊亚文化", "fontsize": 12, "tyid": "304002", "oid": "103:1576575169900", "color": "#0056E7" }, "geometry": { "type": "Point", "coordinates": [ -80.068359, -0.527336 ] } }
{"year": "AD280",  "type": "Feature", "tippecanoe": { "layer": "2AFCA12C0F601583916970447", "minzoom": 2, "maxzoom": 8 }, "properties": { "halo": 1.6, "title": "维克斯文化", "fontsize": 12, "tyid": "304002", "oid": "103:1576575169785", "color": "#0056E7" }, "geometry": { "type": "Point", "coordinates": [ -80.419922, -5.878332 ] } }
{"year": "AD280",  "type": "Feature", "tippecanoe": { "layer": "2AFCA12C0F601583916970447", "minzoom": 2, "maxzoom": 8 },