{ "type": "Feature", "tippecanoe": { "layer": "2AFCA0B340801583916890519", "minzoom": 2, "maxzoom": 8 }, "properties": { "tyid": "410000", "centroid": "{\"type\":\"Point\",\"coordinates\":[102.890655519,50.32448578]}", "opacity": 1, "oid": "103:1582721307215", "color": "#A11300", "width": 3 }, "geometry": { "type": "MultiLineString", "coordinates": [ [ [ 108.017578, 21.616579 ], [ 106.611328, 22.024546 ], [ 106.523438, 22.512557 ], [ 106.699219, 22.836946 ], [ 105.820312, 22.998852 ], [ 105.205078, 23.402765 ], [ 103.886719, 22.512557 ], [ 103.535156, 22.836946 ], [ 103.183594, 22.105999 ], [ 102.480469, 22.512557 ], [ 101.777344, 21.861499 ], [ 101.689453, 21.207459 ], [ 101.162109, 21.207459 ], [ 100.986328, 21.779905 ], [ 100.195312, 21.534847 ], [ 99.843750, 22.105999 ], [ 99.140625, 22.187405 ], [ 99.228516, 22.917923 ], [ 98.437500, 23.079732 ], [ 98.701172, 23.402765 ], [ 98.349609, 23.966176 ], [ 98.525391, 24.206890 ], [ 97.294922, 23.805450 ], [ 97.470703, 25.324167 ], [ 98.261719, 26.431228 ], [ 98.701172, 26.667096 ], [ 98.613281, 27.605671 ], [ 98.261719, 27.605671 ], [ 98.085938, 28.226970 ], [ 97.558594, 28.536275 ], [ 97.031250, 27.761330 ], [ 96.240234, 28.304381 ], [ 95.625000, 28.304381 ], [ 94.218750, 27.605671 ], [ 93.691406, 27.059126 ], [ 92.988281, 26.902477 ], [ 92.021484, 26.902477 ], [ 92.109375, 27.371767 ], [ 91.494141, 27.605671 ], [ 91.494141, 27.916767 ], [ 90.791016, 28.071980 ] ], [ [ 130.605469, 42.293564 ], [ 130.166016, 42.940339 ], [ 129.814453, 43.004647 ], [ 129.638672, 42.488302 ], [ 129.287109, 42.423457 ], [ 128.847656, 42.032974 ], [ 127.968750, 42.032974 ], [ 128.232422, 41.574361 ], [ 128.056641, 41.442726 ], [ 127.177734, 41.508577 ], [ 126.826172, 41.836828 ], [ 125.947266, 40.913513 ], [ 124.804688, 40.513799 ], [ 124.277344, 40.044438 ] ], [ [ 135.263672, 54.775346 ], [ 132.978516, 54.162434 ], [ 130.517578, 54.110943 ], [ 131.835938, 54.927142 ], [ 131.044922, 55.677584 ], [ 129.462891, 55.776573 ], [ 128.759766, 55.528631 ], [ 127.705078, 55.727110 ], [ 126.123047, 55.627996 ], [ 125.859375, 55.825973 ], [ 124.804688, 55.924586 ], [ 123.134766, 54.775346 ], [ 121.376953, 54.265224 ], [ 121.025391, 54.521081 ], [ 120.234375, 54.162434 ], [ 119.267578, 54.007769 ], [ 119.003906, 53.383328 ], [ 119.179688, 53.120405 ], [ 120.058594, 53.488046 ], [ 121.201172, 53.540307 ], [ 121.376953, 53.383328 ], [ 120.761719, 53.278353 ], [ 119.970703, 52.802761 ], [ 120.058594, 52.589701 ], [ 120.673828, 52.536273 ], [ 120.673828, 51.998410 ], [ 120.058594, 51.672555 ], [ 119.091797, 50.401515 ], [ 119.355469, 50.401515 ], [ 119.267578, 50.120578 ], [ 118.037109, 49.610710 ], [ 116.191406, 50.064192 ], [ 115.312500, 49.951220 ], [ 114.960938, 50.233152 ], [ 114.257812, 50.289339 ], [ 112.675781, 49.496675 ], [ 110.654297, 49.152970 ], [ 108.457031, 49.382373 ], [ 107.929688, 49.724479 ], [ 107.929688, 49.951220 ], [ 107.050781, 50.064192 ], [ 106.523438, 50.345460 ], [ 105.292969, 50.513427 ], [ 103.974609, 50.176898 ], [ 103.271484, 50.233152 ], [ 102.216797, 50.625073 ], [ 102.041016, 51.399206 ], [ 98.964844, 52.106505 ], [ 98.613281, 52.482780 ], [ 98.876953, 52.908902 ], [ 99.140625, 52.961875 ], [ 98.789062, 53.173119 ], [ 98.173828, 53.120405 ], [ 96.767578, 53.800651 ], [ 96.416016, 53.592505 ], [ 94.658203, 53.435719 ], [ 94.394531, 52.961875 ], [ 94.130859, 52.908902 ], [ 93.515625, 52.214339 ], [ 92.812500, 51.890054 ], [ 91.054688, 51.890054 ], [ 90.175781, 52.696361 ], [ 87.802734, 53.383328 ], [ 86.396484, 53.173119 ], [ 86.132812, 52.908902 ], [ 83.056641, 51.618017 ], [ 82.617188, 51.179343 ], [ 83.056641, 50.958427 ], [ 83.232422, 50.513427 ], [ 82.529297, 49.724479 ], [ 82.529297, 49.325122 ], [ 81.298828, 48.690960 ], [ 81.035156, 48.166085 ], [ 79.628906, 47.694974 ], [ 79.453125, 46.800059 ], [ 78.750000, 46.800059 ], [ 78.750000, 46.619261 ], [ 78.574219, 46.800059 ], [ 78.222656, 46.498392 ], [ 77.783203, 46.679594 ], [ 74.531250, 46.800059 ], [ 73.564453, 46.134170 ], [ 73.388672, 45.706179 ], [ 72.070312, 44.964798 ], [ 70.488281, 44.402392 ], [ 69.521484, 43.452919 ], [ 70.927734, 42.293564 ], [ 73.212891, 42.163403 ], [ 73.916016, 41.836828 ], [ 74.003906, 41.574361 ], [ 73.300781, 41.508577 ], [ 73.828125, 41.046217 ], [ 73.212891, 40.847060 ], [ 72.949219, 40.446947 ], [ 73.125000, 40.044438 ], [ 72.773438, 39.842286 ], [ 72.861328, 39.368279 ], [ 72.421875, 39.436193 ], [ 72.070312, 39.095963 ], [ 72.246094, 38.548165 ], [ 71.894531, 38.272689 ], [ 72.158203, 37.649034 ], [ 71.718750, 36.738884 ], [ 73.476562, 37.509726 ], [ 73.740234, 37.439974 ], [ 73.740234, 37.160317 ], [ 74.531250, 37.090240 ], [ 75.673828, 36.385913 ], [ 75.761719, 36.031332 ], [ 74.882812, 35.817813 ], [ 75.322266, 35.173808 ], [ 75.146484, 34.669359 ], [ 76.113281, 33.578015 ], [ 77.080078, 32.990236 ], [ 77.080078, 32.472695 ], [ 77.871094, 31.802893 ], [ 78.662109, 31.728167 ], [ 79.013672, 31.052934 ], [ 79.892578, 30.826781 ], [ 80.683594, 30.145127 ], [ 82.001953, 30.145127 ], [ 83.583984, 29.228890 ], [ 83.935547, 29.305561 ], [ 84.462891, 28.536275 ], [ 85.605469, 28.226970 ], [ 85.869141, 27.916767 ], [ 87.714844, 27.839076 ], [ 88.681641, 28.071980 ], [ 88.945312, 27.215556 ], [ 89.560547, 28.226970 ], [ 90.791016, 28.071980 ] ] ] } }
{ "type": "Feature", "tippecanoe": { "layer": "2AFCA0B340801583916890519", "minzoom": 2, "maxzoom": 8 }, "properties": { "tyid": "410000", "centroid": "{\"type\":\"Point\",\"coordinates\":[118.9965612163,11.9748626986]}", "opacity": 1, "oid": "103:1582721307213", "color": "#A11300", "width": 3 }, "geometry": { "type": "MultiLineString", "coordinates": [ [ [ 122.695312, 24.447150 ], [ 122.431641, 23.402765 ] ], [ [ 120.849609, 20.550509 ], [ 121.728516, 21.616579 ] ], [ [ 119.355469, 17.727759 ], [ 119.794922, 18.895893 ] ], [ [ 118.916016, 14.689881 ], [ 118.916016, 16.045813 ] ], [ [ 118.476562, 10.833306 ], [ 119.003906, 12.039321 ] ], [ [ 115.312500, 7.013668 ], [ 116.191406, 8.059230 ] ], [ [ 111.708984, 3.425692 ], [ 112.939453, 3.864255 ] ], [ [ 108.281250, 5.965754 ], [ 108.193359, 7.362467 ] ], [ [ 110.039062, 11.264612 ], [ 110.214844, 12.468760 ] ], [ [ 109.775391, 15.029686 ], [ 109.248047, 16.214675 ] ] ] } }
{ "type": "Feature", "tippecanoe": { "layer": "2AFCA0B346A01583916890516", "minzoom": 2, "maxzoom": 8 }, "properties": { "halo": 1.6, "title": "拉霍亚文化", "fontsize": 12, "tyid": "304002", "oid": "103:1571623888337", "color": "#0056E7" }, "geometry": { "type": "Point", "coordinates": [ -118.212891, 34.379713 ] } }
{ "type": "Feature", "tippecanoe": { "layer": "2AFCA0B346A01583916890516", "minzoom": 2, "maxzoom": 8 }, "properties": { "halo": 1.6, "title": "维珍阿纳萨齐人", "fontsize": 12, "tyid": "304001", "oid": "103:1571623888477", "color": "#0056E7" }, "geometry": { "type": "Point", "coordinates": [ -113.818359, 36.879621 ] } }
{ "type": "Feature", "tippecanoe": { "layer": "2AFCA0B346A01583916890516", "minzoom": 2, "maxzoom": 8 }, "properties": { "halo": 1.6, "title": "霍霍卡姆文化", "fontsize": 12, "tyid": "304002", "oid": "103:1571623887620", "color": "#0056E7" }, "geometry": { "type": "Point", "coordinates": [ -112.851562, 32.768800 ] } }
{ "type": "Feature", "tippecanoe": { "layer": "2AFCA0B346A01583916890516", "minzoom": 2, "maxzoom": 8 }, "properties": { "halo": 1.6, "title": "弗里蒙特文化", "fontsize": 12, "tyid": "304002", "oid": "103:1571623888243", "color": "#0056E7" }, "geometry": { "type": "Point", "coordinates": [ -111.533203, 38.134557 ] } }
{ "type": "Feature", "tippecanoe": { "layer": "2AFCA0B346A01583916890516", "minzoom": 2, "maxzoom": 8 }, "properties": { "halo": 1.6, "title": "奥沙拉文化", "fontsize": 12, "tyid": "304002", "oid": "103:1571623888014", "color": "#0056E7" }, "geometry": { "type": "Point", "coordinates": [ -107.841797, 37.509726 ] } }
{ "type": "Feature", "tippecanoe": { "layer": "2AFCA0B346A01583916890516", "minzoom": 2, "maxzoom": 8 }, "properties": { "halo": 1.6, "title": "古普韦布洛人", "fontsize": 12, "tyid": "304001", "oid": "103:1571623888096", "color": "#0056E7" }, "geometry": { "type": "Point", "coordinates": [ -109.951172, 36.527295 ] } }
{ "type": "Feature", "tippecanoe": { "layer": "2AFCA0B346A01583916890516", "minzoom": 2, "maxzoom": 8 }, "properties": { "halo": 1.6, "title": "莫戈隆文化", "fontsize": 12, "tyid": "304002", "oid": "103:1571623887893", "color": "#0056E7" }, "geometry": { "type": "Point", "coordinates": [ -108.808594, 31.802893 ] } }
{ "type": "Feature", "tippecanoe": { "layer": "2AFCA0B346A01583916890516", "minzoom": 2, "maxzoom": 8 }, "properties": { "halo": 1.6, "title": "瓜伊库拉人", "fontsize": 12, "tyid": "304001", "oid": "103:1571623888266", "color": "#0056E7" }, "geometry": { "type": "Point", "coordinates": [ -111.269531, 24.846565 ] } }
{ "type": "Feature", "tippecanoe": { "layer": "2AFCA0B346A01583916890516", "minzoom": 2, "maxzoom": 8 }, "properties": { "halo": 1.6, "title": "堪萨斯城霍普韦尔文化", "fontsize": 12, "tyid": "304002", "oid": "103:1571623888344", "color": "#0056E7" }, "geometry": { "type": "Point", "coordinates": [ -94.042969, 39.027719 ] } }
{ "type": "Feature", "tippecanoe": { "layer": "2AFCA0B346A01583916890516", "minzoom": 2, "maxzoom": 8 }, "properties": { "halo": 1.6, "title": "哈瓦那霍普韦尔文化", "fontsize": 12, "tyid": "304002", "oid": "103:1571623887923", "color": "#0056E7" }, "geometry": { "type": "Point", "coordinates": [ -90.966797, 40.245992 ] } }
{ "type": "Feature", "tippecanoe": { "layer": "2AFCA0B346A01583916890516", "minzoom": 2, "maxzoom": 8 }, "properties": { "halo": 1.6, "title": "喀多语密西西比文化", "fontsize": 12, "tyid": "304002", "oid": "103:1571623887764", "color": "#0056E7" }, "geometry": { "type": "Point", "coordinates": [ -94.482422, 35.960223 ] } }
{ "type": "Feature", "tippecanoe": { "layer": "2AFCA0B346A01583916890516", "minzoom": 2, "maxzoom": 8 }, "properties": { "halo": 1.6, "title": "福切马里尼文化", "fontsize": 12, "tyid": "304002", "oid": "103:1571623888188", "color": "#0056E7" }, "geometry": { "type": "Point", "coordinates": [ -94.042969, 33.284620 ] } }
{ "type": "Feature", "tippecanoe": { "layer": "2AFCA0B346A01583916890516", "minzoom": 2, "maxzoom": 8 }, "properties": { "halo": 1.6, "title": "贝敦文化", "fontsize": 12, "tyid": "304002", "oid": "103:1571623887738", "color": "#0056E7" }, "geometry": { "type": "Point", "coordinates": [ -90.703125, 34.379713 ] } }
{ "type": "Feature", "tippecanoe": { "layer": "2AFCA0B346A01583916890516", "minzoom": 2, "maxzoom": 8 }, "properties": { "halo": 1.6, "title": "华斯塔克文明", "fontsize": 12, "tyid": "304002", "oid": "103:1571623888203", "color": "#0056E7" }, "geometry": { "type": "Point", "coordinates": [ -98.613281, 22.105999 ] } }
{ "type": "Feature", "tippecanoe": { "layer": "2AFCA0B346A01583916890516", "minzoom": 2, "maxzoom": 8 }, "properties": { "halo": 1.6, "title": "奇蒂玛察人", "fontsize": 12, "tyid": "304001", "oid": "103:1571623887758", "color": "#0056E7" }, "geometry": { "type": "Point", "coordinates": [ -90.966797, 30.977609 ] } }
{ "type": "Feature", "tippecanoe": { "layer": "2AFCA0B346A01583916890516", "minzoom": 2, "maxzoom": 8 }, "properties": { "halo": 1.6, "title": "马克斯维尔文化", "fontsize": 12, "tyid": "304002", "oid": "103:1571623888173", "color": "#0056E7" }, "geometry": { "type": "Point", "coordinates": [ -90.878906, 29.764377 ] } }
{ "type": "Feature", "tippecanoe": { "layer": "2AFCA0B346A01583916890516", "minzoom": 2, "maxzoom": 8 }, "properties": { "halo": 1.6, "title": "萨波特克文明", "fontsize": 12, "tyid": "304002", "oid": "103:1571623887867", "color": "#0056E7" }, "geometry": { "type": "Point", "coordinates": [ -96.064453, 16.888660 ] } }
{ "type": "Feature", "tippecanoe": { "layer": "2AFCA0B346A01583916890516", "minzoom": 2, "maxzoom": 8 }, "properties": { "halo": 1.6, "title": "古德尔文化", "fontsize": 12, "tyid": "304002", "oid": "103:1571623888304", "color": "#0056E7" }, "geometry": { "type": "Point", "coordinates": [ -85.869141, 43.133061 ] } }
{ "type": "Feature", "tippecanoe": { "layer": "2AFCA0B346A01583916890516", "minzoom": 2, "maxzoom": 8 }, "properties": { "halo": 1.6, "title": "索根文化", "fontsize": 12, "tyid": "304002", "oid": "103:1571623888064", "color": "#0056E7" }, "geometry": { "type": "Point", "coordinates": [ -81.298828, 43.707594 ] } }
{ "type": "Feature", "tippecanoe": { "layer": "2AFCA0B346A01583916890516", "minzoom": 2, "maxzoom": 8 }, "properties": { "halo": 1.6, "title": "蟹园文化", "fontsize": 12, "tyid": "304002", "oid": "103:1571623887851", "color": "#0056E7" }, "geometry": { "type": "Point", "coordinates": [ -88.593750, 37.230328 ] } }
{ "type": "Feature", "tippecanoe": { "layer": "2AFCA0B346A01583916890516", "minzoom": 2, "maxzoom": 8 }, "properties": { "halo": 1.6, "title": "科佩纳文化", "fontsize": 12, "tyid": "304002", "oid": "103:1571623887830", "color": "#0056E7" }, "geometry": { "type": "Point", "coordinates": [ -87.275391, 34.307144 ] } }
{ "type": "Feature", "tippecanoe": { "layer": "2AFCA0B346A01583916890516", "minzoom": 2, "maxzoom": 8 }, "properties": { "halo": 1.6, "title": "斯威夫特溪文化", "fontsize": 12, "tyid": "304002", "oid": "103:1571623888232", "color": "#0056E7" }, "geometry": { "type": "Point", "coordinates": [ -84.814453, 32.175612 ] } }
{ "type": "Feature", "tippecanoe": { "layer": "2AFCA0B346A01583916890516", "minzoom": 2, "maxzoom": 8 }, "properties": { "halo": 1.6, "title": "俄亥俄霍普韦尔文化", "fontsize": 12, "tyid": "304002", "oid": "103:1571623887716", "color": "#0056E7" }, "geometry": { "type": "Point", "coordinates": [ -83.056641, 39.774769 ] } }
{ "type": "Feature", "tippecanoe": { "layer": "2AFCA0B346A01583916890516", "minzoom": 2, "maxzoom": 8 }, "properties": { "halo": 1.6, "title": "阿姆斯特朗文化", "fontsize": 12, "tyid": "304002", "oid": "103:1571623887915", "color": "#0056E7" }, "geometry": { "type": "Point", "coordinates": [ -82.968750, 38.134557 ] } }
{ "type": "Feature", "tippecanoe": { "layer": "2AFCA0B346A01583916890516", "minzoom": 2, "maxzoom": 8 }, "properties": { "halo": 1.6, "title": "德普特福德文化", "fontsize": 12, "tyid": "304002", "oid": "103:1571623888155", "color": "#0056E7" }, "geometry": { "type": "Point", "coordinates": [ -79.628906, 33.431441 ] } }
{ "type": "Feature", "tippecanoe": { "layer": "2AFCA0B346A01583916890516", "minzoom": 2, "maxzoom": 8 }, "properties": { "halo": 1.6, "title": "圣罗莎-斯威夫特溪文化", "fontsize": 12, "tyid": "304002", "oid": "103:1571623888382", "color": "#0056E7" }, "geometry": { "type": "Point", "coordinates": [ -86.748047, 30.977609 ] } }
{ "type": "Feature", "tippecanoe": { "layer": "2AFCA0B346A01583916890516", "minzoom": 2, "maxzoom": 8 }, "properties": { "halo": 1.6, "title": "维登岛文化", "fontsize": 12, "tyid": "304002", "oid": "103:1571623888419", "color": "#0056E7" }, "geometry": { "type": "Point", "coordinates": [ -84.902344, 30.524413 ] } }
{ "type": "Feature", "tippecanoe": { "layer": "2AFCA0B346A01583916890516", "minzoom": 2, "maxzoom": 8 }, "properties": { "halo": 1.6, "title": "佩奇人", "fontsize": 12, "tyid": "304001", "oid": "103:1571623887864", "color": "#0056E7" }, "geometry": { "type": "Point", "coordinates": [ -84.814453, 15.368950 ] } }
{ "type": "Feature", "tippecanoe": { "layer": "2AFCA0B346A01583916890516", "minzoom": 2, "maxzoom": 8 }, "properties": { "halo": 1.6, "title": "兹努文化", "fontsize": 12, "tyid": "304002", "oid": "103:1571623888224", "color": "#0056E7" }, "geometry": { "type": "Point", "coordinates": [ -75.585938, 8.581021 ] } }
{ "type": "Feature", "tippecanoe": { "layer": "2AFCA0B346A01583916890516", "minzoom": 2, "maxzoom": 8 }, "properties": { "halo": 1.6, "title": "埃雷拉时期", "fontsize": 12, "tyid": "304002", "oid": "103:1571623887786", "color": "#0056E7" }, "geometry": { "type": "Point", "coordinates": [ -73.037109, 5.965754 ] } }
{ "type": "Feature", "tippecanoe": { "layer": "2AFCA0B346A01583916890516", "minzoom": 2, "maxzoom": 8 }, "properties": { "halo": 1.6, "title": "伊奈里人", "fontsize": 12, "tyid": "304001", "oid": "103:1571623888347", "color": "#0056E7" }, "geometry": { "type": "Point", "coordinates": [ -61.787109, 8.754795 ] } }
{ "type": "Feature", "tippecanoe": { "layer": "2AFCA0B346A01583916890516", "minzoom": 2, "maxzoom": 8 }, "properties": { "halo": 1.6, "title": "喀里多尼亚人", "fontsize": 12, "tyid": "304001", "oid": "103:1571623887820", "color": "#0056E7" }, "geometry": { "type": "Point", "coordinates": [ -4.042969, 56.992883 ] } }
{ "type": "Feature", "tippecanoe": { "layer": "2AFCA0B346A01583916890516", "minzoom": 2, "maxzoom": 8 }, "properties": { "halo": 1.6, "title": "盖尔人", "fontsize": 12, "tyid": "304001", "oid": "103:1571623888160", "color": "#0056E7" }, "geometry": { "type": "Point", "coordinates": [ -9.228516, 52.052490 ] } }
{ "type": "Feature", "tippecanoe": { "layer": "2AFCA0B346A01583916890516", "minzoom": 2, "maxzoom": 8 }, "properties": { "halo": 1.6, "title": "皮克特人", "fontsize": 12, "tyid": "304001", "oid": "103:1571623887657", "color": "#0056E7" }, "geometry": { "type": "Point", "coordinates": [ -4.130859, 55.379110 ] } }
{ "type": "Feature", "tippecanoe": { "layer": "2AFCA0B346A01583916890516", "minzoom": 2, "maxzoom": 8 }, "properties": { "halo": 1.8, "title": "古加纳王国", "fontsize": 12, "tyid": "304000", "oid": "103:1571623888361", "color": "#0056E7" }, "geometry": { "type": "Point", "coordinates": [ -7.646484, 15.876809 ] } }
{ "type": "Feature", "tippecanoe": { "layer": "2AFCA0B346A01583916890516", "minzoom": 2, "maxzoom": 8 }, "properties": { "halo": 1.6, "title": "杰内-杰诺文化三期", "fontsize": 12, "tyid": "304002", "oid": "103:1571623887768", "color": "#0056E7" }, "geometry": { "type": "Point", "coordinates": [ -5.537109, 14.264383 ] } }
{ "type": "Feature", "tippecanoe": { "layer": "2AFCA0B346A01583916890516", "minzoom": 2, "maxzoom": 8 }, "properties": { "halo": 1.6, "title": "楚真文化", "fontsize": 12, "tyid": "304002", "oid": "103:1571623888133", "color": "#0056E7" }, "geometry": { "type": "Point", "coordinates": [ -70.576172, -16.299051 ] } }
{ "type": "Feature", "tippecanoe": { "layer": "2AFCA0B346A01583916890516", "minzoom": 2, "maxzoom": 8 }, "properties": { "halo": 1.6, "title": "艾马拉人", "fontsize": 12, "tyid": "304001", "oid": "103:1571623887741", "color": "#0056E7" }, "geometry": { "type": "Point", "coordinates": [ -68.291016, -17.224758 ] } }
{ "type": "Feature", "tippecanoe": { "layer": "2AFCA0B346A01583916890516", "minzoom": 2, "maxzoom": 8 }, "properties": { "halo": 1.6, "title": "阿拉米托文化", "fontsize": 12, "tyid": "304002", "oid": "103:1571623888239", "color": "#0056E7" }, "geometry": { "type": "Point", "coordinates": [ -67.851562, -26.588527 ] } }
{ "type": "Feature", "tippecanoe": { "layer": "2AFCA0B346A01583916890516", "minzoom": 2, "maxzoom": 8 }, "properties": { "halo": 1.6, "title": "埃尔莫尔文化", "fontsize": 12, "tyid": "304002", "oid": "103:1571623888416", "color": "#0056E7" }, "geometry": { "type": "Point", "coordinates": [ -70.927734, -30.675715 ] } }
{ "type": "Feature", "tippecanoe": { "layer": "2AFCA0B346A01583916890516", "minzoom": 2, "maxzoom": 8 }, "properties": { "halo": 1.6, "title": "安西尔塔文化", "fontsize": 12, "tyid": "304002", "oid": "103:1571623887898", "color": "#0056E7" }, "geometry": { "type": "Point", "coordinates": [ -68.818359, -31.353637 ] } }
{ "type": "Feature", "tippecanoe": { "layer": "2AFCA0B346A01583916890516", "minzoom": 2, "maxzoom": 8 }, "properties": { "halo": 1.6, "title": "洛勒洛文化", "fontsize": 12, "tyid": "304002", "oid": "103:1571623887903", "color": "#0056E7" }, "geometry": { "type": "Point", "coordinates": [ -70.664062, -33.724340 ] } }
{ "type": "Feature", "tippecanoe": { "layer": "2AFCA0B346A01583916890516", "minzoom": 2, "maxzoom": 8 }, "properties": { "halo": 1.6, "title": "马普切人", "fontsize": 12, "tyid": "304001", "oid": "103:1571623887847", "color": "#0056E7" }, "geometry": { "type": "Point", "coordinates": [ -71.455078, -38.959409 ] } }
{ "type": "Feature", "tippecanoe": { "layer": "2AFCA0B346A01583916890516", "minzoom": 2, "maxzoom": 8 }, "properties": { "halo": 1.6, "title": "希德拉里卡文化", "fontsize": 12, "tyid": "304002", "oid": "103:1571623888108", "color": "#0056E7" }, "geometry": { "type": "Point", "coordinates": [ -66.005859, -12.297068 ] } }
{ "type": "Feature", "tippecanoe": { "layer": "2AFCA0B346A01583916890516", "minzoom": 2, "maxzoom": 8 }, "properties": { "halo": 1.6, "title": "摩克索人", "fontsize": 12, "tyid": "304001", "oid": "103:1571623888175", "color": "#0056E7" }, "geometry": { "type": "Point", "coordinates": [ -65.830078, -13.923404 ] } }
{ "type": "Feature", "tippecanoe": { "layer": "2AFCA0B346A01583916890516", "minzoom": 2, "maxzoom": 8 }, "properties": { "halo": 1.6, "title": "瓦卡拉尼文化", "fontsize": 12, "tyid": "304002", "oid": "103:1571623887872", "color": "#0056E7" }, "geometry": { "type": "Point", "coordinates": [ -64.951172, -17.811456 ] } }
{ "type": "Feature", "tippecanoe": { "layer": "2AFCA0B346A01583916890516", "minzoom": 2, "maxzoom": 8 }, "properties": { "halo": 1.6, "title": "拉坎德拉里亚文化", "fontsize": 12, "tyid": "304002", "oid": "103:1571623887885", "color": "#0056E7" }, "geometry": { "type": "Point", "coordinates": [ -65.390625, -25.720735 ] } }
{ "type": "Feature", "tippecanoe": { "layer": "2AFCA0B346A01583916890516", "minzoom": 2, "maxzoom": 8 }, "properties": { "halo": 1.6, "title": "康多拉瓦西文化", "fontsize": 12, "tyid": "304002", "oid": "103:1571623887673", "color": "#0056E7" }, "geometry": { "type": "Point", "coordinates": [ -66.708984, -27.293689 ] } }
{ "type": "Feature", "tippecanoe": { "layer": "2AFCA0B346A01583916890516", "minzoom": 2, "maxzoom": 8 }, "properties": { "halo": 1.6, "title": "拉斯梅塞德斯文化", "fontsize": 12, "tyid": "304002", "oid": "103:1571623888330", "color": "#0056E7" }, "geometry": { "type": "Point", "coordinates": [ -63.808594, -27.605671 ] } }
{ "type": "Feature", "tippecanoe": { "layer": "2AFCA0B346A01583916890516", "minzoom": 2, "maxzoom": 8 }, "properties": { "halo": 1.6, "title": "查鲁亚人", "fontsize": 12, "tyid": "304001", "oid": "103:1571623888318", "color": "#0056E7" }, "geometry": { "type": "Point", "coordinates": [ -57.128906, -32.398516 ] } }
{ "type": "Feature", "tippecanoe": { "layer": "2AFCA0B346A01583916890516", "minzoom": 2, "maxzoom": 8 }, "properties": { "halo": 1.6, "title": "特胡尔切人", "fontsize": 12, "tyid": "304001", "oid": "103:1571623887790", "color": "#0056E7" }, "geometry": { "type": "Point", "coordinates": [ -70.751953, -50.176898 ] } }
{ "type": "Feature", "tippecanoe": { "layer": "2AFCA0B346A01583916890516", "minzoom": 2, "maxzoom": 8 }, "properties": { "halo": 1.6, "title": "塞尔克南人", "fontsize": 12, "tyid": "304001", "oid": "103:1571623888026", "color": "#0056E7" }, "geometry": { "type": "Point", "coordinates": [ -68.378906, -53.696706 ] } }
{ "type": "Feature", "tippecanoe": { "layer": "2AFCA0B346A01583916890516", "minzoom": 2, "maxzoom": 8 }, "properties": { "halo": 1.6, "title": "雅干人", "fontsize": 12, "tyid": "304001", "oid": "103:1571623888307", "color": "#0056E7" }, "geometry": { "type": "Point", "coordinates": [ -68.554688, -54.521081 ] } }
{ "type": "Feature", "tippecanoe": { "layer": "2AFCA0B346A01583916890516", "minzoom": 2, "maxzoom": 8 }, "properties": { "halo": 1.6, "title": "朱特人", "fontsize": 12, "tyid": "304001", "oid": "103:1571623888012", "color": "#0056E7" }, "geometry": { "type": "Point", "coordinates": [ 9.316406, 56.267761 ] } }
{ "type": "Feature", "tippecanoe": { "layer": "2AFCA0B346A01583916890516", "minzoom": 2, "maxzoom": 8 }, "properties": { "halo": 1.6, "title": "耶阿特人", "fontsize": 12, "tyid": "304001", "oid": "103:1571623887878", "color": "#0056E7" }, "geometry": { "type": "Point", "coordinates": [ 13.710938, 57.657158 ] } }
{ "type": "Feature", "tippecanoe": { "layer": "2AFCA0B346A01583916890516", "minzoom": 2, "maxzoom": 8 }, "properties": { "halo": 1.6, "title": "赫鲁利人", "fontsize": 12, "tyid": "304001", "oid": "103:1571623887753", "color": "#0056E7" }, "geometry": { "type": "Point", "coordinates": [ 13.447266, 55.875311 ] } }
{ "type": "Feature", "tippecanoe": { "layer": "2AFCA0B346A01583916890516", "minzoom": 2, "maxzoom": 8 }, "properties": { "halo": 1.6, "title": "弗里西人", "fontsize": 12, "tyid": "304001", "oid": "103:1571623888103", "color": "#0056E7" }, "geometry": { "type": "Point", "coordinates": [ 6.240234, 52.696361 ] } }
{ "type": "Feature", "tippecanoe": { "layer": "2AFCA0B346A01583916890516", "minzoom": 2, "maxzoom": 8 }, "properties": { "halo": 1.6, "title": "萨克森人", "fontsize": 12, "tyid": "304001", "oid": "103:1571623888256", "color": "#0056E7" }, "geometry": { "type": "Point", "coordinates": [ 9.140625, 53.067627 ] } }
{ "type": "Feature", "tippecanoe": { "layer": "2AFCA0B346A01583916890516", "minzoom": 2, "maxzoom": 8 }, "properties": { "halo": 1.6, "title": "法兰克人", "fontsize": 12, "tyid": "304001", "oid": "103:1571623887700", "color": "#0056E7" }, "geometry": { "type": "Point", "coordinates": [ 7.822266, 50.958427 ] } }
{ "type": "Feature", "tippecanoe": { "layer": "2AFCA0B346A01583916890516", "minzoom": 2, "maxzoom": 8 }, "properties": { "halo": 1.6, "title": "阿勒曼尼人", "fontsize": 12, "tyid": "304001", "oid": "103:1571623887840", "color": "#0056E7" }, "geometry": { "type": "Point", "coordinates": [ 8.701172, 48.748945 ] } }
{ "type": "Feature", "tippecanoe": { "layer": "2AFCA0B346A01583916890516", "minzoom": 2, "maxzoom": 8 }, "properties": { "halo": 1.6, "title": "鲁基人", "fontsize": 12, "tyid": "304001", "oid": "103:1571623887946", "color": "#0056E7" }, "geometry": { "type": "Point", "coordinates": [ 16.611328, 53.748711 ] } }
{ "type": "Feature", "tippecanoe": { "layer": "2AFCA0B346A01583916890516", "minzoom": 2, "maxzoom": 8 }, "properties": { "halo": 1.6, "title": "赫门杜里人", "fontsize": 12, "tyid": "304001", "oid": "103:1571623887688", "color": "#0056E7" }, "geometry": { "type": "Point", "coordinates": [ 12.128906, 50.847573 ] } }
{ "type": "Feature", "tippecanoe": { "layer": "2AFCA0B346A01583916890516", "minzoom": 2, "maxzoom": 8 }, "properties": { "halo": 1.6, "title": "伦巴第人", "fontsize": 12, "tyid": "304001", "oid": "103:1571623887695", "color": "#0056E7" }, "geometry": { "type": "Point", "coordinates": [ 13.095703, 52.160455 ] } }
{ "type": "Feature", "tippecanoe": { "layer": "2AFCA0B346A01583916890516", "minzoom": 2, "maxzoom": 8 }, "properties": { "halo": 1.6, "title": "马科曼尼人", "fontsize": 12, "tyid": "304001", "oid": "103:1571623887693", "color": "#0056E7" }, "geometry": { "type": "Point", "coordinates": [ 14.501953, 49.610710 ] } }
{ "type": "Feature", "tippecanoe": { "layer": "2AFCA0B346A01583916890516", "minzoom": 2, "maxzoom": 8 }, "properties": { "halo": 1.6, "title": "古普鲁士人", "fontsize": 12, "tyid": "304001", "oid": "103:1571623887905", "color": "#0056E7" }, "geometry": { "type": "Point", "coordinates": [ 20.390625, 54.110943 ] } }
{ "type": "Feature", "tippecanoe": { "layer": "2AFCA0B346A01583916890516", "minzoom": 2, "maxzoom": 8 }, "properties": { "halo": 1.6, "title": "汪达尔人", "fontsize": 12, "tyid": "304001", "oid": "103:1571623888248", "color": "#0056E7" }, "geometry": { "type": "Point", "coordinates": [ 17.050781, 51.344339 ] } }
{ "type": "Feature", "tippecanoe": { "layer": "2AFCA0B346A01583916890516", "minzoom": 2, "maxzoom": 8 }, "properties": { "halo": 1.6, "title": "西里人", "fontsize": 12, "tyid": "304001", "oid": "103:1571623887861", "color": "#0056E7" }, "geometry": { "type": "Point", "coordinates": [ 21.357422, 49.553726 ] } }
{ "type": "Feature", "tippecanoe": { "layer": "2AFCA0B346A01583916890516", "minzoom": 2, "maxzoom": 8 }, "properties": { "halo": 1.6, "title": "夸迪人", "fontsize": 12, "tyid": "304001", "oid": "103:1571623887931", "color": "#0056E7" }, "geometry": { "type": "Point", "coordinates": [ 18.369141, 48.864715 ] } }
{ "type": "Feature", "tippecanoe": { "layer": "2AFCA0B346A01583916890516", "minzoom": 2, "maxzoom": 8 }, "properties": { "halo": 1.6, "title": "埃阿热格人", "fontsize": 12, "tyid": "304001", "oid": "103:1571623888042", "color": "#0056E7" }, "geometry": { "type": "Point", "coordinates": [ 20.478516, 46.800059 ] } }
{ "type": "Feature", "tippecanoe": { "layer": "2AFCA0B346A01583916890516", "minzoom": 2, "maxzoom": 8 }, "properties": { "halo": 1.6, "title": "古爱沙尼亚人", "fontsize": 12, "tyid": "304001", "oid": "103:1571623888321", "color": "#0056E7" }, "geometry": { "type": "Point", "coordinates": [ 25.576172, 58.995311 ] } }
{ "type": "Feature", "tippecanoe": { "layer": "2AFCA0B346A01583916890516", "minzoom": 2, "maxzoom": 8 }, "properties": { "halo": 1.6, "title": "利沃尼亚人", "fontsize": 12, "tyid": "304001", "oid": "103:1571623887875", "color": "#0056E7" }, "geometry": { "type": "Point", "coordinates": [ 26.191406, 58.077876 ] } }
{ "type": "Feature", "tippecanoe": { "layer": "2AFCA0B346A01583916890516", "minzoom": 2, "maxzoom": 8 }, "properties": { "halo": 1.6, "title": "古拉脱维亚人", "fontsize": 12, "tyid": "304001", "oid": "103:1571623887646", "color": "#0056E7" }, "geometry": { "type": "Point", "coordinates": [ 26.542969, 56.944974 ] } }
{ "type": "Feature", "tippecanoe": { "layer": "2AFCA0B346A01583916890516", "minzoom": 2, "maxzoom": 8 }, "properties": { "halo": 1.6, "title": "沃茨人", "fontsize": 12, "tyid": "304001", "oid": "103:1571623887773", "color": "#0056E7" }, "geometry": { "type": "Point", "coordinates": [ 29.794922, 59.040555 ] } }
{ "type": "Feature", "tippecanoe": { "layer": "2AFCA0B346A01583916890516", "minzoom": 2, "maxzoom": 8 }, "properties": { "halo": 1.6, "title": "古立陶宛人", "fontsize": 12, "tyid": "304001", "oid": "103:1571623887854", "color": "#0056E7" }, "geometry": { "type": "Point", "coordinates": [ 25.048828, 54.673831 ] } }
{ "type": "Feature", "tippecanoe": { "layer": "2AFCA0B346A01583916890516", "minzoom": 2, "maxzoom": 8 }, "properties": { "halo": 1.6, "title": "约特文基人", "fontsize": 12, "tyid": "304001", "oid": "103:1571623888093", "color": "#0056E7" }, "geometry": { "type": "Point", "coordinates": [ 23.027344, 53.956086 ] } }
{ "type": "Feature", "tippecanoe": { "layer": "2AFCA0B346A01583916890516", "minzoom": 2, "maxzoom": 8 }, "properties": { "halo": 1.6, "title": "格皮德人", "fontsize": 12, "tyid": "304001", "oid": "103:1571623887940", "color": "#0056E7" }, "geometry": { "type": "Point", "coordinates": [ 22.763672, 46.073231 ] } }
{ "type": "Feature", "tippecanoe": { "layer": "2AFCA0B346A01583916890516", "minzoom": 2, "maxzoom": 8 }, "properties": { "halo": 1.6, "title": "罗克索拉尼人", "fontsize": 12, "tyid": "304001", "oid": "103:1571623888088", "color": "#0056E7" }, "geometry": { "type": "Point", "coordinates": [ 24.697266, 46.437857 ] } }
{ "type": "Feature", "tippecanoe": { "layer": "2AFCA0B346A01583916890516", "minzoom": 2, "maxzoom": 8 }, "properties": { "halo": 1.6, "title": "达契亚人", "fontsize": 12, "tyid": "304001", "oid": "103:1571623888234", "color": "#0056E7" }, "geometry": { "type": "Point", "coordinates": [ 25.839844, 46.437857 ] } }
{ "type": "Feature", "tippecanoe": { "layer": "2AFCA0B346A01583916890516", "minzoom": 2, "maxzoom": 8 }, "properties": { "halo": 1.6, "title": "泰法尔人", "fontsize": 12, "tyid": "304001", "oid": "103:1571623887639", "color": "#0056E7" }, "geometry": { "type": "Point", "coordinates": [ 23.554688, 44.590467 ] } }
{ "type": "Feature", "tippecanoe": { "layer": "2AFCA0B346A01583916890516", "minzoom": 2, "maxzoom": 8 }, "properties": { "halo": 1.6, "title": "西哥特人", "fontsize": 12, "tyid": "304001", "oid": "103:1571623887649", "color": "#0056E7" }, "geometry": { "type": "Point", "coordinates": [ 25.664062, 44.527843 ] } }
{ "type": "Feature", "tippecanoe": { "layer": "2AFCA0B346A01583916890516", "minzoom": 2, "maxzoom": 8 }, "properties": { "halo": 1.6, "title": "东加林迪亚人", "fontsize": 12, "tyid": "304001", "oid": "103:1571623888086", "color": "#0056E7" }, "geometry": { "type": "Point", "coordinates": [ 34.980469, 55.329144 ] } }
{ "type": "Feature", "tippecanoe": { "layer": "2AFCA0B346A01583916890516", "minzoom": 2, "maxzoom": 8 }, "properties": { "halo": 1.6, "title": "克里米亚哥特人", "fontsize": 12, "tyid": "304001", "oid": "103:1571623888081", "color": "#0056E7" }, "geometry": { "type": "Point", "coordinates": [ 34.013672, 46.255847 ] } }
{ "type": "Feature", "tippecanoe": { "layer": "2AFCA0B346A01583916890516", "minzoom": 2, "maxzoom": 8 }, "properties": { "halo": 1.8, "title": "博斯普鲁斯王国", "fontsize": 12, "tyid": "304000", "oid": "103:1571623888435", "color": "#0056E7" }, "geometry": { "type": "Point", "coordinates": [ 37.792969, 45.274886 ] } }
{ "type": "Feature", "tippecanoe": { "layer": "2AFCA0B346A01583916890516", "minzoom": 2, "maxzoom": 8 }, "properties": { "halo": 1.6, "title": "切尔克斯人", "fontsize": 12, "tyid": "304001", "oid": "103:1571623887981", "color": "#0056E7" }, "geometry": { "type": "Point", "coordinates": [ 41.748047, 43.771094 ] } }
{ "type": "Feature", "tippecanoe": { "layer": "2AFCA0B346A01583916890516", "minzoom": 2, "maxzoom": 8 }, "properties": { "halo": 1.8, "title": "拉基卡王国", "fontsize": 12, "tyid": "304000", "oid": "103:1571623888460", "color": "#0056E7" }, "geometry": { "type": "Point", "coordinates": [ 42.363281, 42.423457 ] } }
{ "type": "Feature", "tippecanoe": { "layer": "2AFCA0B346A01583916890516", "minzoom": 2, "maxzoom": 8 }, "properties": { "halo": 1.8, "title": "高加索伊比利亚王国", "fontsize": 12, "tyid": "304000", "oid": "103:1571623888446", "color": "#0056E7" }, "geometry": { "type": "Point", "coordinates": [ 44.384766, 42.098222 ] } }
{ "type": "Feature", "tippecanoe": { "layer": "2AFCA0B346A01583916890516", "minzoom": 2, "maxzoom": 8 }, "properties": { "halo": 1.6, "title": "拉古阿坦部落联盟", "fontsize": 12, "tyid": "304001", "oid": "103:1571623887972", "color": "#0056E7" }, "geometry": { "type": "Point", "coordinates": [ 21.357422, 32.026706 ] } }
{ "type": "Feature", "tippecanoe": { "layer": "2AFCA0B346A01583916890516", "minzoom": 2, "maxzoom": 8 }, "properties": { "halo": 1.8, "title": "加拉曼特王国", "fontsize": 12, "tyid": "304000", "oid": "103:1571623887751", "color": "#0056E7" }, "geometry": { "type": "Point", "coordinates": [ 13.886719, 26.902477 ] } }
{ "type": "Feature", "tippecanoe": { "layer": "2AFCA0B346A01583916890516", "minzoom": 2, "maxzoom": 8 }, "properties": { "halo": 1.6, "title": "约鲁巴人", "fontsize": 12, "tyid": "304001", "oid": "103:1571623887643", "color": "#0056E7" }, "geometry": { "type": "Point", "coordinates": [ 3.427734, 7.536764 ] } }
{ "type": "Feature", "tippecanoe": { "layer": "2AFCA0B346A01583916890516", "minzoom": 2, "maxzoom": 8 }, "properties": { "halo": 1.6, "title": "伊博人", "fontsize": 12, "tyid": "304001", "oid": "103:1571623888068", "color": "#0056E7" }, "geometry": { "type": "Point", "coordinates": [ 9.492188, 5.878332 ] } }
{ "type": "Feature", "tippecanoe": { "layer": "2AFCA0B346A01583916890516", "minzoom": 2, "maxzoom": 8 }, "properties": { "halo": 1.8, "title": "奥邦奥孔伊塔王国", "fontsize": 12, "tyid": "304000", "oid": "103:1571623888354", "color": "#0056E7" }, "geometry": { "type": "Point", "coordinates": [ 7.558594, 5.441022 ] } }
{ "type": "Feature", "tippecanoe": { "layer": "2AFCA0B346A01583916890516", "minzoom": 2, "maxzoom": 8 }, "properties": { "halo": 1.6, "title": "阿兹贾夫纳部落", "fontsize": 12, "tyid": "304001", "oid": "103:1571623887822", "color": "#0056E7" }, "geometry": { "type": "Point", "coordinates": [ 39.550781, 32.768800 ] } }
{ "type": "Feature", "tippecanoe": { "layer": "2AFCA0B346A01583916890516", "minzoom": 2, "maxzoom": 8 }, "properties": { "halo": 1.6, "title": "赛莫德人", "fontsize": 12, "tyid": "304001", "oid": "103:1571623887995", "color": "#0056E7" }, "geometry": { "type": "Point", "coordinates": [ 39.462891, 25.641526 ] } }
{ "type": "Feature", "tippecanoe": { "layer": "2AFCA0B346A01583916890516", "minzoom": 2, "maxzoom": 8 }, "properties": { "halo": 1.8, "title": "库施王国", "fontsize": 12, "tyid": "304000", "oid": "103:1571623888284", "color": "#0056E7" }, "geometry": { "type": "Point", "coordinates": [ 32.958984, 17.476432 ] } }
{ "type": "Feature", "tippecanoe": { "layer": "2AFCA0B346A01583916890516", "minzoom": 2, "maxzoom": 8 }, "properties": { "halo": 1.6, "title": "布雷米耶国", "fontsize": 12, "tyid": "304001", "oid": "103:1571623887683", "color": "#0056E7" }, "geometry": { "type": "Point", "coordinates": [ 34.980469, 21.371244 ] } }
{ "type": "Feature", "tippecanoe": { "layer": "2AFCA0B346A01583916890516", "minzoom": 2, "maxzoom": 8 }, "properties": { "halo": 1.6, "title": "贝扎人", "fontsize": 12, "tyid": "304001", "oid": "103:1571623887680", "color": "#0056E7" }, "geometry": { "type": "Point", "coordinates": [ 35.244141, 16.299051 ] } }
{ "type": "Feature", "tippecanoe": { "layer": "2AFCA0B346A01583916890516", "minzoom": 2, "maxzoom": 8 }, "properties": { "halo": 1.6, "title": "马祖宁文化", "fontsize": 12, "tyid": "304002", "oid": "103:1571623887943", "color": "#0056E7" }, "geometry": { "type": "Point", "coordinates": [ 50.800781, 55.379110 ] } }
{ "type": "Feature", "tippecanoe": { "layer": "2AFCA0B346A01583916890516", "minzoom": 2, "maxzoom": 8 }, "properties": { "halo": 1.6, "title": "纳赫人", "fontsize": 12, "tyid": "304001", "oid": "103:1571623887660", "color": "#0056E7" }, "geometry": { "type": "Point", "coordinates": [ 45.878906, 42.875964 ] } }
{ "type": "Feature", "tippecanoe": { "layer": "2AFCA0B346A01583916890516", "minzoom": 2, "maxzoom": 8 }, "properties": { "halo": 1.6, "title": "巴赫穆廷诺文化", "fontsize": 12, "tyid": "304002", "oid": "103:1571623887927", "color": "#0056E7" }, "geometry": { "type": "Point", "coordinates": [ 56.513672, 53.330873 ] } }
{ "type": "Feature", "tippecanoe": { "layer": "2AFCA0B346A01583916890516", "minzoom": 2, "maxzoom": 8 }, "properties": { "halo": 1.8, "title": "阿夫里格王朝", "fontsize": 12, "tyid": "304000", "oid": "103:1571623888451", "color": "#0056E7" }, "geometry": { "type": "Point", "coordinates": [ 59.765625, 42.488302 ] } }
{ "type": "Feature", "tippecanoe": { "layer": "2AFCA0B346A01583916890516", "minzoom": 2, "maxzoom": 8 }, "properties": { "halo": 1.8, "title": "乌孙国", "fontsize": 12, "tyid": "304000", "oid": "103:1571623888298", "color": "#0056E7" }, "geometry": { "type": "Point", "coordinates": [ 80.068359, 42.358544 ] } }
{ "type": "Feature", "tippecanoe": { "layer": "2AFCA0B346A01583916890516", "minzoom": 2, "maxzoom": 8 }, "properties": { "halo": 1.8, "title": "车师前国", "fontsize": 12, "tyid": "304000", "oid": "103:1571623888442", "color": "#0056E7" }, "geometry": { "type": "Point", "coordinates": [ 88.593750, 44.276671 ] } }
{ "type": "Feature", "tippecanoe": { "layer": "2AFCA0B346A01583916890516", "minzoom": 2, "maxzoom": 8 }, "properties": { "halo": 1.8, "title": "焉耆国", "fontsize": 12, "tyid": "304000", "oid": "103:1571623888465", "color": "#0056E7" }, "geometry": { "type": "Point", "coordinates": [ 87.451172, 41.705729 ] } }
{ "type": "Feature", "tippecanoe": { "layer": "2AFCA0B346A01583916890516", "minzoom": 2, "maxzoom": 8 }, "properties": { "halo": 1.8, "title": "高加索阿尔巴尼亚王国", "fontsize": 12, "tyid": "304000", "oid": "103:1571623888438", "color": "#0056E7" }, "geometry": { "type": "Point", "coordinates": [ 46.845703, 40.647304 ] } }
{ "type": "Feature", "tippecanoe": { "layer": "2AFCA0B346A01583916890516", "minzoom": 2, "maxzoom": 8 }, "properties": { "halo": 1.8, "title": "卡尤王国", "fontsize": 12, "tyid": "304000", "oid": "103:1576922390402", "color": "#0056E7" }, "geometry": { "type": "Point", "coordinates": [ 45.439453, 35.029996 ] } }
{ "type": "Feature", "tippecanoe": { "layer": "2AFCA0B346A01583916890516", "minzoom": 2, "maxzoom": 8 }, "properties": { "halo": 1.6, "title": "阿兹达巴部落", "fontsize": 12, "tyid": "304001", "oid": "103:1571623888047", "color": "#0056E7" }, "geometry": { "type": "Point", "coordinates": [ 63.105469, 25.641526 ] } }
{ "type": "Feature", "tippecanoe": { "layer": "2AFCA0B346A01583916890516", "minzoom": 2, "maxzoom": 8 }, "properties": { "halo": 1.8, "title": "阿德王国", "fontsize": 12, "tyid": "304000", "oid": "103:1571623887702", "color": "#0056E7" }, "geometry": { "type": "Point", "coordinates": [ 52.470703, 19.228177 ] } }
{ "type": "Feature", "tippecanoe": { "layer": "2AFCA0B346A01583916890516", "minzoom": 2, "maxzoom": 8 }, "properties": { "halo": 1.8, "title": "大宛国", "fontsize": 12, "tyid": "304000", "oid": "103:1571623888349", "color": "#0056E7" }, "geometry": { "type": "Point", "coordinates": [ 72.070312, 40.913513 ] } }
{ "type": "Feature", "tippecanoe": { "layer": "2AFCA0B346A01583916890516", "minzoom": 2, "maxzoom": 8 }, "properties": { "halo": 1.8, "title": "疏勒国", "fontsize": 12, "tyid": "304000", "oid": "103:1571623888455", "color": "#0056E7" }, "geometry": { "type": "Point", "coordinates": [ 74.003906, 38.754083 ] } }
{ "type": "Feature", "tippecanoe": { "layer": "2AFCA0B346A01583916890516", "minzoom": 2, "maxzoom": 8 }, "properties": { "halo": 1.6, "title": "摩腊婆人", "fontsize": 12, "tyid": "304001", "oid": "103:1571623888393", "color": "#0056E7" }, "geometry": { "type": "Point", "coordinates": [ 73.476562, 25.799891 ] } }
{ "type": "Feature", "tippecanoe": { "layer": "2AFCA0B346A01583916890516", "minzoom": 2, "maxzoom": 8 }, "properties": { "halo": 1.8, "title": "巴什瓦王朝", "fontsize": 12, "tyid": "304000", "oid": "103:1571623887627", "color": "#0056E7" }, "geometry": { "type": "Point", "coordinates": [ 77.871094, 24.846565 ] } }
{ "type": "Feature", "tippecanoe": { "layer": "2AFCA0B346A01583916890516", "minzoom": 2, "maxzoom": 8 }, "properties": { "halo": 1.8, "title": "龟兹国", "fontsize": 12, "tyid": "304000", "oid": "103:1571623888467", "color": "#0056E7" }, "geometry": { "type": "Point", "coordinates": [ 81.035156, 40.913513 ] } }
{ "type": "Feature", "tippecanoe": { "layer": "2AFCA0B346A01583916890516", "minzoom": 2, "maxzoom": 8 }, "properties": { "halo": 1.8, "title": "般遮罗国", "fontsize": 12, "tyid": "304000", "oid": "103:1571623887925", "color": "#0056E7" }, "geometry": { "type": "Point", "coordinates": [ 79.541016, 28.690588 ] } }
{ "type": "Feature", "tippecanoe": { "layer": "2AFCA0B346A01583916890516", "minzoom": 2, "maxzoom": 8 }, "properties": { "halo": 1.8, "title": "克拉底王国", "fontsize": 12, "tyid": "304000", "oid": "103:1571623887685", "color": "#0056E7" }, "geometry": { "type": "Point", "coordinates": [ 84.199219, 28.071980 ] } }
{ "type": "Feature", "tippecanoe": { "layer": "2AFCA0B346A01583916890516", "minzoom": 2, "maxzoom": 8 }, "properties": { "halo": 1.8, "title": "耽摩栗底国", "fontsize": 12, "tyid": "304000", "oid": "103:1571623888433", "color": "#0056E7" }, "geometry": { "type": "Point", "coordinates": [ 88.593750, 22.593726 ] } }
{ "type": "Feature", "tippecanoe": { "layer": "2AFCA0B346A01583916890516", "minzoom": 2, "maxzoom": 8 }, "properties": { "halo": 1.8, "title": "楚图王朝", "fontsize": 12, "tyid": "304000", "oid": "103:1571623887629", "color": "#0056E7" }, "geometry": { "type": "Point", "coordinates": [ 75.849609, 14.944785 ] } }
{ "type": "Feature", "tippecanoe": { "layer": "2AFCA0B346A01583916890516", "minzoom": 2, "maxzoom": 8 }, "properties": { "halo": 1.8, "title": "帕拉瓦王朝", "fontsize": 12, "tyid": "304000", "oid": "103:1571623888219", "color": "#0056E7" }, "geometry": { "type": "Point", "coordinates": [ 78.662109, 13.923404 ] } }
{ "type": "Feature", "tippecanoe": { "layer": "2AFCA0B346A01583916890516", "minzoom": 2, "maxzoom": 8 }, "properties": { "halo": 1.8, "title": "卡拉波拉王朝", "fontsize": 12, "tyid": "304000", "oid": "103:1571623888077", "color": "#0056E7" }, "geometry": { "type": "Point", "coordinates": [ 77.783203, 10.833306 ] } }
{ "type": "Feature", "tippecanoe": { "layer": "2AFCA0B346A01583916890516", "minzoom": 2, "maxzoom": 8 }, "properties": { "halo": 1.8, "title": "质多王朝", "fontsize": 12, "tyid": "304000", "oid": "103:1571623888197", "color": "#0056E7" }, "geometry": { "type": "Point", "coordinates": [ 84.375000, 20.385825 ] } }
{ "type": "Feature", "tippecanoe": { "layer": "2AFCA0B346A01583916890516", "minzoom": 2, "maxzoom": 8 }, "properties": { "halo": 1.8, "title": "阿努拉德普勒王国", "fontsize": 12, "tyid": "304000", "oid": "103:1571623888120", "color": "#0056E7" }, "geometry": { "type": "Point", "coordinates": [ 80.683594, 7.623887 ] } }
{ "type": "Feature", "tippecanoe": { "layer": "2AFCA0B346A01583916890516", "minzoom": 2, "maxzoom": 8 }, "properties": { "halo": 1.6, "title": "北沃沮", "fontsize": 12, "tyid": "304001", "oid": "103:1571623888368", "color": "#0056E7" }, "geometry": { "type": "Point", "coordinates": [ 128.935547, 41.967659 ] } }
{ "type": "Feature", "tippecanoe": { "layer": "2AFCA0B346A01583916890516", "minzoom": 2, "maxzoom": 8 }, "properties": { "halo": 1.8, "title": "白兰国", "fontsize": 12, "tyid": "304000", "oid": "103:1571623888039", "color": "#0056E7" }, "geometry": { "type": "Point", "coordinates": [ 98.261719, 34.524661 ] } }
{ "type": "Feature", "tippecanoe": { "layer": "2AFCA0B346A01583916890516", "minzoom": 2, "maxzoom": 8 }, "properties": { "halo": 1.8, "title": "波缪王朝", "fontsize": 12, "tyid": "304000", "oid": "103:1571623888326", "color": "#0056E7" }, "geometry": { "type": "Point", "coordinates": [ 92.724609, 25.958045 ] } }
{ "type": "Feature", "tippecanoe": { "layer": "2AFCA0B346A01583916890516", "minzoom": 2, "maxzoom": 8 }, "properties": { "halo": 1.8, "title": "三摩呾吒国", "fontsize": 12, "tyid": "304000", "oid": "103:1571623887816", "color": "#0056E7" }, "geometry": { "type": "Point", "coordinates": [ 91.054688, 23.725012 ] } }
{ "type": "Feature", "tippecanoe": { "layer": "2AFCA0B346A01583916890516", "minzoom": 2, "maxzoom": 8 }, "properties": { "halo": 1.8, "title": "古曼尼普尔王国", "fontsize": 12, "tyid": "304000", "oid": "103:1571623888072", "color": "#0056E7" }, "geometry": { "type": "Point", "coordinates": [ 93.867188, 24.766785 ] } }
{ "type": "Feature", "tippecanoe": { "layer": "2AFCA0B346A01583916890516", "minzoom": 2, "maxzoom": 8 }, "properties": { "halo": 1.6, "title": "附国", "fontsize": 12, "tyid": "304001", "oid": "103:1571623888253", "color": "#0056E7" }, "geometry": { "type": "Point", "coordinates": [ 100.283203, 31.802893 ] } }
{ "type": "Feature", "tippecanoe": { "layer": "2AFCA0B346A01583916890516", "minzoom": 2, "maxzoom": 8 }, "properties": { "halo": 1.8, "title": "吐谷浑", "fontsize": 12, "tyid": "304000", "oid": "103:1571623888036", "color": "#0056E7" }, "geometry": { "type": "Point", "coordinates": [ 102.041016, 34.234512 ] } }
{ "type": "Feature", "tippecanoe": { "layer": "2AFCA0B346A01583916890516", "minzoom": 2, "maxzoom": 8 }, "properties": { "halo": 1.6, "title": "司马保", "fontsize": 12, "tyid": "304002", "oid": "103:1571623887719", "color": "#0056E7" }, "geometry": { "type": "Point", "coordinates": [ 105.468750, 35.317366 ] } }
{ "type": "Feature", "tippecanoe": { "layer": "2AFCA0B346A01583916890516", "minzoom": 2, "maxzoom": 8 }, "properties": { "halo": 1.8, "title": "前仇池", "fontsize": 12, "tyid": "304000", "oid": "103:1571623887721", "color": "#0056E7" }, "geometry": { "type": "Point", "coordinates": [ 104.765625, 33.578015 ] } }
{ "type": "Feature", "tippecanoe": { "layer": "2AFCA0B346A01583916890516", "minzoom": 2, "maxzoom": 8 }, "properties": { "halo": 1.8, "title": "汉赵", "fontsize": 12, "tyid": "304000", "oid": "103:1571623887729", "color": "#0056E7" }, "geometry": { "type": "Point", "coordinates": [ 109.511719, 34.669359 ] } }
{ "type": "Feature", "tippecanoe": { "layer": "2AFCA0B346A01583916890516", "minzoom": 2, "maxzoom": 8 }, "properties": { "halo": 1.8, "title": "达雅瓦底王国", "fontsize": 12, "tyid": "304000", "oid": "103:1571623888182", "color": "#0056E7" }, "geometry": { "type": "Point", "coordinates": [ 93.339844, 20.550509 ] } }
{ "type": "Feature", "tippecanoe": { "layer": "2AFCA0B346A01583916890516", "minzoom": 2, "maxzoom": 8 }, "properties": { "halo": 1.8, "title": "骠国", "fontsize": 12, "tyid": "304000", "oid": "103:1571623887615", "color": "#0056E7" }, "geometry": { "type": "Point", "coordinates": [ 95.888672, 21.125498 ] } }
{ "type": "Feature", "tippecanoe": { "layer": "2AFCA0B346A01583916890516", "minzoom": 2, "maxzoom": 8 }, "properties": { "halo": 1.8, "title": "直通王国", "fontsize": 12, "tyid": "304000", "oid": "103:1571623887617", "color": "#0056E7" }, "geometry": { "type": "Point", "coordinates": [ 96.152344, 17.140790 ] } }
{ "type": "Feature", "tippecanoe": { "layer": "2AFCA0B346A01583916890516", "minzoom": 2, "maxzoom": 8 }, "properties": { "halo": 1.8, "title": "盘盘国", "fontsize": 12, "tyid": "304000", "oid": "103:1571623887784", "color": "#0056E7" }, "geometry": { "type": "Point", "coordinates": [ 99.404297, 8.581021 ] } }
{ "type": "Feature", "tippecanoe": { "layer": "2AFCA0B346A01583916890516", "minzoom": 2, "maxzoom": 8 }, "properties": { "halo": 1.8, "title": "林邑国", "fontsize": 12, "tyid": "304000", "oid": "103:1571623887970", "color": "#0056E7" }, "geometry": { "type": "Point", "coordinates": [ 108.632812, 14.434680 ] } }
{ "type": "Feature", "tippecanoe": { "layer": "2AFCA0B346A01583916890516", "minzoom": 2, "maxzoom": 8 }, "properties": { "halo": 1.8, "title": "赤土国", "fontsize": 12, "tyid": "304000", "oid": "103:1571623888251", "color": "#0056E7" }, "geometry": { "type": "Point", "coordinates": [ 102.128906, 5.441022 ] } }
{ "type": "Feature", "tippecanoe": { "layer": "2AFCA0B346A01583916890516", "minzoom": 2, "maxzoom": 8 }, "properties": { "halo": 1.8, "title": "辽西国", "fontsize": 12, "tyid": "304000", "oid": "103:1571623888290", "color": "#0056E7" }, "geometry": { "type": "Point", "coordinates": [ 118.300781, 39.977120 ] } }
{ "type": "Feature", "tippecanoe": { "layer": "2AFCA0B346A01583916890516", "minzoom": 2, "maxzoom": 8 }, "properties": { "halo": 1.8, "title": "曹嶷", "fontsize": 12, "tyid": "304000", "oid": "103:1571623887727", "color": "#0056E7" }, "geometry": { "type": "Point", "coordinates": [ 119.355469, 36.527295 ] } }
{ "type": "Feature", "tippecanoe": { "layer": "2AFCA0B346A01583916890516", "minzoom": 2, "maxzoom": 8 }, "properties": { "halo": 1.8, "title": "高句丽", "fontsize": 12, "tyid": "304000", "oid": "103:1571623887958", "color": "#0056E7" }, "geometry": { "type": "Point", "coordinates": [ 126.562500, 39.909736 ] } }
{ "type": "Feature", "tippecanoe": { "layer": "2AFCA0B346A01583916890516", "minzoom": 2, "maxzoom": 8 }, "properties": { "halo": 1.8, "title": "百济", "fontsize": 12, "tyid": "304000", "oid": "103:1571623887952", "color": "#0056E7" }, "geometry": { "type": "Point", "coordinates": [ 127.529297, 36.527295 ] } }
{ "type": "Feature", "tippecanoe": { "layer": "2AFCA0B346A01583916890516", "minzoom": 2, "maxzoom": 8 }, "properties": { "halo": 1.6, "title": "辰韩", "fontsize": 12, "tyid": "304001", "oid": "103:1571623887667", "color": "#0056E7" }, "geometry": { "type": "Point", "coordinates": [ 128.759766, 36.315125 ] } }
{ "type": "Feature", "tippecanoe": { "layer": "2AFCA0B346A01583916890516", "minzoom": 2, "maxzoom": 8 }, "properties": { "halo": 1.6, "title": "绳文人", "fontsize": 12, "tyid": "304001", "oid": "103:1571623888335", "color": "#0056E7" }, "geometry": { "type": "Point", "coordinates": [ 142.558594, 43.389082 ] } }
{ "type": "Feature", "tippecanoe": { "layer": "2AFCA0B346A01583916890516", "minzoom": 2, "maxzoom": 8 }, "properties": { "halo": 1.6, "title": "乌莱维文明", "fontsize": 12, "tyid": "304002", "oid": "103:1571623888221", "color": "#0056E7" }, "geometry": { "type": "Point", "coordinates": [ 29.882812, -2.547988 ] } }
{ "type": "Feature", "tippecanoe": { "layer": "2AFCA0B346A01583916890516", "minzoom": 2, "maxzoom": 8 }, "properties": { "halo": 1.6, "title": "艾布兰文化五期", "fontsize": 12, "tyid": "304002", "oid": "103:1571623888170", "color": "#0056E7" }, "geometry": { "type": "Point", "coordinates": [ 36.474609, -0.175781 ] } }
{ "type": "Feature", "tippecanoe": { "layer": "2AFCA0B346A01583916890516", "minzoom": 2, "maxzoom": 8 }, "properties": { "halo": 1.8, "title": "挲叻珂奴葛逻王国", "fontsize": 12, "tyid": "304000", "oid": "103:1571623888366", "color": "#0056E7" }, "geometry": { "type": "Point", "coordinates": [ 107.226562, -6.751896 ] } }
{ "type": "Feature", "tippecanoe": { "layer": "2AFCA0B346A01583916890516", "minzoom": 2, "maxzoom": 8 }, "properties": { "halo": 1.6, "title": "巴拉瓦人", "fontsize": 12, "tyid": "304001", "oid": "103:1571623888180", "color": "#0056E7" }, "geometry": { "type": "Point", "coordinates": [ 146.513672, -41.967659 ] } }
{ "type": "Feature", "tippecanoe": { "layer": "2AFCA0D6C9081583916890507", "minzoom": 2, "maxzoom": 8 }, "properties": { "halo": 0.8, "title": "图勒人", "fontsize": 12, "tyid": "304001", "oid": "103:1571623888199", "color": "#262626" }, "geometry": { "type": "Point", "coordinates": [ -130.781250, 68.942607 ] } }
{ "type": "Feature", "tippecanoe": { "layer": "2AFCA0D6C9081583916890507", "minzoom": 2, "maxzoom": 8 }, "properties": { "halo": 0.8, "title": "诺顿文化", "fontsize": 12, "tyid": "304002", "oid": "103:1571623888186", "color": "#262626" }, "geometry": { "type": "Point", "coordinates": [ -163.740234, 65.330178 ] } }
{ "type": "Feature", "tippecanoe": { "layer": "2AFCA0D6C9081583916890507", "minzoom": 2, "maxzoom": 8 }, "properties": { "halo": 0.8, "title": "尤皮克人", "fontsize": 12, "tyid": "304001", "oid": "103:1571623887796", "color": "#262626" }, "geometry": { "type": "Point", "coordinates": [ -159.169922, 60.630102 ] } }
{ "type": "Feature", "tippecanoe": { "layer": "2AFCA0D6C9081583916890507", "minzoom": 2, "maxzoom": 8 }, "properties": { "halo": 0.8, "title": "因纽皮雅特人", "fontsize": 12, "tyid": "304001", "oid": "103:1571623888323", "color": "#262626" }, "geometry": { "type": "Point", "coordinates": [ -150.908203, 65.476508 ] } }
{ "type": "Feature", "tippecanoe": { "layer": "2AFCA0D6C9081583916890507", "minzoom": 2, "maxzoom": 8 }, "properties": { "halo": 0.8, "title": "阿留申人", "fontsize": 12, "tyid": "304001", "oid": "103:1571623888146", "color": "#262626" }, "geometry": { "type": "Point", "coordinates": [ -152.226562, 61.312452 ] } }
{ "type": "Feature", "tippecanoe": { "layer": "2AFCA0D6C9081583916890507", "minzoom": 2, "maxzoom": 8 }, "properties": { "halo": 0.8, "title": "因纽特人", "fontsize": 12, "tyid": "304001", "oid": "103:1571623887880", "color": "#262626" }, "geometry": { "type": "Point", "coordinates": [ -100.195312, 65.802776 ] } }
{ "type": "Feature", "tippecanoe": { "layer": "2AFCA0D6C9081583916890507", "minzoom": 2, "maxzoom": 8 }, "properties": { "halo": 0.8, "title": "泰萨勒页岩文化", "fontsize": 12, "tyid": "304002", "oid": "103:1571623887912", "color": "#262626" }, "geometry": { "type": "Point", "coordinates": [ -99.316406, 56.800878 ] } }
{ "type": "Feature", "tippecanoe": { "layer": "2AFCA0D6C9081583916890507", "minzoom": 2, "maxzoom": 8 }, "properties": { "halo": 0.8, "title": "坎贝尔文化", "fontsize": 12, "tyid": "304002", "oid": "103:1571623888070", "color": "#262626" }, "geometry": { "type": "Point", "coordinates": [ -121.289062, 38.685510 ] } }
{ "type": "Feature", "tippecanoe": { "layer": "2AFCA0D6C9081583916890507", "minzoom": 2, "maxzoom": 8 }, "properties": { "halo": 0.8, "title": "玛雅文明[古典时期]", "fontsize": 12, "tyid": "304000", "oid": "103:1576922390380", "color": "#202020" }, "geometry": { "type": "Point", "coordinates": [ -90.439453, 17.644022 ] } }
{ "type": "Feature", "tippecanoe": { "layer": "2AFCA0D6C9081583916890507", "minzoom": 2, "maxzoom": 8 }, "properties": { "halo": 0.8, "title": "多赛特文化", "fontsize": 12, "tyid": "304002", "oid": "103:1571623887665", "color": "#262626" }, "geometry": { "type": "Point", "coordinates": [ -69.960938, 67.875541 ] } }
{ "type": "Feature", "tippecanoe": { "layer": "2AFCA0D6C9081583916890507", "minzoom": 2, "maxzoom": 8 }, "properties": { "halo": 0.8, "title": "劳雷尔文化", "fontsize": 12, "tyid": "304002", "oid": "103:1571623887832", "color": "#262626" }, "geometry": { "type": "Point", "coordinates": [ -83.759766, 47.338823 ] } }
{ "type": "Feature", "tippecanoe": { "layer": "2AFCA0D6C9081583916890507", "minzoom": 2, "maxzoom": 8 }, "properties": { "halo": 0.8, "title": "波茵特半岛文化", "fontsize": 12, "tyid": "304002", "oid": "103:1571623888029", "color": "#262626" }, "geometry": { "type": "Point", "coordinates": [ -76.816406, 45.336702 ] } }
{ "type": "Feature", "tippecanoe": { "layer": "2AFCA0D6C9081583916890507", "minzoom": 2, "maxzoom": 8 }, "properties": { "halo": 0.8, "title": "巴富尔人", "fontsize": 12, "tyid": "304001", "oid": "103:1571623888411", "color": "#262626" }, "geometry": { "type": "Point", "coordinates": [ -8.261719, 22.755921 ] } }
{ "type": "Feature", "tippecanoe": { "layer": "2AFCA0D6C9081583916890507", "minzoom": 2, "maxzoom": 8 }, "properties": { "halo": 0.8, "title": "索宁克人", "fontsize": 12, "tyid": "304001", "oid": "103:1571623888387", "color": "#262626" }, "geometry": { "type": "Point", "coordinates": [ -12.744141, 17.727759 ] } }
{ "type": "Feature", "tippecanoe": { "layer": "2AFCA0D6C9081583916890507", "minzoom": 2, "maxzoom": 8 }, "properties": { "halo": 0.8, "title": "曼德人", "fontsize": 12, "tyid": "304001", "oid": "103:1571623887835", "color": "#262626" }, "geometry": { "type": "Point", "coordinates": [ -6.679688, 8.407168 ] } }
{ "type": "Feature", "tippecanoe": { "layer": "2AFCA0D6C9081583916890507", "minzoom": 2, "maxzoom": 8 }, "properties": { "halo": 0.8, "title": "昌戈人", "fontsize": 12, "tyid": "304001", "oid": "103:1571623887888", "color": "#262626" }, "geometry": { "type": "Point", "coordinates": [ -69.257812, -23.402765 ] } }
{ "type": "Feature", "tippecanoe": { "layer": "2AFCA0D6C9081583916890507", "minzoom": 2, "maxzoom": 8 }, "properties": { "halo": 0.8, "title": "沙内斯人", "fontsize": 12, "tyid": "304001", "oid": "103:1571623887838", "color": "#262626" }, "geometry": { "type": "Point", "coordinates": [ -66.269531, -21.616579 ] } }
{ "type": "Feature", "tippecanoe": { "layer": "2AFCA0D6C9081583916890507", "minzoom": 2, "maxzoom": 8 }, "properties": { "halo": 0.8, "title": "萨米人", "fontsize": 12, "tyid": "304001", "oid": "103:1571623887736", "color": "#262626" }, "geometry": { "type": "Point", "coordinates": [ 25.400391, 68.171555 ] } }
{ "type": "Feature", "tippecanoe": { "layer": "2AFCA0D6C9081583916890507", "minzoom": 2, "maxzoom": 8 }, "properties": { "halo": 0.8, "title": "原始日耳曼人", "fontsize": 12, "tyid": "304001", "oid": "103:1571623888079", "color": "#262626" }, "geometry": { "type": "Point", "coordinates": [ 8.437500, 60.500525 ] } }
{ "type": "Feature", "tippecanoe": { "layer": "2AFCA0D6C9081583916890507", "minzoom": 2, "maxzoom": 8 }, "properties": { "halo": 0.8, "title": "古瑞典人", "fontsize": 12, "tyid": "304001", "oid": "103:1571623888009", "color": "#262626" }, "geometry": { "type": "Point", "coordinates": [ 15.820312, 61.312452 ] } }
{ "type": "Feature", "tippecanoe": { "layer": "2AFCA0D6C9081583916890507", "minzoom": 2, "maxzoom": 8 }, "properties": { "halo": 0.8, "title": "罗马帝国", "fontsize": 12, "tyid": "304000", "oid": "103:1571623887761", "color": "#202020" }, "geometry": { "type": "Point", "coordinates": [ 10.107422, 46.255847 ] } }
{ "type": "Feature", "tippecanoe": { "layer": "2AFCA0D6C9081583916890507", "minzoom": 2, "maxzoom": 8 }, "properties": { "halo": 0.8, "title": "芬尼人", "fontsize": 12, "tyid": "304001", "oid": "103:1571623887961", "color": "#262626" }, "geometry": { "type": "Point", "coordinates": [ 29.970703, 64.510643 ] } }
{ "type": "Feature", "tippecanoe": { "layer": "2AFCA0D6C9081583916890507", "minzoom": 2, "maxzoom": 8 }, "properties": { "halo": 0.8, "title": "第聂伯河波罗的人", "fontsize": 12, "tyid": "304001", "oid": "103:1571623888191", "color": "#262626" }, "geometry": { "type": "Point", "coordinates": [ 32.519531, 56.992883 ] } }
{ "type": "Feature", "tippecanoe": { "layer": "2AFCA0D6C9081583916890507", "minzoom": 2, "maxzoom": 8 }, "properties": { "halo": 0.8, "title": "斯拉夫人", "fontsize": 12, "tyid": "304001", "oid": "103:1571623887900", "color": "#262626" }, "geometry": { "type": "Point", "coordinates": [ 27.158203, 52.052490 ] } }
{ "type": "Feature", "tippecanoe": { "layer": "2AFCA0D6C9081583916890507", "minzoom": 2, "maxzoom": 8 }, "properties": { "halo": 0.8, "title": "东哥特人", "fontsize": 12, "tyid": "304001", "oid": "103:1571623888090", "color": "#262626" }, "geometry": { "type": "Point", "coordinates": [ 30.673828, 48.400032 ] } }
{ "type": "Feature", "tippecanoe": { "layer": "2AFCA0D6C9081583916890507", "minzoom": 2, "maxzoom": 8 }, "properties": { "halo": 0.8, "title": "伏尔加芬兰人", "fontsize": 12, "tyid": "304001", "oid": "103:1571623887843", "color": "#262626" }, "geometry": { "type": "Point", "coordinates": [ 42.890625, 55.528631 ] } }
{ "type": "Feature", "tippecanoe": { "layer": "2AFCA0D6C9081583916890507", "minzoom": 2, "maxzoom": 8 }, "properties": { "halo": 0.8, "title": "柏柏尔人诸部", "fontsize": 12, "tyid": "304001", "oid": "103:1571623888059", "color": "#262626" }, "geometry": { "type": "Point", "coordinates": [ 2.900391, 25.244696 ] } }
{ "type": "Feature", "tippecanoe": { "layer": "2AFCA0D6C9081583916890507", "minzoom": 2, "maxzoom": 8 }, "properties": { "halo": 0.8, "title": "加拉曼特人", "fontsize": 12, "tyid": "304001", "oid": "103:1571623888409", "color": "#262626" }, "geometry": { "type": "Point", "coordinates": [ 18.544922, 26.980829 ] } }
{ "type": "Feature", "tippecanoe": { "layer": "2AFCA0D6C9081583916890507", "minzoom": 2, "maxzoom": 8 }, "properties": { "halo": 0.8, "title": "豪萨人", "fontsize": 12, "tyid": "304001", "oid": "103:1571623888273", "color": "#262626" }, "geometry": { "type": "Point", "coordinates": [ 7.031250, 13.496473 ] } }
{ "type": "Feature", "tippecanoe": { "layer": "2AFCA0D6C9081583916890507", "minzoom": 2, "maxzoom": 8 }, "properties": { "halo": 0.8, "title": "诺克文化", "fontsize": 12, "tyid": "304002", "oid": "103:1571623888168", "color": "#262626" }, "geometry": { "type": "Point", "coordinates": [ 7.119141, 9.795678 ] } }
{ "type": "Feature", "tippecanoe": { "layer": "2AFCA0D6C9081583916890507", "minzoom": 2, "maxzoom": 8 }, "properties": { "halo": 0.8, "title": "萨奥文明", "fontsize": 12, "tyid": "304002", "oid": "103:1571623888210", "color": "#262626" }, "geometry": { "type": "Point", "coordinates": [ 15.380859, 13.325485 ] } }
{ "type": "Feature", "tippecanoe": { "layer": "2AFCA0D6C9081583916890507", "minzoom": 2, "maxzoom": 8 }, "properties": { "halo": 0.8, "title": "巴卡人", "fontsize": 12, "tyid": "304001", "oid": "103:1571623888390", "color": "#262626" }, "geometry": { "type": "Point", "coordinates": [ 18.105469, 5.441022 ] } }
{ "type": "Feature", "tippecanoe": { "layer": "2AFCA0D6C9081583916890507", "minzoom": 2, "maxzoom": 8 }, "properties": { "halo": 0.8, "title": "亚美尼亚阿萨息斯王朝", "fontsize": 12, "tyid": "304000", "oid": "103:1571623888444", "color": "#202020" }, "geometry": { "type": "Point", "coordinates": [ 42.626953, 39.368279 ] } }
{ "type": "Feature", "tippecanoe": { "layer": "2AFCA0D6C9081583916890507", "minzoom": 2, "maxzoom": 8 }, "properties": { "halo": 0.8, "title": "拉赫姆王国", "fontsize": 12, "tyid": "304000", "oid": "103:1571623887641", "color": "#202020" }, "geometry": { "type": "Point", "coordinates": [ 44.472656, 31.728167 ] } }
{ "type": "Feature", "tippecanoe": { "layer": "2AFCA0D6C9081583916890507", "minzoom": 2, "maxzoom": 8 }, "properties": { "halo": 0.8, "title": "肯德部落", "fontsize": 12, "tyid": "304001", "oid": "103:1571623888184", "color": "#262626" }, "geometry": { "type": "Point", "coordinates": [ 43.154297, 23.079732 ] } }
{ "type": "Feature", "tippecanoe": { "layer": "2AFCA0D6C9081583916890507", "minzoom": 2, "maxzoom": 8 }, "properties": { "halo": 0.8, "title": "北非贝都因人", "fontsize": 12, "tyid": "304001", "oid": "103:1571623887770", "color": "#262626" }, "geometry": { "type": "Point", "coordinates": [ 22.763672, 20.879343 ] } }
{ "type": "Feature", "tippecanoe": { "layer": "2AFCA0D6C9081583916890507", "minzoom": 2, "maxzoom": 8 }, "properties": { "halo": 0.8, "title": "札加瓦人", "fontsize": 12, "tyid": "304001", "oid": "103:1571623888356", "color": "#262626" }, "geometry": { "type": "Point", "coordinates": [ 22.675781, 15.538376 ] } }
{ "type": "Feature", "tippecanoe": { "layer": "2AFCA0D6C9081583916890507", "minzoom": 2, "maxzoom": 8 }, "properties": { "halo": 0.8, "title": "富尔人", "fontsize": 12, "tyid": "304001", "oid": "103:1571623888316", "color": "#262626" }, "geometry": { "type": "Point", "coordinates": [ 26.015625, 12.983148 ] } }
{ "type": "Feature", "tippecanoe": { "layer": "2AFCA0D6C9081583916890507", "minzoom": 2, "maxzoom": 8 }, "properties": { "halo": 0.8, "title": "努比亚人", "fontsize": 12, "tyid": "304001", "oid": "103:1571623888286", "color": "#262626" }, "geometry": { "type": "Point", "coordinates": [ 30.849609, 19.808054 ] } }
{ "type": "Feature", "tippecanoe": { "layer": "2AFCA0D6C9081583916890507", "minzoom": 2, "maxzoom": 8 }, "properties": { "halo": 0.8, "title": "尼罗特人", "fontsize": 12, "tyid": "304001", "oid": "103:1571623888364", "color": "#262626" }, "geometry": { "type": "Point", "coordinates": [ 32.958984, 2.108899 ] } }
{ "type": "Feature", "tippecanoe": { "layer": "2AFCA0D6C9081583916890507", "minzoom": 2, "maxzoom": 8 }, "properties": { "halo": 0.8, "title": "阿克苏姆王国", "fontsize": 12, "tyid": "304000", "oid": "103:1571623887788", "color": "#202020" }, "geometry": { "type": "Point", "coordinates": [ 39.638672, 13.154376 ] } }
{ "type": "Feature", "tippecanoe": { "layer": "2AFCA0D6C9081583916890507", "minzoom": 2, "maxzoom": 8 }, "properties": { "halo": 0.8, "title": "希木叶尔王国", "fontsize": 12, "tyid": "304000", "oid": "103:1571623888400", "color": "#202020" }, "geometry": { "type": "Point", "coordinates": [ 44.296875, 15.199386 ] } }
{ "type": "Feature", "tippecanoe": { "layer": "2AFCA0D6C9081583916890507", "minzoom": 2, "maxzoom": 8 }, "properties": { "halo": 0.8, "title": "卢欧诸部", "fontsize": 12, "tyid": "304001", "oid": "103:1571623888397", "color": "#262626" }, "geometry": { "type": "Point", "coordinates": [ 35.068359, 8.494105 ] } }
{ "type": "Feature", "tippecanoe": { "layer": "2AFCA0D6C9081583916890507", "minzoom": 2, "maxzoom": 8 }, "properties": { "halo": 0.8, "title": "库希特人", "fontsize": 12, "tyid": "304001", "oid": "103:1571623888302", "color": "#262626" }, "geometry": { "type": "Point", "coordinates": [ 44.736328, 5.703448 ] } }
{ "type": "Feature", "tippecanoe": { "layer": "2AFCA0D6C9081583916890507", "minzoom": 2, "maxzoom": 8 }, "properties": { "halo": 0.8, "title": "阿扎尼亚诸城邦", "fontsize": 12, "tyid": "304002", "oid": "103:1571623887917", "color": "#262626" }, "geometry": { "type": "Point", "coordinates": [ 40.517578, 0.966751 ] } }
{ "type": "Feature", "tippecanoe": { "layer": "2AFCA0D6C9081583916890507", "minzoom": 2, "maxzoom": 8 }, "properties": { "halo": 0.8, "title": "阿泽拉文化", "fontsize": 12, "tyid": "304002", "oid": "103:1571623888003", "color": "#262626" }, "geometry": { "type": "Point", "coordinates": [ 49.482422, 59.756395 ] } }
{ "type": "Feature", "tippecanoe": { "layer": "2AFCA0D6C9081583916890507", "minzoom": 2, "maxzoom": 8 }, "properties": { "halo": 0.8, "title": "彼尔姆人", "fontsize": 12, "tyid": "304001", "oid": "103:1571623887749", "color": "#262626" }, "geometry": { "type": "Point", "coordinates": [ 55.722656, 57.704147 ] } }
{ "type": "Feature", "tippecanoe": { "layer": "2AFCA0D6C9081583916890507", "minzoom": 2, "maxzoom": 8 }, "properties": { "halo": 0.8, "title": "东马扎尔人", "fontsize": 12, "tyid": "304001", "oid": "103:1571623888424", "color": "#262626" }, "geometry": { "type": "Point", "coordinates": [ 59.238281, 61.396719 ] } }
{ "type": "Feature", "tippecanoe": { "layer": "2AFCA0D6C9081583916890507", "minzoom": 2, "maxzoom": 8 }, "properties": { "halo": 0.8, "title": "阿兰人", "fontsize": 12, "tyid": "304001", "oid": "103:1571623887919", "color": "#262626" }, "geometry": { "type": "Point", "coordinates": [ 45.791016, 47.159840 ] } }
{ "type": "Feature", "tippecanoe": { "layer": "2AFCA0D6C9081583916890507", "minzoom": 2, "maxzoom": 8 }, "properties": { "halo": 0.8, "title": "汉特人", "fontsize": 12, "tyid": "304001", "oid": "103:1571623887956", "color": "#262626" }, "geometry": { "type": "Point", "coordinates": [ 70.048828, 61.606396 ] } }
{ "type": "Feature", "tippecanoe": { "layer": "2AFCA0D6C9081583916890507", "minzoom": 2, "maxzoom": 8 }, "properties": { "halo": 0.8, "title": "曼西人", "fontsize": 12, "tyid": "304001", "oid": "103:1571623888000", "color": "#262626" }, "geometry": { "type": "Point", "coordinates": [ 67.675781, 57.562995 ] } }
{ "type": "Feature", "tippecanoe": { "layer": "2AFCA0D6C9081583916890507", "minzoom": 2, "maxzoom": 8 }, "properties": { "halo": 0.8, "title": "库莱文化", "fontsize": 12, "tyid": "304002", "oid": "103:1571623887705", "color": "#262626" }, "geometry": { "type": "Point", "coordinates": [ 82.968750, 57.562995 ] } }
{ "type": "Feature", "tippecanoe": { "layer": "2AFCA0D6C9081583916890507", "minzoom": 2, "maxzoom": 8 }, "properties": { "halo": 0.8, "title": "萨迦蒂安文化", "fontsize": 12, "tyid": "304002", "oid": "103:1571623887710", "color": "#262626" }, "geometry": { "type": "Point", "coordinates": [ 70.751953, 53.225768 ] } }
{ "type": "Feature", "tippecanoe": { "layer": "2AFCA0D6C9081583916890507", "minzoom": 2, "maxzoom": 8 }, "properties": { "halo": 0.8, "title": "康居国", "fontsize": 12, "tyid": "304001", "oid": "103:1571623887756", "color": "#262626" }, "geometry": { "type": "Point", "coordinates": [ 68.027344, 46.739861 ] } }
{ "type": "Feature", "tippecanoe": { "layer": "2AFCA0D6C9081583916890507", "minzoom": 2, "maxzoom": 8 }, "properties": { "halo": 0.8, "title": "悦般国", "fontsize": 12, "tyid": "304000", "oid": "103:1571623888292", "color": "#202020" }, "geometry": { "type": "Point", "coordinates": [ 79.189453, 47.989922 ] } }
{ "type": "Feature", "tippecanoe": { "layer": "2AFCA0D6C9081583916890507", "minzoom": 2, "maxzoom": 8 }, "properties": { "halo": 0.8, "title": "萨珊帝国", "fontsize": 12, "tyid": "304000", "oid": "103:1571623887775", "color": "#202020" }, "geometry": { "type": "Point", "coordinates": [ 59.941406, 34.669359 ] } }
{ "type": "Feature", "tippecanoe": { "layer": "2AFCA0D6C9081583916890507", "minzoom": 2, "maxzoom": 8 }, "properties": { "halo": 0.8, "title": "贝都因人", "fontsize": 12, "tyid": "304001", "oid": "103:1571623887992", "color": "#262626" }, "geometry": { "type": "Point", "coordinates": [ 46.582031, 17.811456 ] } }
{ "type": "Feature", "tippecanoe": { "layer": "2AFCA0D6C9081583916890507", "minzoom": 2, "maxzoom": 8 }, "properties": { "halo": 0.8, "title": "索马里诸城邦", "fontsize": 12, "tyid": "304002", "oid": "103:1571623887799", "color": "#262626" }, "geometry": { "type": "Point", "coordinates": [ 47.636719, 8.928487 ] } }
{ "type": "Feature", "tippecanoe": { "layer": "2AFCA0D6C9081583916890507", "minzoom": 2, "maxzoom": 8 }, "properties": { "halo": 0.8, "title": "贵霜帝国", "fontsize": 12, "tyid": "304000", "oid": "103:1571623888288", "color": "#202020" }, "geometry": { "type": "Point", "coordinates": [ 73.125000, 33.724340 ] } }
{ "type": "Feature", "tippecanoe": { "layer": "2AFCA0D6C9081583916890507", "minzoom": 2, "maxzoom": 8 }, "properties": { "halo": 0.8, "title": "印度-萨珊王国", "fontsize": 12, "tyid": "304000", "oid": "103:1571623888458", "color": "#202020" }, "geometry": { "type": "Point", "coordinates": [ 69.082031, 30.145127 ] } }
{ "type": "Feature", "tippecanoe": { "layer": "2AFCA0D6C9081583916890507", "minzoom": 2, "maxzoom": 8 }, "properties": { "halo": 0.8, "title": "尤迪亚联盟", "fontsize": 12, "tyid": "304001", "oid": "103:1571623887676", "color": "#262626" }, "geometry": { "type": "Point", "coordinates": [ 75.498047, 29.382175 ] } }
{ "type": "Feature", "tippecanoe": { "layer": "2AFCA0D6C9081583916890507", "minzoom": 2, "maxzoom": 8 }, "properties": { "halo": 0.8, "title": "于阗国", "fontsize": 12, "tyid": "304000", "oid": "103:1571623888463", "color": "#202020" }, "geometry": { "type": "Point", "coordinates": [ 78.750000, 37.649034 ] } }
{ "type": "Feature", "tippecanoe": { "layer": "2AFCA0D6C9081583916890507", "minzoom": 2, "maxzoom": 8 }, "properties": { "halo": 0.8, "title": "李柏", "fontsize": 12, "tyid": "304002", "oid": "103:1571623888045", "color": "#262626" }, "geometry": { "type": "Point", "coordinates": [ 83.759766, 39.300299 ] } }
{ "type": "Feature", "tippecanoe": { "layer": "2AFCA0D6C9081583916890507", "minzoom": 2, "maxzoom": 8 }, "properties": { "halo": 0.8, "title": "鄯善国", "fontsize": 12, "tyid": "304000", "oid": "103:1571623888448", "color": "#202020" }, "geometry": { "type": "Point", "coordinates": [ 87.099609, 38.203655 ] } }
{ "type": "Feature", "tippecanoe": { "layer": "2AFCA0D6C9081583916890507", "minzoom": 2, "maxzoom": 8 }, "properties": { "halo": 0.8, "title": "唐旄国", "fontsize": 12, "tyid": "304000", "oid": "103:1571623888141", "color": "#202020" }, "geometry": { "type": "Point", "coordinates": [ 87.011719, 34.161818 ] } }
{ "type": "Feature", "tippecanoe": { "layer": "2AFCA0D6C9081583916890507", "minzoom": 2, "maxzoom": 8 }, "properties": { "halo": 0.8, "title": "象雄王国", "fontsize": 12, "tyid": "304000", "oid": "103:1571623888131", "color": "#202020" }, "geometry": { "type": "Point", "coordinates": [ 81.562500, 31.877558 ] } }
{ "type": "Feature", "tippecanoe": { "layer": "2AFCA0D6C9081583916890507", "minzoom": 2, "maxzoom": 8 }, "properties": { "halo": 0.8, "title": "笈多王朝", "fontsize": 12, "tyid": "304000", "oid": "103:1571623887631", "color": "#202020" }, "geometry": { "type": "Point", "coordinates": [ 84.023438, 24.607069 ] } }
{ "type": "Feature", "tippecanoe": { "layer": "2AFCA0D6C9081583916890507", "minzoom": 2, "maxzoom": 8 }, "properties": { "halo": 0.8, "title": "西萨特拉普王朝", "fontsize": 12, "tyid": "304000", "oid": "103:1571623887623", "color": "#202020" }, "geometry": { "type": "Point", "coordinates": [ 69.960938, 21.943046 ] } }
{ "type": "Feature", "tippecanoe": { "layer": "2AFCA0D6C9081583916890507", "minzoom": 2, "maxzoom": 8 }, "properties": { "halo": 0.8, "title": "伐迦陀迦王朝", "fontsize": 12, "tyid": "304000", "oid": "103:1571623887625", "color": "#202020" }, "geometry": { "type": "Point", "coordinates": [ 76.728516, 20.220966 ] } }
{ "type": "Feature", "tippecanoe": { "layer": "2AFCA0D6C9081583916890507", "minzoom": 2, "maxzoom": 8 }, "properties": { "halo": 0.8, "title": "安度罗甘蔗王朝", "fontsize": 12, "tyid": "304000", "oid": "103:1571623887635", "color": "#202020" }, "geometry": { "type": "Point", "coordinates": [ 79.716797, 17.476432 ] } }
{ "type": "Feature", "tippecanoe": { "layer": "2AFCA0D6C9081583916890507", "minzoom": 2, "maxzoom": 8 }, "properties": { "halo": 0.8, "title": "坚昆", "fontsize": 12, "tyid": "304001", "oid": "103:1571623887814", "color": "#262626" }, "geometry": { "type": "Point", "coordinates": [ 92.724609, 54.059388 ] } }
{ "type": "Feature", "tippecanoe": { "layer": "2AFCA0D6C9081583916890507", "minzoom": 2, "maxzoom": 8 }, "properties": { "halo": 0.8, "title": "丁零", "fontsize": 12, "tyid": "304001", "oid": "103:1571623888215", "color": "#262626" }, "geometry": { "type": "Point", "coordinates": [ 110.830078, 53.067627 ] } }
{ "type": "Feature", "tippecanoe": { "layer": "2AFCA0D6C9081583916890507", "minzoom": 2, "maxzoom": 8 }, "properties": { "halo": 0.8, "title": "拓跋代", "fontsize": 12, "tyid": "304000", "oid": "103:1571623887954", "color": "#202020" }, "geometry": { "type": "Point", "coordinates": [ 109.248047, 45.706179 ] } }
{ "type": "Feature", "tippecanoe": { "layer": "2AFCA0D6C9081583916890507", "minzoom": 2, "maxzoom": 8 }, "properties": { "halo": 0.8, "title": "通古斯人", "fontsize": 12, "tyid": "304001", "oid": "103:1571623888194", "color": "#262626" }, "geometry": { "type": "Point", "coordinates": [ 116.718750, 60.759160 ] } }
{ "type": "Feature", "tippecanoe": { "layer": "2AFCA0D6C9081583916890507", "minzoom": 2, "maxzoom": 8 }, "properties": { "halo": 0.8, "title": "鲜卑宇文部", "fontsize": 12, "tyid": "304001", "oid": "103:1571623888295", "color": "#262626" }, "geometry": { "type": "Point", "coordinates": [ 119.707031, 43.004647 ] } }
{ "type": "Feature", "tippecanoe": { "layer": "2AFCA0D6C9081583916890507", "minzoom": 2, "maxzoom": 8 }, "properties": { "halo": 0.8, "title": "扶余", "fontsize": 12, "tyid": "304000", "oid": "103:1571623888021", "color": "#202020" }, "geometry": { "type": "Point", "coordinates": [ 124.892578, 45.089036 ] } }
{ "type": "Feature", "tippecanoe": { "layer": "2AFCA0D6C9081583916890507", "minzoom": 2, "maxzoom": 8 }, "properties": { "halo": 0.8, "title": "挹娄", "fontsize": 12, "tyid": "304001", "oid": "103:1571623887669", "color": "#262626" }, "geometry": { "type": "Point", "coordinates": [ 132.451172, 47.100045 ] } }
{ "type": "Feature", "tippecanoe": { "layer": "2AFCA0D6C9081583916890507", "minzoom": 2, "maxzoom": 8 }, "properties": { "halo": 0.8, "title": "苏毗", "fontsize": 12, "tyid": "304001", "oid": "103:1571623887793", "color": "#262626" }, "geometry": { "type": "Point", "coordinates": [ 93.603516, 33.211116 ] } }
{ "type": "Feature", "tippecanoe": { "layer": "2AFCA0D6C9081583916890507", "minzoom": 2, "maxzoom": 8 }, "properties": { "halo": 0.8, "title": "前凉", "fontsize": 12, "tyid": "304000", "oid": "103:1571623887732", "color": "#202020" }, "geometry": { "type": "Point", "coordinates": [ 98.964844, 40.847060 ] } }
{ "type": "Feature", "tippecanoe": { "layer": "2AFCA0D6C9081583916890507", "minzoom": 2, "maxzoom": 8 }, "properties": { "halo": 0.8, "title": "古羌人", "fontsize": 12, "tyid": "304001", "oid": "103:1571623887714", "color": "#262626" }, "geometry": { "type": "Point", "coordinates": [ 96.943359, 29.458731 ] } }
{ "type": "Feature", "tippecanoe": { "layer": "2AFCA0D6C9081583916890507", "minzoom": 2, "maxzoom": 8 }, "properties": { "halo": 0.8, "title": "鲜卑乞伏部", "fontsize": 12, "tyid": "304001", "oid": "103:1571623887937", "color": "#262626" }, "geometry": { "type": "Point", "coordinates": [ 105.732422, 38.959409 ] } }
{ "type": "Feature", "tippecanoe": { "layer": "2AFCA0D6C9081583916890507", "minzoom": 2, "maxzoom": 8 }, "properties": { "halo": 0.8, "title": "铁弗部", "fontsize": 12, "tyid": "304001", "oid": "103:1571623887948", "color": "#262626" }, "geometry": { "type": "Point", "coordinates": [ 108.896484, 38.548165 ] } }
{ "type": "Feature", "tippecanoe": { "layer": "2AFCA0D6C9081583916890507", "minzoom": 2, "maxzoom": 8 }, "properties": { "halo": 0.8, "title": "成汉", "fontsize": 12, "tyid": "304000", "oid": "103:1571623887723", "color": "#202020" }, "geometry": { "type": "Point", "coordinates": [ 105.205078, 30.221102 ] } }
{ "type": "Feature", "tippecanoe": { "layer": "2AFCA0D6C9081583916890507", "minzoom": 2, "maxzoom": 8 }, "properties": { "halo": 0.8, "title": "东晋", "fontsize": 12, "tyid": "304000", "oid": "103:1571623888246", "color": "#202020" }, "geometry": { "type": "Point", "coordinates": [ 108.896484, 24.926295 ] } }
{ "type": "Feature", "tippecanoe": { "layer": "2AFCA0D6C9081583916890507", "minzoom": 2, "maxzoom": 8 }, "properties": { "halo": 0.8, "title": "扶南王国", "fontsize": 12, "tyid": "304000", "oid": "103:1571623887613", "color": "#202020" }, "geometry": { "type": "Point", "coordinates": [ 103.710938, 12.468760 ] } }
{ "type": "Feature", "tippecanoe": { "layer": "2AFCA0D6C9081583916890507", "minzoom": 2, "maxzoom": 8 }, "properties": { "halo": 0.8, "title": "后赵", "fontsize": 12, "tyid": "304000", "oid": "103:1571623887964", "color": "#202020" }, "geometry": { "type": "Point", "coordinates": [ 113.994141, 37.230328 ] } }
{ "type": "Feature", "tippecanoe": { "layer": "2AFCA0D6C9081583916890507", "minzoom": 2, "maxzoom": 8 }, "properties": { "halo": 0.8, "title": "南岛人", "fontsize": 12, "tyid": "304001", "oid": "103:1571623887782", "color": "#262626" }, "geometry": { "type": "Point", "coordinates": [ 114.169922, 0.878872 ] } }
{ "type": "Feature", "tippecanoe": { "layer": "2AFCA0D6C9081583916890507", "minzoom": 2, "maxzoom": 8 }, "properties": { "halo": 0.8, "title": "尤卡吉尔人", "fontsize": 12, "tyid": "304001", "oid": "103:1571623888152", "color": "#262626" }, "geometry": { "type": "Point", "coordinates": [ 155.214844, 64.886265 ] } }
{ "type": "Feature", "tippecanoe": { "layer": "2AFCA0D6C9081583916890507", "minzoom": 2, "maxzoom": 8 }, "properties": { "halo": 0.8, "title": "尼夫赫人", "fontsize": 12, "tyid": "304001", "oid": "103:1571623888113", "color": "#262626" }, "geometry": { "type": "Point", "coordinates": [ 138.779297, 51.890054 ] } }
{ "type": "Feature", "tippecanoe": { "layer": "2AFCA0D6C9081583916890507", "minzoom": 2, "maxzoom": 8 }, "properties": { "halo": 0.8, "title": "科里亚克族", "fontsize": 12, "tyid": "304001", "oid": "103:1571623888135", "color": "#262626" }, "geometry": { "type": "Point", "coordinates": [ 164.882812, 61.814664 ] } }
{ "type": "Feature", "tippecanoe": { "layer": "2AFCA0D6C9081583916890507", "minzoom": 2, "maxzoom": 8 }, "properties": { "halo": 0.8, "title": "楚科奇人", "fontsize": 12, "tyid": "304001", "oid": "103:1571623888206", "color": "#262626" }, "geometry": { "type": "Point", "coordinates": [ 171.035156, 66.443107 ] } }
{ "type": "Feature", "tippecanoe": { "layer": "2AFCA0D6C9081583916890507", "minzoom": 2, "maxzoom": 8 }, "properties": { "halo": 0.8, "title": "倭人诸邦", "fontsize": 12, "tyid": "304002", "oid": "103:1571623888278", "color": "#262626" }, "geometry": { "type": "Point", "coordinates": [ 139.218750, 36.668419 ] } }
{ "type": "Feature", "tippecanoe": { "layer": "2AFCA0D6C9081583916890507", "minzoom": 2, "maxzoom": 8 }, "properties": { "halo": 0.8, "title": "西北班图人诸部", "fontsize": 12, "tyid": "304001", "oid": "103:1571623887678", "color": "#262626" }, "geometry": { "type": "Point", "coordinates": [ 20.742188, -0.527336 ] } }
{ "type": "Feature", "tippecanoe": { "layer": "2AFCA0D6C9081583916890507", "minzoom": 2, "maxzoom": 8 }, "properties": { "halo": 0.8, "title": "西班图人诸部", "fontsize": 12, "tyid": "304001", "oid": "103:1571623888032", "color": "#262626" }, "geometry": { "type": "Point", "coordinates": [ 20.830078, -11.781325 ] } }
{ "type": "Feature", "tippecanoe": { "layer": "2AFCA0D6C9081583916890507", "minzoom": 2, "maxzoom": 8 }, "properties": { "halo": 0.8, "title": "科伊桑人", "fontsize": 12, "tyid": "304001", "oid": "103:1571623888023", "color": "#262626" }, "geometry": { "type": "Point", "coordinates": [ 22.148438, -26.352498 ] } }
{ "type": "Feature", "tippecanoe": { "layer": "2AFCA0D6C9081583916890507", "minzoom": 2, "maxzoom": 8 }, "properties": { "halo": 0.8, "title": "东班图人诸部", "fontsize": 12, "tyid": "304001", "oid": "103:1571623887986", "color": "#262626" }, "geometry": { "type": "Point", "coordinates": [ 32.167969, -13.496473 ] } }
{ "type": "Feature", "tippecanoe": { "layer": "2AFCA0D6C9081583916890507", "minzoom": 2, "maxzoom": 8 }, "properties": { "halo": 0.8, "title": "澳洲原住民", "fontsize": 12, "tyid": "304001", "oid": "103:1571623888279", "color": "#262626" }, "geometry": { "type": "Point", "coordinates": [ 134.296875, -25.562265 ] } }
{ "type": "Feature", "tippecanoe": { "layer": "2AFCA0D6C9081583916890507", "minzoom": 2, "maxzoom": 8 }, "properties": { "halo": 0.8, "title": "巴布亚人", "fontsize": 12, "tyid": "304001", "oid": "103:1571623887671", "color": "#262626" }, "geometry": { "type": "Point", "coordinates": [ 140.888672, -5.266008 ] } }
{ "type": "Feature", "tippecanoe": { "layer": "2AFCA0D6CCF81583916890513", "minzoom": 2, "maxzoom": 8 }, "properties": { "halo": 1.6, "title": "图勒人", "fontsize": 12, "tyid": "304001", "oid": "103:1571623888199", "color": "#0056E7" }, "geometry": { "type": "Point", "coordinates": [ -130.781250, 68.942607 ] } }
{ "type": "Feature", "tippecanoe": { "layer": "2AFCA0D6CCF81583916890513", "minzoom": 2, "maxzoom": 8 }, "properties": { "halo": 1.6, "title": "诺顿文化", "fontsize": 12, "tyid": "304002", "oid": "103:1571623888186", "color": "#0056E7" }, "geometry": { "type": "Point", "coordinates": [ -163.740234, 65.330178 ] } }
{ "type": "Feature", "tippecanoe": { "layer": "2AFCA0D6CCF81583916890513", "minzoom": 2, "maxzoom": 8 }, "properties": { "halo": 1.6, "title": "尤皮克人", "fontsize": 12, "tyid": "304001", "oid": "103:1571623887796", "color": "#0056E7" }, "geometry": { "type": "Point", "coordinates": [ -159.169922, 60.630102 ] } }
{ "type": "Feature", "tippecanoe": { "layer": "2AFCA0D6CCF81583916890513", "minzoom": 2, "maxzoom": 8 }, "properties": { "halo": 1.6, "title": "因纽皮雅特人", "fontsize": 12, "tyid": "304001", "oid": "103:1571623888323", "color": "#0056E7" }, "geometry": { "type": "Point", "coordinates": [ -150.908203, 65.476508 ] } }
{ "type": "Feature", "tippecanoe": { "layer": "2AFCA0D6CCF81583916890513", "minzoom": 2, "maxzoom": 8 }, "properties": { "halo": 1.6, "title": "阿留申人", "fontsize": 12, "tyid": "304001", "oid": "103:1571623888146", "color": "#0056E7" }, "geometry": { "type": "Point", "coordinates": [ -152.226562, 61.312452 ] } }
{ "type": "Feature", "tippecanoe": { "layer": "2AFCA0D6CCF81583916890513", "minzoom": 2, "maxzoom": 8 }, "properties": { "halo": 1.6, "title": "因纽特人", "fontsize": 12, "tyid": "304001", "oid": "103:1571623887880", "color": "#0056E7" }, "geometry": { "type": "Point", "coordinates": [ -100.195312, 65.802776 ] } }
{ "type": "Feature", "tippecanoe": { "layer": "2AFCA0D6CCF81583916890513", "minzoom": 2, "maxzoom": 8 }, "properties": { "halo": 1.6, "title": "泰萨勒页岩文化", "fontsize": 12, "tyid": "304002", "oid": "103:1571623887912", "color": "#0056E7" }, "geometry": { "type": "Point", "coordinates": [ -99.316406, 56.800878 ] } }
{ "type": "Feature", "tippecanoe": { "layer": "2AFCA0D6CCF81583916890513", "minzoom": 2, "maxzoom": 8 }, "properties": { "halo": 1.6, "title": "坎贝尔文化", "fontsize": 12, "tyid": "304002", "oid": "103:1571623888070", "color": "#0056E7" }, "geometry": { "type": "Point", "coordinates": [ -121.289062, 38.685510 ] } }
{ "type": "Feature", "tippecanoe": { "layer": "2AFCA0D6CCF81583916890513", "minzoom": 2, "maxzoom": 8 }, "properties": { "halo": 1.8, "title": "玛雅文明[古典时期]", "fontsize": 12, "tyid": "304000", "oid": "103:1576922390380", "color": "#0056E7" }, "geometry": { "type": "Point", "coordinates": [ -90.439453, 17.644022 ] } }
{ "type": "Feature", "tippecanoe": { "layer": "2AFCA0D6CCF81583916890513", "minzoom": 2, "maxzoom": 8 }, "properties": { "halo": 1.6, "title": "多赛特文化", "fontsize": 12, "tyid": "304002", "oid": "103:1571623887665", "color": "#0056E7" }, "geometry": { "type": "Point", "coordinates": [ -69.960938, 67.875541 ] } }
{ "type": "Feature", "tippecanoe": { "layer": "2AFCA0D6CCF81583916890513", "minzoom": 2, "maxzoom": 8 }, "properties": { "halo": 1.6, "title": "劳雷尔文化", "fontsize": 12, "tyid": "304002", "oid": "103:1571623887832", "color": "#0056E7" }, "geometry": { "type": "Point", "coordinates": [ -83.759766, 47.338823 ] } }
{ "type": "Feature", "tippecanoe": { "layer": "2AFCA0D6CCF81583916890513", "minzoom": 2, "maxzoom": 8 }, "properties": { "halo": 1.6, "title": "波茵特半岛文化", "fontsize": 12, "tyid": "304002", "oid": "103:1571623888029", "color": "#0056E7" }, "geometry": { "type": "Point", "coordinates": [ -76.816406, 45.336702 ] } }
{ "type": "Feature", "tippecanoe": { "layer": "2AFCA0D6CCF81583916890513", "minzoom": 2, "maxzoom": 8 }, "properties": { "halo": 1.6, "title": "巴富尔人", "fontsize": 12, "tyid": "304001", "oid": "103:1571623888411", "color": "#0056E7" }, "geometry": { "type": "Point", "coordinates": [ -8.261719, 22.755921 ] } }
{ "type": "Feature", "tippecanoe": { "layer": "2AFCA0D6CCF81583916890513", "minzoom": 2, "maxzoom": 8 }, "properties": { "halo": 1.6, "title": "索宁克人", "fontsize": 12, "tyid": "304001", "oid": "103:1571623888387", "color": "#0056E7" }, "geometry": { "type": "Point", "coordinates": [ -12.744141, 17.727759 ] } }
{ "type": "Feature", "tippecanoe": { "layer": "2AFCA0D6CCF81583916890513", "minzoom": 2, "maxzoom": 8 }, "properties": { "halo": 1.6, "title": "曼德人", "fontsize": 12, "tyid": "304001", "oid": "103:1571623887835", "color": "#0056E7" }, "geometry": { "type": "Point", "coordinates": [ -6.679688, 8.407168 ] } }
{ "type": "Feature", "tippecanoe": { "layer": "2AFCA0D6CCF81583916890513", "minzoom": 2, "maxzoom": 8 }, "properties": { "halo": 1.6, "title": "昌戈人", "fontsize": 12, "tyid": "304001", "oid": "103:1571623887888", "color": "#0056E7" }, "geometry": { "type": "Point", "coordinates": [ -69.257812, -23.402765 ] } }
{ "type": "Feature", "tippecanoe": { "layer": "2AFCA0D6CCF81583916890513", "minzoom": 2, "maxzoom": 8 }, "properties": { "halo": 1.6, "title": "沙内斯人", "fontsize": 12, "tyid": "304001", "oid": "103:1571623887838", "color": "#0056E7" }, "geometry": { "type": "Point", "coordinates": [ -66.269531, -21.616579 ] } }
{ "type": "Feature", "tippecanoe": { "layer": "2AFCA0D6CCF81583916890513", "minzoom": 2, "maxzoom": 8 }, "properties": { "halo": 1.6, "title": "萨米人", "fontsize": 12, "tyid": "304001", "oid": "103:1571623887736", "color": "#0056E7" }, "geometry": { "type": "Point", "coordinates": [ 25.400391, 68.171555 ] } }
{ "type": "Feature", "tippecanoe": { "layer": "2AFCA0D6CCF81583916890513", "minzoom": 2, "maxzoom": 8 }, "properties": { "halo": 1.6, "title": "原始日耳曼人", "fontsize": 12, "tyid": "304001", "oid": "103:1571623888079", "color": "#0056E7" }, "geometry": { "type": "Point", "coordinates": [ 8.437500, 60.500525 ] } }
{ "type": "Feature", "tippecanoe": { "layer": "2AFCA0D6CCF81583916890513", "minzoom": 2, "maxzoom": 8 }, "properties": { "halo": 1.6, "title": "古瑞典人", "fontsize": 12, "tyid": "304001", "oid": "103:1571623888009", "color": "#0056E7" }, "geometry": { "type": "Point", "coordinates": [ 15.820312, 61.312452 ] } }
{ "type": "Feature", "tippecanoe": { "layer": "2AFCA0D6CCF81583916890513", "minzoom": 2, "maxzoom": 8 }, "properties": { "halo": 1.8, "title": "罗马帝国", "fontsize": 12, "tyid": "304000", "oid": "103:1571623887761", "color": "#0056E7" }, "geometry": { "type": "Point", "coordinates": [ 10.107422, 46.255847 ] } }
{ "type": "Feature", "tippecanoe": { "layer": "2AFCA0D6CCF81583916890513", "minzoom": 2, "maxzoom": 8 }, "properties": { "halo": 1.6, "title": "芬尼人", "fontsize": 12, "tyid": "304001", "oid": "103:1571623887961", "color": "#0056E7" }, "geometry": { "type": "Point", "coordinates": [ 29.970703, 64.510643 ] } }
{ "type": "Feature", "tippecanoe": { "layer": "2AFCA0D6CCF81583916890513", "minzoom": 2, "maxzoom": 8 }, "properties": { "halo": 1.6, "title": "第聂伯河波罗的人", "fontsize": 12, "tyid": "304001", "oid": "103:1571623888191", "color": "#0056E7" }, "geometry": { "type": "Point", "coordinates": [ 32.519531, 56.992883 ] } }
{ "type": "Feature", "tippecanoe": { "layer": "2AFCA0D6CCF81583916890513", "minzoom": 2, "maxzoom": 8 }, "properties": { "halo": 1.6, "title": "斯拉夫人", "fontsize": 12, "tyid": "304001", "oid": "103:1571623887900", "color": "#0056E7" }, "geometry": { "type": "Point", "coordinates": [ 27.158203, 52.052490 ] } }
{ "type": "Feature", "tippecanoe": { "layer": "2AFCA0D6CCF81583916890513", "minzoom": 2, "maxzoom": 8 }, "properties": { "halo": 1.6, "title": "东哥特人", "fontsize": 12, "tyid": "304001", "oid": "103:1571623888090", "color": "#0056E7" }, "geometry": { "type": "Point", "coordinates": [ 30.673828, 48.400032 ] } }
{ "type": "Feature", "tippecanoe": { "layer": "2AFCA0D6CCF81583916890513", "minzoom": 2, "maxzoom": 8 }, "properties": { "halo": 1.6, "title": "伏尔加芬兰人", "fontsize": 12, "tyid": "304001", "oid": "103:1571623887843", "color": "#0056E7" }, "geometry": { "type": "Point", "coordinates": [ 42.890625, 55.528631 ] } }
{ "type": "Feature", "tippecanoe": { "layer": "2AFCA0D6CCF81583916890513", "minzoom": 2, "maxzoom": 8 }, "properties": { "halo": 1.6, "title": "柏柏尔人诸部", "fontsize": 12, "tyid": "304001", "oid": "103:1571623888059", "color": "#0056E7" }, "geometry": { "type": "Point", "coordinates": [ 2.900391, 25.244696 ] } }
{ "type": "Feature", "tippecanoe": { "layer": "2AFCA0D6CCF81583916890513", "minzoom": 2, "maxzoom": 8 }, "properties": { "halo": 1.6, "title": "加拉曼特人", "fontsize": 12, "tyid": "304001", "oid": "103:1571623888409", "color": "#0056E7" }, "geometry": { "type": "Point", "coordinates": [ 18.544922, 26.980829 ] } }
{ "type": "Feature", "tippecanoe": { "layer": "2AFCA0D6CCF81583916890513", "minzoom": 2, "maxzoom": 8 }, "properties": { "halo": 1.6, "title": "豪萨人", "fontsize": 12, "tyid": "304001", "oid": "103:1571623888273", "color": "#0056E7" }, "geometry": { "type": "Point", "coordinates": [ 7.031250, 13.496473 ] } }
{ "type": "Feature", "tippecanoe": { "layer": "2AFCA0D6CCF81583916890513", "minzoom": 2, "maxzoom": 8 }, "properties": { "halo": 1.6, "title": "诺克文化", "fontsize": 12, "tyid": "304002", "oid": "103:1571623888168", "color": "#0056E7" }, "geometry": { "type": "Point", "coordinates": [ 7.119141, 9.795678 ] } }
{ "type": "Feature", "tippecanoe": { "layer": "2AFCA0D6CCF81583916890513", "minzoom": 2, "maxzoom": 8 }, "properties": { "halo": 1.6, "title": "萨奥文明", "fontsize": 12, "tyid": "304002", "oid": "103:1571623888210", "color": "#0056E7" }, "geometry": { "type": "Point", "coordinates": [ 15.380859, 13.325485 ] } }
{ "type": "Feature", "tippecanoe": { "layer": "2AFCA0D6CCF81583916890513", "minzoom": 2, "maxzoom": 8 }, "properties": { "halo": 1.6, "title": "巴卡人", "fontsize": 12, "tyid": "304001", "oid": "103:1571623888390", "color": "#0056E7" }, "geometry": { "type": "Point", "coordinates": [ 18.105469, 5.441022 ] } }
{ "type": "Feature", "tippecanoe": { "layer": "2AFCA0D6CCF81583916890513", "minzoom": 2, "maxzoom": 8 }, "properties": { "halo": 1.8, "title": "亚美尼亚阿萨息斯王朝", "fontsize": 12, "tyid": "304000", "oid": "103:1571623888444", "color": "#0056E7" }, "geometry": { "type": "Point", "coordinates": [ 42.626953, 39.368279 ] } }
{ "type": "Feature", "tippecanoe": { "layer": "2AFCA0D6CCF81583916890513", "minzoom": 2, "maxzoom": 8 }, "properties": { "halo": 1.8, "title": "拉赫姆王国", "fontsize": 12, "tyid": "304000", "oid": "103:1571623887641", "color": "#0056E7" }, "geometry": { "type": "Point", "coordinates": [ 44.472656, 31.728167 ] } }
{ "type": "Feature", "tippecanoe": { "layer": "2AFCA0D6CCF81583916890513", "minzoom": 2, "maxzoom": 8 }, "properties": { "halo": 1.6, "title": "肯德部落", "fontsize": 12, "tyid": "304001", "oid": "103:1571623888184", "color": "#0056E7" }, "geometry": { "type": "Point", "coordinates": [ 43.154297, 23.079732 ] } }
{ "type": "Feature", "tippecanoe": { "layer": "2AFCA0D6CCF81583916890513", "minzoom": 2, "maxzoom": 8 }, "properties": { "halo": 1.6, "title": "北非贝都因人", "fontsize": 12, "tyid": "304001", "oid": "103:1571623887770", "color": "#0056E7" }, "geometry": { "type": "Point", "coordinates": [ 22.763672, 20.879343 ] } }
{ "type": "Feature", "tippecanoe": { "layer": "2AFCA0D6CCF81583916890513", "minzoom": 2, "maxzoom": 8 }, "properties": { "halo": 1.6, "title": "札加瓦人", "fontsize": 12, "tyid": "304001", "oid": "103:1571623888356", "color": "#0056E7" }, "geometry": { "type": "Point", "coordinates": [ 22.675781, 15.538376 ] } }
{ "type": "Feature", "tippecanoe": { "layer": "2AFCA0D6CCF81583916890513", "minzoom": 2, "maxzoom": 8 }, "properties": { "halo": 1.6, "title": "富尔人", "fontsize": 12, "tyid": "304001", "oid": "103:1571623888316", "color": "#0056E7" }, "geometry": { "type": "Point", "coordinates": [ 26.015625, 12.983148 ] } }
{ "type": "Feature", "tippecanoe": { "layer": "2AFCA0D6CCF81583916890513", "minzoom": 2, "maxzoom": 8 }, "properties": { "halo": 1.6, "title": "努比亚人", "fontsize": 12, "tyid": "304001", "oid": "103:1571623888286", "color": "#0056E7" }, "geometry": { "type": "Point", "coordinates": [ 30.849609, 19.808054 ] } }
{ "type": "Feature", "tippecanoe": { "layer": "2AFCA0D6CCF81583916890513", "minzoom": 2, "maxzoom": 8 }, "properties": { "halo": 1.6, "title": "尼罗特人", "fontsize": 12, "tyid": "304001", "oid": "103:1571623888364", "color": "#0056E7" }, "geometry": { "type": "Point", "coordinates": [ 32.958984, 2.108899 ] } }
{ "type": "Feature", "tippecanoe": { "layer": "2AFCA0D6CCF81583916890513", "minzoom": 2, "maxzoom": 8 }, "properties": { "halo": 1.8, "title": "阿克苏姆王国", "fontsize": 12, "tyid": "304000", "oid": "103:1571623887788", "color": "#0056E7" }, "geometry": { "type": "Point", "coordinates": [ 39.638672, 13.154376 ] } }
{ "type": "Feature", "tippecanoe": { "layer": "2AFCA0D6CCF81583916890513", "minzoom": 2, "maxzoom": 8 }, "properties": { "halo": 1.8, "title": "希木叶尔王国", "fontsize": 12, "tyid": "304000", "oid": "103:1571623888400", "color": "#0056E7" }, "geometry": { "type": "Point", "coordinates": [ 44.296875, 15.199386 ] } }
{ "type": "Feature", "tippecanoe": { "layer": "2AFCA0D6CCF81583916890513", "minzoom": 2, "maxzoom": 8 }, "properties": { "halo": 1.6, "title": "卢欧诸部", "fontsize": 12, "tyid": "304001", "oid": "103:1571623888397", "color": "#0056E7" }, "geometry": { "type": "Point", "coordinates": [ 35.068359, 8.494105 ] } }
{ "type": "Feature", "tippecanoe": { "layer": "2AFCA0D6CCF81583916890513", "minzoom": 2, "maxzoom": 8 }, "properties": { "halo": 1.6, "title": "库希特人", "fontsize": 12, "tyid": "304001", "oid": "103:1571623888302", "color": "#0056E7" }, "geometry": { "type": "Point", "coordinates": [ 44.736328, 5.703448 ] } }
{ "type": "Feature", "tippecanoe": { "layer": "2AFCA0D6CCF81583916890513", "minzoom": 2, "maxzoom": 8 }, "properties": { "halo": 1.6, "title": "阿扎尼亚诸城邦", "fontsize": 12, "tyid": "304002", "oid": "103:1571623887917", "color": "#0056E7" }, "geometry": { "type": "Point", "coordinates": [ 40.517578, 0.966751 ] } }
{ "type": "Feature", "tippecanoe": { "layer": "2AFCA0D6CCF81583916890513", "minzoom": 2, "maxzoom": 8 }, "properties": { "halo": 1.6, "title": "阿泽拉文化", "fontsize": 12, "tyid": "304002", "oid": "103:1571623888003", "color": "#0056E7" }, "geometry": { "type": "Point", "coordinates": [ 49.482422, 59.756395 ] } }
{ "type": "Feature", "tippecanoe": { "layer": "2AFCA0D6CCF81583916890513", "minzoom": 2, "maxzoom": 8 }, "properties": { "halo": 1.6, "title": "彼尔姆人", "fontsize": 12, "tyid": "304001", "oid": "103:1571623887749", "color": "#0056E7" }, "geometry": { "type": "Point", "coordinates": [ 55.722656, 57.704147 ] } }
{ "type": "Feature", "tippecanoe": { "layer": "2AFCA0D6CCF81583916890513", "minzoom": 2, "maxzoom": 8 }, "properties": { "halo": 1.6, "title": "东马扎尔人", "fontsize": 12, "tyid": "304001", "oid": "103:1571623888424", "color": "#0056E7" }, "geometry": { "type": "Point", "coordinates": [ 59.238281, 61.396719 ] } }
{ "type": "Feature", "tippecanoe": { "layer": "2AFCA0D6CCF81583916890513", "minzoom": 2, "maxzoom": 8 }, "properties": { "halo": 1.6, "title": "阿兰人", "fontsize": 12, "tyid": "304001", "oid": "103:1571623887919", "color": "#0056E7" }, "geometry": { "type": "Point", "coordinates": [ 45.791016, 47.159840 ] } }
{ "type": "Feature", "tippecanoe": { "layer": "2AFCA0D6CCF81583916890513", "minzoom": 2, "maxzoom": 8 }, "properties": { "halo": 1.6, "title": "汉特人", "fontsize": 12, "tyid": "304001", "oid": "103:1571623887956", "color": "#0056E7" }, "geometry": { "type": "Point", "coordinates": [ 70.048828, 61.606396 ] } }
{ "type": "Feature", "tippecanoe": { "layer": "2AFCA0D6CCF81583916890513", "minzoom": 2, "maxzoom": 8 }, "properties": { "halo": 1.6, "title": "曼西人", "fontsize": 12, "tyid": "304001", "oid": "103:1571623888000", "color": "#0056E7" }, "geometry": { "type": "Point", "coordinates": [ 67.675781, 57.562995 ] } }
{ "type": "Feature", "tippecanoe": { "layer": "2AFCA0D6CCF81583916890513", "minzoom": 2, "maxzoom": 8 }, "properties": { "halo": 1.6, "title": "库莱文化", "fontsize": 12, "tyid": "304002", "oid": "103:1571623887705", "color": "#0056E7" }, "geometry": { "type": "Point", "coordinates": [ 82.968750, 57.562995 ] } }
{ "type": "Feature", "tippecanoe": { "layer": "2AFCA0D6CCF81583916890513", "minzoom": 2, "maxzoom": 8 }, "properties": { "halo": 1.6, "title": "萨迦蒂安文化", "fontsize": 12, "tyid": "304002", "oid": "103:1571623887710", "color": "#0056E7" }, "geometry": { "type": "Point", "coordinates": [ 70.751953, 53.225768 ] } }
{ "type": "Feature", "tippecanoe": { "layer": "2AFCA0D6CCF81583916890513", "minzoom": 2, "maxzoom": 8 }, "properties": { "halo": 1.6, "title": "康居国", "fontsize": 12, "tyid": "304001", "oid": "103:1571623887756", "color": "#0056E7" }, "geometry": { "type": "Point", "coordinates": [ 68.027344, 46.739861 ] } }
{ "type": "Feature", "tippecanoe": { "layer": "2AFCA0D6CCF81583916890513", "minzoom": 2, "maxzoom": 8 }, "properties": { "halo": 1.8, "title": "悦般国", "fontsize": 12, "tyid": "304000", "oid": "103:1571623888292", "color": "#0056E7" }, "geometry": { "type": "Point", "coordinates": [ 79.189453, 47.989922 ] } }
{ "type": "Feature", "tippecanoe": { "layer": "2AFCA0D6CCF81583916890513", "minzoom": 2, "maxzoom": 8 }, "properties": { "halo": 1.8, "title": "萨珊帝国", "fontsize": 12, "tyid": "304000", "oid": "103:1571623887775", "color": "#0056E7" }, "geometry": { "type": "Point", "coordinates": [ 59.941406, 34.669359 ] } }
{ "type": "Feature", "tippecanoe": { "layer": "2AFCA0D6CCF81583916890513", "minzoom": 2, "maxzoom": 8 }, "properties": { "halo": 1.6, "title": "贝都因人", "fontsize": 12, "tyid": "304001", "oid": "103:1571623887992", "color": "#0056E7" }, "geometry": { "type": "Point", "coordinates": [ 46.582031, 17.811456 ] } }
{ "type": "Feature", "tippecanoe": { "layer": "2AFCA0D6CCF81583916890513", "minzoom": 2, "maxzoom": 8 },