{"year": "AD407",  "type": "Feature", "tippecanoe": { "layer": "2AFCA0B950B81583916683113", "minzoom": 2, "maxzoom": 8 }, "properties": { "halo": 1.6, "title": "拉霍亚文化", "fontsize": 12, "tyid": "304002", "oid": "103:1576575135852", "color": "#0056E7" }, "geometry": { "type": "Point", "coordinates": [ -118.212891, 34.379713 ] } }
{"year": "AD407",  "type": "Feature", "tippecanoe": { "layer": "2AFCA0B950B81583916683113", "minzoom": 2, "maxzoom": 8 }, "properties": { "halo": 1.6, "title": "维珍阿纳萨齐人", "fontsize": 12, "tyid": "304001", "oid": "103:1576575136009", "color": "#0056E7" }, "geometry": { "type": "Point", "coordinates": [ -113.818359, 36.879621 ] } }
{"year": "AD407",  "type": "Feature", "tippecanoe": { "layer": "2AFCA0B950B81583916683113", "minzoom": 2, "maxzoom": 8 }, "properties": { "halo": 1.6, "title": "霍霍卡姆文化", "fontsize": 12, "tyid": "304002", "oid": "103:1576575135877", "color": "#0056E7" }, "geometry": { "type": "Point", "coordinates": [ -112.851562, 32.768800 ] } }
{"year": "AD407",  "type": "Feature", "tippecanoe": { "layer": "2AFCA0B950B81583916683113", "minzoom": 2, "maxzoom": 8 }, "properties": { "halo": 1.6, "title": "弗里蒙特文化", "fontsize": 12, "tyid": "304002", "oid": "103:1576575136011", "color": "#0056E7" }, "geometry": { "type": "Point", "coordinates": [ -111.533203, 38.134557 ] } }
{"year": "AD407",  "type": "Feature", "tippecanoe": { "layer": "2AFCA0B950B81583916683113", "minzoom": 2, "maxzoom": 8 }, "properties": { "halo": 1.6, "title": "奥沙拉文化", "fontsize": 12, "tyid": "304002", "oid": "103:1576575136072", "color": "#0056E7" }, "geometry": { "type": "Point", "coordinates": [ -107.841797, 37.509726 ] } }
{"year": "AD407",  "type": "Feature", "tippecanoe": { "layer": "2AFCA0B950B81583916683113", "minzoom": 2, "maxzoom": 8 }, "properties": { "halo": 1.6, "title": "古普韦布洛人", "fontsize": 12, "tyid": "304001", "oid": "103:1576575136049", "color": "#0056E7" }, "geometry": { "type": "Point", "coordinates": [ -109.951172, 36.527295 ] } }
{"year": "AD407",  "type": "Feature", "tippecanoe": { "layer": "2AFCA0B950B81583916683113", "minzoom": 2, "maxzoom": 8 }, "properties": { "halo": 1.6, "title": "莫戈隆文化", "fontsize": 12, "tyid": "304002", "oid": "103:1576575135818", "color": "#0056E7" }, "geometry": { "type": "Point", "coordinates": [ -108.808594, 31.802893 ] } }
{"year": "AD407",  "type": "Feature", "tippecanoe": { "layer": "2AFCA0B950B81583916683113", "minzoom": 2, "maxzoom": 8 }, "properties": { "halo": 1.6, "title": "瓜伊库拉人", "fontsize": 12, "tyid": "304001", "oid": "103:1576575136061", "color": "#0056E7" }, "geometry": { "type": "Point", "coordinates": [ -111.269531, 24.846565 ] } }
{"year": "AD407",  "type": "Feature", "tippecanoe": { "layer": "2AFCA0B950B81583916683113", "minzoom": 2, "maxzoom": 8 }, "properties": { "halo": 1.6, "title": "堪萨斯城霍普韦尔文化", "fontsize": 12, "tyid": "304002", "oid": "103:1576575135683", "color": "#0056E7" }, "geometry": { "type": "Point", "coordinates": [ -94.042969, 39.027719 ] } }
{"year": "AD407",  "type": "Feature", "tippecanoe": { "layer": "2AFCA0B950B81583916683113", "minzoom": 2, "maxzoom": 8 }, "properties": { "halo": 1.6, "title": "喀多语密西西比文化", "fontsize": 12, "tyid": "304002", "oid": "103:1576575135773", "color": "#0056E7" }, "geometry": { "type": "Point", "coordinates": [ -94.482422, 35.960223 ] } }
{"year": "AD407",  "type": "Feature", "tippecanoe": { "layer": "2AFCA0B950B81583916683113", "minzoom": 2, "maxzoom": 8 }, "properties": { "halo": 1.6, "title": "福切马里尼文化", "fontsize": 12, "tyid": "304002", "oid": "103:1576575135921", "color": "#0056E7" }, "geometry": { "type": "Point", "coordinates": [ -94.042969, 33.358062 ] } }
{"year": "AD407",  "type": "Feature", "tippecanoe": { "layer": "2AFCA0B950B81583916683113", "minzoom": 2, "maxzoom": 8 }, "properties": { "halo": 1.6, "title": "贝敦文化", "fontsize": 12, "tyid": "304002", "oid": "103:1576575136015", "color": "#0056E7" }, "geometry": { "type": "Point", "coordinates": [ -90.703125, 34.379713 ] } }
{"year": "AD407",  "type": "Feature", "tippecanoe": { "layer": "2AFCA0B950B81583916683113", "minzoom": 2, "maxzoom": 8 }, "properties": { "halo": 1.6, "title": "华斯塔克文明", "fontsize": 12, "tyid": "304002", "oid": "103:1576575136170", "color": "#0056E7" }, "geometry": { "type": "Point", "coordinates": [ -98.613281, 22.105999 ] } }
{"year": "AD407",  "type": "Feature", "tippecanoe": { "layer": "2AFCA0B950B81583916683113", "minzoom": 2, "maxzoom": 8 }, "properties": { "halo": 1.6, "title": "奇蒂玛察人", "fontsize": 12, "tyid": "304001", "oid": "103:1576575136138", "color": "#0056E7" }, "geometry": { "type": "Point", "coordinates": [ -90.966797, 30.977609 ] } }
{"year": "AD407",  "type": "Feature", "tippecanoe": { "layer": "2AFCA0B950B81583916683113", "minzoom": 2, "maxzoom": 8 }, "properties": { "halo": 1.6, "title": "萨波特克文明", "fontsize": 12, "tyid": "304002", "oid": "103:1576575136125", "color": "#0056E7" }, "geometry": { "type": "Point", "coordinates": [ -96.064453, 16.888660 ] } }
{"year": "AD407",  "type": "Feature", "tippecanoe": { "layer": "2AFCA0B950B81583916683113", "minzoom": 2, "maxzoom": 8 }, "properties": { "halo": 1.6, "title": "古德尔文化", "fontsize": 12, "tyid": "304002", "oid": "103:1576575135930", "color": "#0056E7" }, "geometry": { "type": "Point", "coordinates": [ -85.869141, 43.133061 ] } }
{"year": "AD407",  "type": "Feature", "tippecanoe": { "layer": "2AFCA0B950B81583916683113", "minzoom": 2, "maxzoom": 8 }, "properties": { "halo": 1.6, "title": "索根文化", "fontsize": 12, "tyid": "304002", "oid": "103:1576575135968", "color": "#0056E7" }, "geometry": { "type": "Point", "coordinates": [ -81.298828, 43.707594 ] } }
{"year": "AD407",  "type": "Feature", "tippecanoe": { "layer": "2AFCA0B950B81583916683113", "minzoom": 2, "maxzoom": 8 }, "properties": { "halo": 1.6, "title": "蟹园文化", "fontsize": 12, "tyid": "304002", "oid": "103:1576575135884", "color": "#0056E7" }, "geometry": { "type": "Point", "coordinates": [ -88.593750, 37.230328 ] } }
{"year": "AD407",  "type": "Feature", "tippecanoe": { "layer": "2AFCA0B950B81583916683113", "minzoom": 2, "maxzoom": 8 }, "properties": { "halo": 1.6, "title": "特洛伊维尔文化", "fontsize": 12, "tyid": "304002", "oid": "103:1576575136121", "color": "#0056E7" }, "geometry": { "type": "Point", "coordinates": [ -89.912109, 32.101190 ] } }
{"year": "AD407",  "type": "Feature", "tippecanoe": { "layer": "2AFCA0B950B81583916683113", "minzoom": 2, "maxzoom": 8 }, "properties": { "halo": 1.6, "title": "科佩纳文化", "fontsize": 12, "tyid": "304002", "oid": "103:1576575135682", "color": "#0056E7" }, "geometry": { "type": "Point", "coordinates": [ -87.275391, 34.307144 ] } }
{"year": "AD407",  "type": "Feature", "tippecanoe": { "layer": "2AFCA0B950B81583916683113", "minzoom": 2, "maxzoom": 8 }, "properties": { "halo": 1.6, "title": "斯威夫特溪文化", "fontsize": 12, "tyid": "304002", "oid": "103:1576575136127", "color": "#0056E7" }, "geometry": { "type": "Point", "coordinates": [ -84.814453, 32.175612 ] } }
{"year": "AD407",  "type": "Feature", "tippecanoe": { "layer": "2AFCA0B950B81583916683113", "minzoom": 2, "maxzoom": 8 }, "properties": { "halo": 1.6, "title": "俄亥俄霍普韦尔文化", "fontsize": 12, "tyid": "304002", "oid": "103:1576575135886", "color": "#0056E7" }, "geometry": { "type": "Point", "coordinates": [ -82.089844, 39.639538 ] } }
{"year": "AD407",  "type": "Feature", "tippecanoe": { "layer": "2AFCA0B950B81583916683113", "minzoom": 2, "maxzoom": 8 }, "properties": { "halo": 1.6, "title": "阿姆斯特朗文化", "fontsize": 12, "tyid": "304002", "oid": "103:1576575135805", "color": "#0056E7" }, "geometry": { "type": "Point", "coordinates": [ -82.968750, 38.134557 ] } }
{"year": "AD407",  "type": "Feature", "tippecanoe": { "layer": "2AFCA0B950B81583916683113", "minzoom": 2, "maxzoom": 8 }, "properties": { "halo": 1.6, "title": "德普特福德文化", "fontsize": 12, "tyid": "304002", "oid": "103:1576575135966", "color": "#0056E7" }, "geometry": { "type": "Point", "coordinates": [ -79.628906, 33.431441 ] } }
{"year": "AD407",  "type": "Feature", "tippecanoe": { "layer": "2AFCA0B950B81583916683113", "minzoom": 2, "maxzoom": 8 }, "properties": { "halo": 1.6, "title": "圣罗莎-斯威夫特溪文化", "fontsize": 12, "tyid": "304002", "oid": "103:1576575135714", "color": "#0056E7" }, "geometry": { "type": "Point", "coordinates": [ -86.748047, 30.977609 ] } }
{"year": "AD407",  "type": "Feature", "tippecanoe": { "layer": "2AFCA0B950B81583916683113", "minzoom": 2, "maxzoom": 8 }, "properties": { "halo": 1.6, "title": "维登岛文化", "fontsize": 12, "tyid": "304002", "oid": "103:1576575135762", "color": "#0056E7" }, "geometry": { "type": "Point", "coordinates": [ -84.902344, 30.524413 ] } }
{"year": "AD407",  "type": "Feature", "tippecanoe": { "layer": "2AFCA0B950B81583916683113", "minzoom": 2, "maxzoom": 8 }, "properties": { "halo": 1.6, "title": "泰诺人", "fontsize": 12, "tyid": "304001", "oid": "103:1576575135858", "color": "#0056E7" }, "geometry": { "type": "Point", "coordinates": [ -79.628906, 22.105999 ] } }
{"year": "AD407",  "type": "Feature", "tippecanoe": { "layer": "2AFCA0B950B81583916683113", "minzoom": 2, "maxzoom": 8 }, "properties": { "halo": 1.6, "title": "佩奇人", "fontsize": 12, "tyid": "304001", "oid": "103:1576575135880", "color": "#0056E7" }, "geometry": { "type": "Point", "coordinates": [ -84.814453, 15.368950 ] } }
{"year": "AD407",  "type": "Feature", "tippecanoe": { "layer": "2AFCA0B950B81583916683113", "minzoom": 2, "maxzoom": 8 }, "properties": { "halo": 1.6, "title": "兹努文化", "fontsize": 12, "tyid": "304002", "oid": "103:1576575135665", "color": "#0056E7" }, "geometry": { "type": "Point", "coordinates": [ -75.585938, 8.581021 ] } }
{"year": "AD407",  "type": "Feature", "tippecanoe": { "layer": "2AFCA0B950B81583916683113", "minzoom": 2, "maxzoom": 8 }, "properties": { "halo": 1.6, "title": "埃雷拉时期", "fontsize": 12, "tyid": "304002", "oid": "103:1576575135689", "color": "#0056E7" }, "geometry": { "type": "Point", "coordinates": [ -73.037109, 5.965754 ] } }
{"year": "AD407",  "type": "Feature", "tippecanoe": { "layer": "2AFCA0B950B81583916683113", "minzoom": 2, "maxzoom": 8 }, "properties": { "halo": 1.6, "title": "伊奈里人", "fontsize": 12, "tyid": "304001", "oid": "103:1576575135965", "color": "#0056E7" }, "geometry": { "type": "Point", "coordinates": [ -61.787109, 8.754795 ] } }
{"year": "AD407",  "type": "Feature", "tippecanoe": { "layer": "2AFCA0B950B81583916683113", "minzoom": 2, "maxzoom": 8 }, "properties": { "halo": 1.6, "title": "喀里多尼亚人", "fontsize": 12, "tyid": "304001", "oid": "103:1576575135727", "color": "#0056E7" }, "geometry": { "type": "Point", "coordinates": [ -4.042969, 56.992883 ] } }
{"year": "AD407",  "type": "Feature", "tippecanoe": { "layer": "2AFCA0B950B81583916683113", "minzoom": 2, "maxzoom": 8 }, "properties": { "halo": 1.6, "title": "盖尔人", "fontsize": 12, "tyid": "304001", "oid": "103:1576575135676", "color": "#0056E7" }, "geometry": { "type": "Point", "coordinates": [ -9.228516, 52.052490 ] } }
{"year": "AD407",  "type": "Feature", "tippecanoe": { "layer": "2AFCA0B950B81583916683113", "minzoom": 2, "maxzoom": 8 }, "properties": { "halo": 1.6, "title": "皮克特人", "fontsize": 12, "tyid": "304001", "oid": "103:1576575135913", "color": "#0056E7" }, "geometry": { "type": "Point", "coordinates": [ -4.130859, 55.379110 ] } }
{"year": "AD407",  "type": "Feature", "tippecanoe": { "layer": "2AFCA0B950B81583916683113", "minzoom": 2, "maxzoom": 8 }, "properties": { "halo": 1.8, "title": "古加纳王国", "fontsize": 12, "tyid": "304000", "oid": "103:1576575135796", "color": "#0056E7" }, "geometry": { "type": "Point", "coordinates": [ -8.349609, 16.299051 ] } }
{"year": "AD407",  "type": "Feature", "tippecanoe": { "layer": "2AFCA0B950B81583916683113", "minzoom": 2, "maxzoom": 8 }, "properties": { "halo": 1.6, "title": "杰内-杰诺文化三期", "fontsize": 12, "tyid": "304002", "oid": "103:1576575136023", "color": "#0056E7" }, "geometry": { "type": "Point", "coordinates": [ -4.746094, 14.349548 ] } }
{"year": "AD407",  "type": "Feature", "tippecanoe": { "layer": "2AFCA0B950B81583916683113", "minzoom": 2, "maxzoom": 8 }, "properties": { "halo": 1.6, "title": "楚真文化", "fontsize": 12, "tyid": "304002", "oid": "103:1576575135731", "color": "#0056E7" }, "geometry": { "type": "Point", "coordinates": [ -70.576172, -16.299051 ] } }
{"year": "AD407",  "type": "Feature", "tippecanoe": { "layer": "2AFCA0B950B81583916683113", "minzoom": 2, "maxzoom": 8 }, "properties": { "halo": 1.6, "title": "艾马拉人", "fontsize": 12, "tyid": "304001", "oid": "103:1576575136017", "color": "#0056E7" }, "geometry": { "type": "Point", "coordinates": [ -68.291016, -17.224758 ] } }
{"year": "AD407",  "type": "Feature", "tippecanoe": { "layer": "2AFCA0B950B81583916683113", "minzoom": 2, "maxzoom": 8 }, "properties": { "halo": 1.6, "title": "阿拉米托文化", "fontsize": 12, "tyid": "304002", "oid": "103:1576575135927", "color": "#0056E7" }, "geometry": { "type": "Point", "coordinates": [ -67.851562, -26.588527 ] } }
{"year": "AD407",  "type": "Feature", "tippecanoe": { "layer": "2AFCA0B950B81583916683113", "minzoom": 2, "maxzoom": 8 }, "properties": { "halo": 1.6, "title": "埃尔莫尔文化", "fontsize": 12, "tyid": "304002", "oid": "103:1576575135898", "color": "#0056E7" }, "geometry": { "type": "Point", "coordinates": [ -70.927734, -30.675715 ] } }
{"year": "AD407",  "type": "Feature", "tippecanoe": { "layer": "2AFCA0B950B81583916683113", "minzoom": 2, "maxzoom": 8 }, "properties": { "halo": 1.6, "title": "安西尔塔文化", "fontsize": 12, "tyid": "304002", "oid": "103:1576575136129", "color": "#0056E7" }, "geometry": { "type": "Point", "coordinates": [ -68.818359, -31.353637 ] } }
{"year": "AD407",  "type": "Feature", "tippecanoe": { "layer": "2AFCA0B950B81583916683113", "minzoom": 2, "maxzoom": 8 }, "properties": { "halo": 1.6, "title": "洛勒洛文化", "fontsize": 12, "tyid": "304002", "oid": "103:1576575135817", "color": "#0056E7" }, "geometry": { "type": "Point", "coordinates": [ -70.664062, -33.724340 ] } }
{"year": "AD407",  "type": "Feature", "tippecanoe": { "layer": "2AFCA0B950B81583916683113", "minzoom": 2, "maxzoom": 8 }, "properties": { "halo": 1.6, "title": "马普切人", "fontsize": 12, "tyid": "304001", "oid": "103:1576575135879", "color": "#0056E7" }, "geometry": { "type": "Point", "coordinates": [ -71.455078, -38.959409 ] } }
{"year": "AD407",  "type": "Feature", "tippecanoe": { "layer": "2AFCA0B950B81583916683113", "minzoom": 2, "maxzoom": 8 }, "properties": { "halo": 1.6, "title": "希德拉里卡文化", "fontsize": 12, "tyid": "304002", "oid": "103:1576575135658", "color": "#0056E7" }, "geometry": { "type": "Point", "coordinates": [ -66.005859, -12.297068 ] } }
{"year": "AD407",  "type": "Feature", "tippecanoe": { "layer": "2AFCA0B950B81583916683113", "minzoom": 2, "maxzoom": 8 }, "properties": { "halo": 1.6, "title": "摩克索人", "fontsize": 12, "tyid": "304001", "oid": "103:1576575135649", "color": "#0056E7" }, "geometry": { "type": "Point", "coordinates": [ -65.830078, -13.923404 ] } }
{"year": "AD407",  "type": "Feature", "tippecanoe": { "layer": "2AFCA0B950B81583916683113", "minzoom": 2, "maxzoom": 8 }, "properties": { "halo": 1.6, "title": "马拉约文化", "fontsize": 12, "tyid": "304002", "oid": "103:1576575135642", "color": "#0056E7" }, "geometry": { "type": "Point", "coordinates": [ -50.712891, -2.723583 ] } }
{"year": "AD407",  "type": "Feature", "tippecanoe": { "layer": "2AFCA0B950B81583916683113", "minzoom": 2, "maxzoom": 8 }, "properties": { "halo": 1.6, "title": "拉坎德拉里亚文化", "fontsize": 12, "tyid": "304002", "oid": "103:1576575136090", "color": "#0056E7" }, "geometry": { "type": "Point", "coordinates": [ -65.390625, -25.720735 ] } }
{"year": "AD407",  "type": "Feature", "tippecanoe": { "layer": "2AFCA0B950B81583916683113", "minzoom": 2, "maxzoom": 8 }, "properties": { "halo": 1.6, "title": "康多拉瓦西文化", "fontsize": 12, "tyid": "304002", "oid": "103:1576575135970", "color": "#0056E7" }, "geometry": { "type": "Point", "coordinates": [ -66.708984, -27.293689 ] } }
{"year": "AD407",  "type": "Feature", "tippecanoe": { "layer": "2AFCA0B950B81583916683113", "minzoom": 2, "maxzoom": 8 }, "properties": { "halo": 1.6, "title": "拉斯梅塞德斯文化", "fontsize": 12, "tyid": "304002", "oid": "103:1576575135974", "color": "#0056E7" }, "geometry": { "type": "Point", "coordinates": [ -63.808594, -27.605671 ] } }
{"year": "AD407",  "type": "Feature", "tippecanoe": { "layer": "2AFCA0B950B81583916683113", "minzoom": 2, "maxzoom": 8 }, "properties": { "halo": 1.6, "title": "查鲁亚人", "fontsize": 12, "tyid": "304001", "oid": "103:1576575135651", "color": "#0056E7" }, "geometry": { "type": "Point", "coordinates": [ -57.128906, -32.398516 ] } }
{"year": "AD407",  "type": "Feature", "tippecanoe": { "layer": "2AFCA0B950B81583916683113", "minzoom": 2, "maxzoom": 8 }, "properties": { "halo": 1.6, "title": "特胡尔切人", "fontsize": 12, "tyid": "304001", "oid": "103:1576575136058", "color": "#0056E7" }, "geometry": { "type": "Point", "coordinates": [ -70.751953, -50.176898 ] } }
{"year": "AD407",  "type": "Feature", "tippecanoe": { "layer": "2AFCA0B950B81583916683113", "minzoom": 2, "maxzoom": 8 }, "properties": { "halo": 1.6, "title": "塞尔克南人", "fontsize": 12, "tyid": "304001", "oid": "103:1576575136112", "color": "#0056E7" }, "geometry": { "type": "Point", "coordinates": [ -68.378906, -53.696706 ] } }
{"year": "AD407",  "type": "Feature", "tippecanoe": { "layer": "2AFCA0B950B81583916683113", "minzoom": 2, "maxzoom": 8 }, "properties": { "halo": 1.6, "title": "雅干人", "fontsize": 12, "tyid": "304001", "oid": "103:1576575136071", "color": "#0056E7" }, "geometry": { "type": "Point", "coordinates": [ -68.554688, -54.521081 ] } }
{"year": "AD407",  "type": "Feature", "tippecanoe": { "layer": "2AFCA0B950B81583916683113", "minzoom": 2, "maxzoom": 8 }, "properties": { "halo": 1.6, "title": "朱特人", "fontsize": 12, "tyid": "304001", "oid": "103:1576575135700", "color": "#0056E7" }, "geometry": { "type": "Point", "coordinates": [ 9.316406, 56.267761 ] } }
{"year": "AD407",  "type": "Feature", "tippecanoe": { "layer": "2AFCA0B950B81583916683113", "minzoom": 2, "maxzoom": 8 }, "properties": { "halo": 1.6, "title": "耶阿特人", "fontsize": 12, "tyid": "304001", "oid": "103:1576575136133", "color": "#0056E7" }, "geometry": { "type": "Point", "coordinates": [ 13.710938, 57.657158 ] } }
{"year": "AD407",  "type": "Feature", "tippecanoe": { "layer": "2AFCA0B950B81583916683113", "minzoom": 2, "maxzoom": 8 }, "properties": { "halo": 1.6, "title": "赫鲁利人", "fontsize": 12, "tyid": "304001", "oid": "103:1576575135656", "color": "#0056E7" }, "geometry": { "type": "Point", "coordinates": [ 13.447266, 55.875311 ] } }
{"year": "AD407",  "type": "Feature", "tippecanoe": { "layer": "2AFCA0B950B81583916683113", "minzoom": 2, "maxzoom": 8 }, "properties": { "halo": 1.6, "title": "弗里西人", "fontsize": 12, "tyid": "304001", "oid": "103:1576575135866", "color": "#0056E7" }, "geometry": { "type": "Point", "coordinates": [ 6.240234, 52.696361 ] } }
{"year": "AD407",  "type": "Feature", "tippecanoe": { "layer": "2AFCA0B950B81583916683113", "minzoom": 2, "maxzoom": 8 }, "properties": { "halo": 1.6, "title": "萨克森人", "fontsize": 12, "tyid": "304001", "oid": "103:1576575135712", "color": "#0056E7" }, "geometry": { "type": "Point", "coordinates": [ 9.140625, 53.067627 ] } }
{"year": "AD407",  "type": "Feature", "tippecanoe": { "layer": "2AFCA0B950B81583916683113", "minzoom": 2, "maxzoom": 8 }, "properties": { "halo": 1.6, "title": "法兰克人", "fontsize": 12, "tyid": "304001", "oid": "103:1576575135868", "color": "#0056E7" }, "geometry": { "type": "Point", "coordinates": [ 7.822266, 50.958427 ] } }
{"year": "AD407",  "type": "Feature", "tippecanoe": { "layer": "2AFCA0B950B81583916683113", "minzoom": 2, "maxzoom": 8 }, "properties": { "halo": 1.6, "title": "图林根人", "fontsize": 12, "tyid": "304001", "oid": "103:1576575135873", "color": "#0056E7" }, "geometry": { "type": "Point", "coordinates": [ 10.810547, 51.179343 ] } }
{"year": "AD407",  "type": "Feature", "tippecanoe": { "layer": "2AFCA0B950B81583916683113", "minzoom": 2, "maxzoom": 8 }, "properties": { "halo": 1.6, "title": "苏维汇人", "fontsize": 12, "tyid": "304001", "oid": "103:1576575135918", "color": "#0056E7" }, "geometry": { "type": "Point", "coordinates": [ 10.810547, 49.152970 ] } }
{"year": "AD407",  "type": "Feature", "tippecanoe": { "layer": "2AFCA0B950B81583916683113", "minzoom": 2, "maxzoom": 8 }, "properties": { "halo": 1.8, "title": "阿勒曼尼亚", "fontsize": 12, "tyid": "304000", "oid": "103:1576575135915", "color": "#0056E7" }, "geometry": { "type": "Point", "coordinates": [ 8.701172, 48.748945 ] } }
{"year": "AD407",  "type": "Feature", "tippecanoe": { "layer": "2AFCA0B950B81583916683113", "minzoom": 2, "maxzoom": 8 }, "properties": { "halo": 1.6, "title": "色诺人", "fontsize": 12, "tyid": "304001", "oid": "103:1576575135638", "color": "#0056E7" }, "geometry": { "type": "Point", "coordinates": [ 12.568359, 53.488046 ] } }
{"year": "AD407",  "type": "Feature", "tippecanoe": { "layer": "2AFCA0B950B81583916683113", "minzoom": 2, "maxzoom": 8 }, "properties": { "halo": 1.6, "title": "鲁基人", "fontsize": 12, "tyid": "304001", "oid": "103:1576575135954", "color": "#0056E7" }, "geometry": { "type": "Point", "coordinates": [ 16.611328, 53.748711 ] } }
{"year": "AD407",  "type": "Feature", "tippecanoe": { "layer": "2AFCA0B950B81583916683113", "minzoom": 2, "maxzoom": 8 }, "properties": { "halo": 1.6, "title": "伦巴第人", "fontsize": 12, "tyid": "304001", "oid": "103:1576575135909", "color": "#0056E7" }, "geometry": { "type": "Point", "coordinates": [ 12.832031, 51.781436 ] } }
{"year": "AD407",  "type": "Feature", "tippecanoe": { "layer": "2AFCA0B950B81583916683113", "minzoom": 2, "maxzoom": 8 }, "properties": { "halo": 1.6, "title": "汪达尔人", "fontsize": 12, "tyid": "304001", "oid": "103:1576575135634", "color": "#0056E7" }, "geometry": { "type": "Point", "coordinates": [ 16.171875, 51.944265 ] } }
{"year": "AD407",  "type": "Feature", "tippecanoe": { "layer": "2AFCA0B950B81583916683113", "minzoom": 2, "maxzoom": 8 }, "properties": { "halo": 1.6, "title": "古普鲁士人", "fontsize": 12, "tyid": "304001", "oid": "103:1576575135637", "color": "#0056E7" }, "geometry": { "type": "Point", "coordinates": [ 20.390625, 54.110943 ] } }
{"year": "AD407",  "type": "Feature", "tippecanoe": { "layer": "2AFCA0B950B81583916683113", "minzoom": 2, "maxzoom": 8 }, "properties": { "halo": 1.6, "title": "阿兰人", "fontsize": 12, "tyid": "304001", "oid": "103:1576575135952", "color": "#0056E7" }, "geometry": { "type": "Point", "coordinates": [ 17.578125, 50.401515 ] } }
{"year": "AD407",  "type": "Feature", "tippecanoe": { "layer": "2AFCA0B950B81583916683113", "minzoom": 2, "maxzoom": 8 }, "properties": { "halo": 1.6, "title": "西里人", "fontsize": 12, "tyid": "304001", "oid": "103:1576575135905", "color": "#0056E7" }, "geometry": { "type": "Point", "coordinates": [ 21.357422, 49.553726 ] } }
{"year": "AD407",  "type": "Feature", "tippecanoe": { "layer": "2AFCA0B950B81583916683113", "minzoom": 2, "maxzoom": 8 }, "properties": { "halo": 1.6, "title": "埃阿热格人", "fontsize": 12, "tyid": "304001", "oid": "103:1576575135631", "color": "#0056E7" }, "geometry": { "type": "Point", "coordinates": [ 20.478516, 47.100045 ] } }
{"year": "AD407",  "type": "Feature", "tippecanoe": { "layer": "2AFCA0B950B81583916683113", "minzoom": 2, "maxzoom": 8 }, "properties": { "halo": 1.6, "title": "格皮德人", "fontsize": 12, "tyid": "304001", "oid": "103:1576575135632", "color": "#0056E7" }, "geometry": { "type": "Point", "coordinates": [ 21.796875, 45.521744 ] } }
{"year": "AD407",  "type": "Feature", "tippecanoe": { "layer": "2AFCA0B950B81583916683113", "minzoom": 2, "maxzoom": 8 }, "properties": { "halo": 1.6, "title": "古爱沙尼亚人", "fontsize": 12, "tyid": "304001", "oid": "103:1576575135799", "color": "#0056E7" }, "geometry": { "type": "Point", "coordinates": [ 25.576172, 58.995311 ] } }
{"year": "AD407",  "type": "Feature", "tippecanoe": { "layer": "2AFCA0B950B81583916683113", "minzoom": 2, "maxzoom": 8 }, "properties": { "halo": 1.6, "title": "利沃尼亚人", "fontsize": 12, "tyid": "304001", "oid": "103:1576575135668", "color": "#0056E7" }, "geometry": { "type": "Point", "coordinates": [ 26.191406, 58.077876 ] } }
{"year": "AD407",  "type": "Feature", "tippecanoe": { "layer": "2AFCA0B950B81583916683113", "minzoom": 2, "maxzoom": 8 }, "properties": { "halo": 1.6, "title": "古拉脱维亚人", "fontsize": 12, "tyid": "304001", "oid": "103:1576575135925", "color": "#0056E7" }, "geometry": { "type": "Point", "coordinates": [ 26.542969, 56.944974 ] } }
{"year": "AD407",  "type": "Feature", "tippecanoe": { "layer": "2AFCA0B950B81583916683113", "minzoom": 2, "maxzoom": 8 }, "properties": { "halo": 1.6, "title": "沃茨人", "fontsize": 12, "tyid": "304001", "oid": "103:1576575136108", "color": "#0056E7" }, "geometry": { "type": "Point", "coordinates": [ 29.794922, 59.040555 ] } }
{"year": "AD407",  "type": "Feature", "tippecanoe": { "layer": "2AFCA0B950B81583916683113", "minzoom": 2, "maxzoom": 8 }, "properties": { "halo": 1.6, "title": "古立陶宛人", "fontsize": 12, "tyid": "304001", "oid": "103:1576575136131", "color": "#0056E7" }, "geometry": { "type": "Point", "coordinates": [ 25.048828, 54.673831 ] } }
{"year": "AD407",  "type": "Feature", "tippecanoe": { "layer": "2AFCA0B950B81583916683113", "minzoom": 2, "maxzoom": 8 }, "properties": { "halo": 1.6, "title": "约特文基人", "fontsize": 12, "tyid": "304001", "oid": "103:1576575136161", "color": "#0056E7" }, "geometry": { "type": "Point", "coordinates": [ 23.027344, 53.956086 ] } }
{"year": "AD407",  "type": "Feature", "tippecanoe": { "layer": "2AFCA0B950B81583916683113", "minzoom": 2, "maxzoom": 8 }, "properties": { "halo": 1.6, "title": "东哥特人", "fontsize": 12, "tyid": "304001", "oid": "103:1576575135719", "color": "#0056E7" }, "geometry": { "type": "Point", "coordinates": [ 23.554688, 44.590467 ] } }
{"year": "AD407",  "type": "Feature", "tippecanoe": { "layer": "2AFCA0B950B81583916683113", "minzoom": 2, "maxzoom": 8 }, "properties": { "halo": 1.6, "title": "东加林迪亚人", "fontsize": 12, "tyid": "304001", "oid": "103:1576575135705", "color": "#0056E7" }, "geometry": { "type": "Point", "coordinates": [ 34.980469, 55.329144 ] } }
{"year": "AD407",  "type": "Feature", "tippecanoe": { "layer": "2AFCA0B950B81583916683113", "minzoom": 2, "maxzoom": 8 }, "properties": { "halo": 1.6, "title": "切尔克斯人", "fontsize": 12, "tyid": "304001", "oid": "103:1576575135948", "color": "#0056E7" }, "geometry": { "type": "Point", "coordinates": [ 41.308594, 44.213710 ] } }
{"year": "AD407",  "type": "Feature", "tippecanoe": { "layer": "2AFCA0B950B81583916683113", "minzoom": 2, "maxzoom": 8 }, "properties": { "halo": 1.8, "title": "拉基卡王国", "fontsize": 12, "tyid": "304000", "oid": "103:1576575136192", "color": "#0056E7" }, "geometry": { "type": "Point", "coordinates": [ 42.275391, 42.553080 ] } }
{"year": "AD407",  "type": "Feature", "tippecanoe": { "layer": "2AFCA0B950B81583916683113", "minzoom": 2, "maxzoom": 8 }, "properties": { "halo": 1.8, "title": "萨珊伊比利亚", "fontsize": 12, "tyid": "304000", "oid": "103:1576575136194", "color": "#0056E7" }, "geometry": { "type": "Point", "coordinates": [ 44.121094, 41.771312 ] } }
{"year": "AD407",  "type": "Feature", "tippecanoe": { "layer": "2AFCA0B950B81583916683113", "minzoom": 2, "maxzoom": 8 }, "properties": { "halo": 1.6, "title": "拉古阿坦部落联盟", "fontsize": 12, "tyid": "304001", "oid": "103:1576575136204", "color": "#0056E7" }, "geometry": { "type": "Point", "coordinates": [ 22.148438, 32.026706 ] } }
{"year": "AD407",  "type": "Feature", "tippecanoe": { "layer": "2AFCA0B950B81583916683113", "minzoom": 2, "maxzoom": 8 }, "properties": { "halo": 1.8, "title": "加拉曼特王国", "fontsize": 12, "tyid": "304000", "oid": "103:1576575135964", "color": "#0056E7" }, "geometry": { "type": "Point", "coordinates": [ 13.886719, 26.902477 ] } }
{"year": "AD407",  "type": "Feature", "tippecanoe": { "layer": "2AFCA0B950B81583916683113", "minzoom": 2, "maxzoom": 8 }, "properties": { "halo": 1.6, "title": "布拉-阿辛达-西卡文化", "fontsize": 12, "tyid": "304002", "oid": "103:1576575136019", "color": "#0056E7" }, "geometry": { "type": "Point", "coordinates": [ 1.757812, 12.983148 ] } }
{"year": "AD407",  "type": "Feature", "tippecanoe": { "layer": "2AFCA0B950B81583916683113", "minzoom": 2, "maxzoom": 8 }, "properties": { "halo": 1.6, "title": "约鲁巴人", "fontsize": 12, "tyid": "304001", "oid": "103:1576575136116", "color": "#0056E7" }, "geometry": { "type": "Point", "coordinates": [ 3.427734, 7.536764 ] } }
{"year": "AD407",  "type": "Feature", "tippecanoe": { "layer": "2AFCA0B950B81583916683113", "minzoom": 2, "maxzoom": 8 }, "properties": { "halo": 1.6, "title": "伊博人", "fontsize": 12, "tyid": "304001", "oid": "103:1576575136033", "color": "#0056E7" }, "geometry": { "type": "Point", "coordinates": [ 9.492188, 5.878332 ] } }
{"year": "AD407",  "type": "Feature", "tippecanoe": { "layer": "2AFCA0B950B81583916683113", "minzoom": 2, "maxzoom": 8 }, "properties": { "halo": 1.8, "title": "奥邦奥孔伊塔王国", "fontsize": 12, "tyid": "304000", "oid": "103:1576575135959", "color": "#0056E7" }, "geometry": { "type": "Point", "coordinates": [ 7.558594, 5.441022 ] } }
{"year": "AD407",  "type": "Feature", "tippecanoe": { "layer": "2AFCA0B950B81583916683113", "minzoom": 2, "maxzoom": 8 }, "properties": { "halo": 1.8, "title": "萨珊亚美尼亚", "fontsize": 12, "tyid": "304000", "oid": "103:1576575136191", "color": "#0056E7" }, "geometry": { "type": "Point", "coordinates": [ 43.505859, 39.639538 ] } }
{"year": "AD407",  "type": "Feature", "tippecanoe": { "layer": "2AFCA0B950B81583916683113", "minzoom": 2, "maxzoom": 8 }, "properties": { "halo": 1.6, "title": "阿兹贾夫纳部落", "fontsize": 12, "tyid": "304001", "oid": "103:1576575135723", "color": "#0056E7" }, "geometry": { "type": "Point", "coordinates": [ 38.759766, 31.653381 ] } }
{"year": "AD407",  "type": "Feature", "tippecanoe": { "layer": "2AFCA0B950B81583916683113", "minzoom": 2, "maxzoom": 8 }, "properties": { "halo": 1.6, "title": "赛莫德人", "fontsize": 12, "tyid": "304001", "oid": "103:1576575136115", "color": "#0056E7" }, "geometry": { "type": "Point", "coordinates": [ 37.441406, 27.059126 ] } }
{"year": "AD407",  "type": "Feature", "tippecanoe": { "layer": "2AFCA0B950B81583916683113", "minzoom": 2, "maxzoom": 8 }, "properties": { "halo": 1.6, "title": "赫多凡部落", "fontsize": 12, "tyid": "304001", "oid": "103:1576575136176", "color": "#0056E7" }, "geometry": { "type": "Point", "coordinates": [ 41.396484, 26.509905 ] } }
{"year": "AD407",  "type": "Feature", "tippecanoe": { "layer": "2AFCA0B950B81583916683113", "minzoom": 2, "maxzoom": 8 }, "properties": { "halo": 1.6, "title": "富尔人", "fontsize": 12, "tyid": "304001", "oid": "103:1576575136101", "color": "#0056E7" }, "geometry": { "type": "Point", "coordinates": [ 26.015625, 13.923404 ] } }
{"year": "AD407",  "type": "Feature", "tippecanoe": { "layer": "2AFCA0B950B81583916683113", "minzoom": 2, "maxzoom": 8 }, "properties": { "halo": 1.8, "title": "努贝舍王国", "fontsize": 12, "tyid": "304000", "oid": "103:1576575135801", "color": "#0056E7" }, "geometry": { "type": "Point", "coordinates": [ 31.640625, 21.943046 ] } }
{"year": "AD407",  "type": "Feature", "tippecanoe": { "layer": "2AFCA0B950B81583916683113", "minzoom": 2, "maxzoom": 8 }, "properties": { "halo": 1.8, "title": "马库里亚王国", "fontsize": 12, "tyid": "304000", "oid": "103:1576575135960", "color": "#0056E7" }, "geometry": { "type": "Point", "coordinates": [ 31.816406, 18.562947 ] } }
{"year": "AD407",  "type": "Feature", "tippecanoe": { "layer": "2AFCA0B950B81583916683113", "minzoom": 2, "maxzoom": 8 }, "properties": { "halo": 1.6, "title": "努比亚人", "fontsize": 12, "tyid": "304001", "oid": "103:1576575135734", "color": "#0056E7" }, "geometry": { "type": "Point", "coordinates": [ 31.904297, 16.045813 ] } }
{"year": "AD407",  "type": "Feature", "tippecanoe": { "layer": "2AFCA0B950B81583916683113", "minzoom": 2, "maxzoom": 8 }, "properties": { "halo": 1.6, "title": "马祖宁文化", "fontsize": 12, "tyid": "304002", "oid": "103:1576575135640", "color": "#0056E7" }, "geometry": { "type": "Point", "coordinates": [ 50.537109, 56.511018 ] } }
{"year": "AD407",  "type": "Feature", "tippecanoe": { "layer": "2AFCA0B950B81583916683113", "minzoom": 2, "maxzoom": 8 }, "properties": { "halo": 1.6, "title": "塞迦人", "fontsize": 12, "tyid": "304001", "oid": "103:1576575135803", "color": "#0056E7" }, "geometry": { "type": "Point", "coordinates": [ 54.667969, 43.004647 ] } }
{"year": "AD407",  "type": "Feature", "tippecanoe": { "layer": "2AFCA0B950B81583916683113", "minzoom": 2, "maxzoom": 8 }, "properties": { "halo": 1.8, "title": "阿夫里格王朝", "fontsize": 12, "tyid": "304000", "oid": "103:1576575136195", "color": "#0056E7" }, "geometry": { "type": "Point", "coordinates": [ 60.029297, 42.617791 ] } }
{"year": "AD407",  "type": "Feature", "tippecanoe": { "layer": "2AFCA0B950B81583916683113", "minzoom": 2, "maxzoom": 8 }, "properties": { "halo": 1.8, "title": "乌孙国", "fontsize": 12, "tyid": "304000", "oid": "103:1576575136156", "color": "#0056E7" }, "geometry": { "type": "Point", "coordinates": [ 80.068359, 42.358544 ] } }
{"year": "AD407",  "type": "Feature", "tippecanoe": { "layer": "2AFCA0B950B81583916683113", "minzoom": 2, "maxzoom": 8 }, "properties": { "halo": 1.8, "title": "焉耆国", "fontsize": 12, "tyid": "304000", "oid": "103:1576575136199", "color": "#0056E7" }, "geometry": { "type": "Point", "coordinates": [ 87.451172, 41.705729 ] } }
{"year": "AD407",  "type": "Feature", "tippecanoe": { "layer": "2AFCA0B950B81583916683113", "minzoom": 2, "maxzoom": 8 }, "properties": { "halo": 1.8, "title": "高加索阿尔巴尼亚王国", "fontsize": 12, "tyid": "304000", "oid": "103:1576575136205", "color": "#0056E7" }, "geometry": { "type": "Point", "coordinates": [ 46.845703, 40.647304 ] } }
{"year": "AD407",  "type": "Feature", "tippecanoe": { "layer": "2AFCA0B950B81583916683113", "minzoom": 2, "maxzoom": 8 }, "properties": { "halo": 1.6, "title": "阿兹达巴部落", "fontsize": 12, "tyid": "304001", "oid": "103:1576575136120", "color": "#0056E7" }, "geometry": { "type": "Point", "coordinates": [ 58.007812, 23.079732 ] } }
{"year": "AD407",  "type": "Feature", "tippecanoe": { "layer": "2AFCA0B950B81583916683113", "minzoom": 2, "maxzoom": 8 }, "properties": { "halo": 1.8, "title": "拔汗那国", "fontsize": 12, "tyid": "304000", "oid": "103:1576575136095", "color": "#0056E7" }, "geometry": { "type": "Point", "coordinates": [ 71.806641, 40.647304 ] } }
{"year": "AD407",  "type": "Feature", "tippecanoe": { "layer": "2AFCA0B950B81583916683113", "minzoom": 2, "maxzoom": 8 }, "properties": { "halo": 1.8, "title": "阿松匈奴国", "fontsize": 12, "tyid": "304000", "oid": "103:1576575136079", "color": "#0056E7" }, "geometry": { "type": "Point", "coordinates": [ 68.203125, 34.741612 ] } }
{"year": "AD407",  "type": "Feature", "tippecanoe": { "layer": "2AFCA0B950B81583916683113", "minzoom": 2, "maxzoom": 8 }, "properties": { "halo": 1.8, "title": "疏勒国", "fontsize": 12, "tyid": "304000", "oid": "103:1576575136179", "color": "#0056E7" }, "geometry": { "type": "Point", "coordinates": [ 74.003906, 38.548165 ] } }
{"year": "AD407",  "type": "Feature", "tippecanoe": { "layer": "2AFCA0B950B81583916683113", "minzoom": 2, "maxzoom": 8 }, "properties": { "halo": 1.8, "title": "勃律国", "fontsize": 12, "tyid": "304000", "oid": "103:1576575136163", "color": "#0056E7" }, "geometry": { "type": "Point", "coordinates": [ 74.794922, 35.603719 ] } }
{"year": "AD407",  "type": "Feature", "tippecanoe": { "layer": "2AFCA0B950B81583916683113", "minzoom": 2, "maxzoom": 8 }, "properties": { "halo": 1.8, "title": "磔迦国", "fontsize": 12, "tyid": "304000", "oid": "103:1576575135619", "color": "#0056E7" }, "geometry": { "type": "Point", "coordinates": [ 72.158203, 31.278551 ] } }
{"year": "AD407",  "type": "Feature", "tippecanoe": { "layer": "2AFCA0B950B81583916683113", "minzoom": 2, "maxzoom": 8 }, "properties": { "halo": 1.8, "title": "罗尔王朝", "fontsize": 12, "tyid": "304000", "oid": "103:1576575135830", "color": "#0056E7" }, "geometry": { "type": "Point", "coordinates": [ 68.466797, 26.588527 ] } }
{"year": "AD407",  "type": "Feature", "tippecanoe": { "layer": "2AFCA0B950B81583916683113", "minzoom": 2, "maxzoom": 8 }, "properties": { "halo": 1.8, "title": "龟兹国", "fontsize": 12, "tyid": "304000", "oid": "103:1576575136200", "color": "#0056E7" }, "geometry": { "type": "Point", "coordinates": [ 81.035156, 40.913513 ] } }
{"year": "AD407",  "type": "Feature", "tippecanoe": { "layer": "2AFCA0B950B81583916683113", "minzoom": 2, "maxzoom": 8 }, "properties": { "halo": 1.8, "title": "尼波罗国", "fontsize": 12, "tyid": "304000", "oid": "103:1576575135849", "color": "#0056E7" }, "geometry": { "type": "Point", "coordinates": [ 84.199219, 28.071980 ] } }
{"year": "AD407",  "type": "Feature", "tippecanoe": { "layer": "2AFCA0B950B81583916683113", "minzoom": 2, "maxzoom": 8 }, "properties": { "halo": 1.8, "title": "耽摩栗底国", "fontsize": 12, "tyid": "304000", "oid": "103:1576575135816", "color": "#0056E7" }, "geometry": { "type": "Point", "coordinates": [ 88.593750, 22.593726 ] } }
{"year": "AD407",  "type": "Feature", "tippecanoe": { "layer": "2AFCA0B950B81583916683113", "minzoom": 2, "maxzoom": 8 }, "properties": { "halo": 1.8, "title": "特里库塔卡王朝", "fontsize": 12, "tyid": "304000", "oid": "103:1576575136038", "color": "#0056E7" }, "geometry": { "type": "Point", "coordinates": [ 73.388672, 19.725342 ] } }
{"year": "AD407",  "type": "Feature", "tippecanoe": { "layer": "2AFCA0B950B81583916683113", "minzoom": 2, "maxzoom": 8 }, "properties": { "halo": 1.8, "title": "卡达姆巴王朝", "fontsize": 12, "tyid": "304000", "oid": "103:1576575135864", "color": "#0056E7" }, "geometry": { "type": "Point", "coordinates": [ 75.673828, 15.453680 ] } }
{"year": "AD407",  "type": "Feature", "tippecanoe": { "layer": "2AFCA0B950B81583916683113", "minzoom": 2, "maxzoom": 8 }, "properties": { "halo": 1.8, "title": "西恒伽王朝", "fontsize": 12, "tyid": "304000", "oid": "103:1576575136080", "color": "#0056E7" }, "geometry": { "type": "Point", "coordinates": [ 76.992188, 12.811801 ] } }
{"year": "AD407",  "type": "Feature", "tippecanoe": { "layer": "2AFCA0B950B81583916683113", "minzoom": 2, "maxzoom": 8 }, "properties": { "halo": 1.8, "title": "卡拉波拉王朝", "fontsize": 12, "tyid": "304000", "oid": "103:1576575136089", "color": "#0056E7" }, "geometry": { "type": "Point", "coordinates": [ 77.783203, 10.833306 ] } }
{"year": "AD407",  "type": "Feature", "tippecanoe": { "layer": "2AFCA0B950B81583916683113", "minzoom": 2, "maxzoom": 8 }, "properties": { "halo": 1.8, "title": "玛塔拉王朝", "fontsize": 12, "tyid": "304000", "oid": "103:1576575136159", "color": "#0056E7" }, "geometry": { "type": "Point", "coordinates": [ 84.814453, 20.055931 ] } }
{"year": "AD407",  "type": "Feature", "tippecanoe": { "layer": "2AFCA0B950B81583916683113", "minzoom": 2, "maxzoom": 8 }, "properties": { "halo": 1.8, "title": "阿努拉德普勒王国", "fontsize": 12, "tyid": "304000", "oid": "103:1576575135987", "color": "#0056E7" }, "geometry": { "type": "Point", "coordinates": [ 80.683594, 7.623887 ] } }
{"year": "AD407",  "type": "Feature", "tippecanoe": { "layer": "2AFCA0B950B81583916683113", "minzoom": 2, "maxzoom": 8 }, "properties": { "halo": 1.6, "title": "地豆于", "fontsize": 12, "tyid": "304001", "oid": "103:1576575135845", "color": "#0056E7" }, "geometry": { "type": "Point", "coordinates": [ 120.849609, 45.951150 ] } }
{"year": "AD407",  "type": "Feature", "tippecanoe": { "layer": "2AFCA0B950B81583916683113", "minzoom": 2, "maxzoom": 8 }, "properties": { "halo": 1.6, "title": "库莫奚", "fontsize": 12, "tyid": "304001", "oid": "103:1576575136078", "color": "#0056E7" }, "geometry": { "type": "Point", "coordinates": [ 118.652344, 43.261206 ] } }
{"year": "AD407",  "type": "Feature", "tippecanoe": { "layer": "2AFCA0B950B81583916683113", "minzoom": 2, "maxzoom": 8 }, "properties": { "halo": 1.8, "title": "北燕", "fontsize": 12, "tyid": "304000", "oid": "103:1576575135834", "color": "#0056E7" }, "geometry": { "type": "Point", "coordinates": [ 120.673828, 41.640078 ] } }
{"year": "AD407",  "type": "Feature", "tippecanoe": { "layer": "2AFCA0B950B81583916683113", "minzoom": 2, "maxzoom": 8 }, "properties": { "halo": 1.6, "title": "契丹", "fontsize": 12, "tyid": "304001", "oid": "103:1576575135838", "color": "#0056E7" }, "geometry": { "type": "Point", "coordinates": [ 121.816406, 43.897892 ] } }
{"year": "AD407",  "type": "Feature", "tippecanoe": { "layer": "2AFCA0B950B81583916683113", "minzoom": 2, "maxzoom": 8 }, "properties": { "halo": 1.8, "title": "扶余", "fontsize": 12, "tyid": "304000", "oid": "103:1576575135778", "color": "#0056E7" }, "geometry": { "type": "Point", "coordinates": [ 125.068359, 45.460131 ] } }
{"year": "AD407",  "type": "Feature", "tippecanoe": { "layer": "2AFCA0B950B81583916683113", "minzoom": 2, "maxzoom": 8 }, "properties": { "halo": 1.8, "title": "裨离国", "fontsize": 12, "tyid": "304000", "oid": "103:1576575136093", "color": "#0056E7" }, "geometry": { "type": "Point", "coordinates": [ 127.265625, 45.828799 ] } }
{"year": "AD407",  "type": "Feature", "tippecanoe": { "layer": "2AFCA0B950B81583916683113", "minzoom": 2, "maxzoom": 8 }, "properties": { "halo": 1.8, "title": "西凉", "fontsize": 12, "tyid": "304000", "oid": "103:1576575136042", "color": "#0056E7" }, "geometry": { "type": "Point", "coordinates": [ 95.361328, 40.580585 ] } }
{"year": "AD407",  "type": "Feature", "tippecanoe": { "layer": "2AFCA0B950B81583916683113", "minzoom": 2, "maxzoom": 8 }, "properties": { "halo": 1.8, "title": "北凉", "fontsize": 12, "tyid": "304000", "oid": "103:1576575135940", "color": "#0056E7" }, "geometry": { "type": "Point", "coordinates": [ 99.492188, 39.571822 ] } }
{"year": "AD407",  "type": "Feature", "tippecanoe": { "layer": "2AFCA0B950B81583916683113", "minzoom": 2, "maxzoom": 8 }, "properties": { "halo": 1.8, "title": "瓦曼王朝", "fontsize": 12, "tyid": "304000", "oid": "103:1576575135843", "color": "#0056E7" }, "geometry": { "type": "Point", "coordinates": [ 90.439453, 25.482951 ] } }
{"year": "AD407",  "type": "Feature", "tippecanoe": { "layer": "2AFCA0B950B81583916683113", "minzoom": 2, "maxzoom": 8 }, "properties": { "halo": 1.8, "title": "三摩呾吒国", "fontsize": 12, "tyid": "304000", "oid": "103:1576575136003", "color": "#0056E7" }, "geometry": { "type": "Point", "coordinates": [ 90.791016, 23.322080 ] } }
{"year": "AD407",  "type": "Feature", "tippecanoe": { "layer": "2AFCA0B950B81583916683113", "minzoom": 2, "maxzoom": 8 }, "properties": { "halo": 1.8, "title": "古曼尼普尔王国", "fontsize": 12, "tyid": "304000", "oid": "103:1576575136005", "color": "#0056E7" }, "geometry": { "type": "Point", "coordinates": [ 93.867188, 24.766785 ] } }
{"year": "AD407",  "type": "Feature", "tippecanoe": { "layer": "2AFCA0B950B81583916683113", "minzoom": 2, "maxzoom": 8 }, "properties": { "halo": 1.8, "title": "达瓦卡王国", "fontsize": 12, "tyid": "304000", "oid": "103:1576575136172", "color": "#0056E7" }, "geometry": { "type": "Point", "coordinates": [ 94.482422, 26.509905 ] } }
{"year": "AD407",  "type": "Feature", "tippecanoe": { "layer": "2AFCA0B950B81583916683113", "minzoom": 2, "maxzoom": 8 }, "properties": { "halo": 1.6, "title": "附国", "fontsize": 12, "tyid": "304001", "oid": "103:1576575136084", "color": "#0056E7" }, "geometry": { "type": "Point", "coordinates": [ 100.283203, 31.802893 ] } }
{"year": "AD407",  "type": "Feature", "tippecanoe": { "layer": "2AFCA0B950B81583916683113", "minzoom": 2, "maxzoom": 8 }, "properties": { "halo": 1.8, "title": "南凉", "fontsize": 12, "tyid": "304000", "oid": "103:1576575136147", "color": "#0056E7" }, "geometry": { "type": "Point", "coordinates": [ 101.689453, 36.949892 ] } }
{"year": "AD407",  "type": "Feature", "tippecanoe": { "layer": "2AFCA0B950B81583916683113", "minzoom": 2, "maxzoom": 8 }, "properties": { "halo": 1.8, "title": "后仇池", "fontsize": 12, "tyid": "304000", "oid": "103:1576575136149", "color": "#0056E7" }, "geometry": { "type": "Point", "coordinates": [ 104.765625, 33.578015 ] } }
{"year": "AD407",  "type": "Feature", "tippecanoe": { "layer": "2AFCA0B950B81583916683113", "minzoom": 2, "maxzoom": 8 }, "properties": { "halo": 1.6, "title": "谢氏", "fontsize": 12, "tyid": "304002", "oid": "103:1576575136209", "color": "#0056E7" }, "geometry": { "type": "Point", "coordinates": [ 107.226562, 26.273714 ] } }
{"year": "AD407",  "type": "Feature", "tippecanoe": { "layer": "2AFCA0B950B81583916683113", "minzoom": 2, "maxzoom": 8 }, "properties": { "halo": 1.8, "title": "达雅瓦底王国", "fontsize": 12, "tyid": "304000", "oid": "103:1576575135982", "color": "#0056E7" }, "geometry": { "type": "Point", "coordinates": [ 93.339844, 20.550509 ] } }
{"year": "AD407",  "type": "Feature", "tippecanoe": { "layer": "2AFCA0B950B81583916683113", "minzoom": 2, "maxzoom": 8 }, "properties": { "halo": 1.8, "title": "骠国", "fontsize": 12, "tyid": "304000", "oid": "103:1576575135622", "color": "#0056E7" }, "geometry": { "type": "Point", "coordinates": [ 95.888672, 21.125498 ] } }
{"year": "AD407",  "type": "Feature", "tippecanoe": { "layer": "2AFCA0B950B81583916683113", "minzoom": 2, "maxzoom": 8 }, "properties": { "halo": 1.8, "title": "直通王国", "fontsize": 12, "tyid": "304000", "oid": "103:1576575135624", "color": "#0056E7" }, "geometry": { "type": "Point", "coordinates": [ 96.152344, 17.140790 ] } }
{"year": "AD407",  "type": "Feature", "tippecanoe": { "layer": "2AFCA0B950B81583916683113", "minzoom": 2, "maxzoom": 8 }, "properties": { "halo": 1.8, "title": "盘盘国", "fontsize": 12, "tyid": "304000", "oid": "103:1576575135626", "color": "#0056E7" }, "geometry": { "type": "Point", "coordinates": [ 99.404297, 8.581021 ] } }
{"year": "AD407",  "type": "Feature", "tippecanoe": { "layer": "2AFCA0B950B81583916683113", "minzoom": 2, "maxzoom": 8 }, "properties": { "halo": 1.8, "title": "真腊王国", "fontsize": 12, "tyid": "304000", "oid": "103:1576575135936", "color": "#0056E7" }, "geometry": { "type": "Point", "coordinates": [ 106.259766, 13.923404 ] } }
{"year": "AD407",  "type": "Feature", "tippecanoe": { "layer": "2AFCA0B950B81583916683113", "minzoom": 2, "maxzoom": 8 }, "properties": { "halo": 1.8, "title": "林邑国", "fontsize": 12, "tyid": "304000", "oid": "103:1576575135863", "color": "#0056E7" }, "geometry": { "type": "Point", "coordinates": [ 108.632812, 14.264383 ] } }
{"year": "AD407",  "type": "Feature", "tippecanoe": { "layer": "2AFCA0B950B81583916683113", "minzoom": 2, "maxzoom": 8 }, "properties": { "halo": 1.8, "title": "赤土国", "fontsize": 12, "tyid": "304000", "oid": "103:1576575135889", "color": "#0056E7" }, "geometry": { "type": "Point", "coordinates": [ 102.128906, 5.441022 ] } }
{"year": "AD407",  "type": "Feature", "tippecanoe": { "layer": "2AFCA0B950B81583916683113", "minzoom": 2, "maxzoom": 8 }, "properties": { "halo": 1.8, "title": "南燕", "fontsize": 12, "tyid": "304000", "oid": "103:1576575136039", "color": "#0056E7" }, "geometry": { "type": "Point", "coordinates": [ 118.388672, 36.244273 ] } }
{"year": "AD407",  "type": "Feature", "tippecanoe": { "layer": "2AFCA0B950B81583916683113", "minzoom": 2, "maxzoom": 8 }, "properties": { "halo": 1.8, "title": "百济", "fontsize": 12, "tyid": "304000", "oid": "103:1576575136169", "color": "#0056E7" }, "geometry": { "type": "Point", "coordinates": [ 127.529297, 36.527295 ] } }
{"year": "AD407",  "type": "Feature", "tippecanoe": { "layer": "2AFCA0B950B81583916683113", "minzoom": 2, "maxzoom": 8 }, "properties": { "halo": 1.8, "title": "新罗", "fontsize": 12, "tyid": "304000", "oid": "103:1576575136092", "color": "#0056E7" }, "geometry": { "type": "Point", "coordinates": [ 128.759766, 36.315125 ] } }
{"year": "AD407",  "type": "Feature", "tippecanoe": { "layer": "2AFCA0B950B81583916683113", "minzoom": 2, "maxzoom": 8 }, "properties": { "halo": 1.6, "title": "尼夫赫人", "fontsize": 12, "tyid": "304001", "oid": "103:1576575135793", "color": "#0056E7" }, "geometry": { "type": "Point", "coordinates": [ 142.646484, 50.345460 ] } }
{"year": "AD407",  "type": "Feature", "tippecanoe": { "layer": "2AFCA0B950B81583916683113", "minzoom": 2, "maxzoom": 8 }, "properties": { "halo": 1.6, "title": "绳文人", "fontsize": 12, "tyid": "304001", "oid": "103:1576575135934", "color": "#0056E7" }, "geometry": { "type": "Point", "coordinates": [ 142.558594, 43.389082 ] } }
{"year": "AD407",  "type": "Feature", "tippecanoe": { "layer": "2AFCA0B950B81583916683113", "minzoom": 2, "maxzoom": 8 }, "properties": { "halo": 1.8, "title": "日高见国", "fontsize": 12, "tyid": "304000", "oid": "103:1576575136165", "color": "#0056E7" }, "geometry": { "type": "Point", "coordinates": [ 140.712891, 39.504041 ] } }
{"year": "AD407",  "type": "Feature", "tippecanoe": { "layer": "2AFCA0B950B81583916683113", "minzoom": 2, "maxzoom": 8 }, "properties": { "halo": 1.6, "title": "乌莱维文明", "fontsize": 12, "tyid": "304002", "oid": "103:1576575136024", "color": "#0056E7" }, "geometry": { "type": "Point", "coordinates": [ 29.882812, -2.547988 ] } }
{"year": "AD407",  "type": "Feature", "tippecanoe": { "layer": "2AFCA0B950B81583916683113", "minzoom": 2, "maxzoom": 8 }, "properties": { "halo": 1.6, "title": "艾布兰文化五期", "fontsize": 12, "tyid": "304002", "oid": "103:1576575136034", "color": "#0056E7" }, "geometry": { "type": "Point", "coordinates": [ 36.474609, -0.175781 ] } }
{"year": "AD407",  "type": "Feature", "tippecanoe": { "layer": "2AFCA0B950B81583916683113", "minzoom": 2, "maxzoom": 8 }, "properties": { "halo": 1.8, "title": "末罗瑜王国", "fontsize": 12, "tyid": "304000", "oid": "103:1576575136096", "color": "#0056E7" }, "geometry": { "type": "Point", "coordinates": [ 103.623047, -2.460181 ] } }
{"year": "AD407",  "type": "Feature", "tippecanoe": { "layer": "2AFCA0B950B81583916683113", "minzoom": 2, "maxzoom": 8 }, "properties": { "halo": 1.8, "title": "库泰王国", "fontsize": 12, "tyid": "304000", "oid": "103:1576575136173", "color": "#0056E7" }, "geometry": { "type": "Point", "coordinates": [ 116.191406, 0.000000 ] } }
{"year": "AD407",  "type": "Feature", "tippecanoe": { "layer": "2AFCA0B950B81583916683113", "minzoom": 2, "maxzoom": 8 }, "properties": { "halo": 1.6, "title": "巴拉瓦人", "fontsize": 12, "tyid": "304001", "oid": "103:1576575135981", "color": "#0056E7" }, "geometry": { "type": "Point", "coordinates": [ 146.513672, -41.967659 ] } }
{"year": "AD407",  "type": "Feature", "tippecanoe": { "layer": "2AFCA0B954381583916683104", "minzoom": 2, "maxzoom": 8 }, "properties": { "halo": 0.8, "title": "图勒人", "fontsize": 12, "tyid": "304001", "oid": "103:1576575136070", "color": "#262626" }, "geometry": { "type": "Point", "coordinates": [ -130.781250, 68.942607 ] } }
{"year": "AD407",  "type": "Feature", "tippecanoe": { "layer": "2AFCA0B954381583916683104", "minzoom": 2, "maxzoom": 8 }, "properties": { "halo": 0.8, "title": "诺顿文化", "fontsize": 12, "tyid": "304002", "oid": "103:1576575135854", "color": "#262626" }, "geometry": { "type": "Point", "coordinates": [ -163.740234, 65.330178 ] } }
{"year": "AD407",  "type": "Feature", "tippecanoe": { "layer": "2AFCA0B954381583916683104", "minzoom": 2, "maxzoom": 8 }, "properties": { "halo": 0.8, "title": "尤皮克人", "fontsize": 12, "tyid": "304001", "oid": "103:1576575136113", "color": "#262626" }, "geometry": { "type": "Point", "coordinates": [ -159.169922, 60.630102 ] } }
{"year": "AD407",  "type": "Feature", "tippecanoe": { "layer": "2AFCA0B954381583916683104", "minzoom": 2, "maxzoom": 8 }, "properties": { "halo": 0.8, "title": "因纽皮雅特人", "fontsize": 12, "tyid": "304001", "oid": "103:1576575135975", "color": "#262626" }, "geometry": { "type": "Point", "coordinates": [ -150.908203, 65.476508 ] } }
{"year": "AD407",  "type": "Feature", "tippecanoe": { "layer": "2AFCA0B954381583916683104", "minzoom": 2, "maxzoom": 8 }, "properties": { "halo": 0.8, "title": "阿留申人", "fontsize": 12, "tyid": "304001", "oid": "103:1576575136177", "color": "#262626" }, "geometry": { "type": "Point", "coordinates": [ -152.226562, 61.312452 ] } }
{"year": "AD407",  "type": "Feature", "tippecanoe": { "layer": "2AFCA0B954381583916683104", "minzoom": 2, "maxzoom": 8 }, "properties": { "halo": 0.8, "title": "泰萨勒页岩文化", "fontsize": 12, "tyid": "304002", "oid": "103:1576575135754", "color": "#262626" }, "geometry": { "type": "Point", "coordinates": [ -101.865234, 56.511018 ] } }
{"year": "AD407",  "type": "Feature", "tippecanoe": { "layer": "2AFCA0B954381583916683104", "minzoom": 2, "maxzoom": 8 }, "properties": { "halo": 0.8, "title": "因纽特人", "fontsize": 12, "tyid": "304001", "oid": "103:1576575135827", "color": "#262626" }, "geometry": { "type": "Point", "coordinates": [ -100.195312, 65.802776 ] } }
{"year": "AD407",  "type": "Feature", "tippecanoe": { "layer": "2AFCA0B954381583916683104", "minzoom": 2, "maxzoom": 8 }, "properties": { "halo": 0.8, "title": "坎贝尔文化", "fontsize": 12, "tyid": "304002", "oid": "103:1576575135663", "color": "#262626" }, "geometry": { "type": "Point", "coordinates": [ -121.289062, 38.685510 ] } }
{"year": "AD407",  "type": "Feature", "tippecanoe": { "layer": "2AFCA0B954381583916683104", "minzoom": 2, "maxzoom": 8 }, "properties": { "halo": 0.8, "title": "玛雅文明[古典时期]", "fontsize": 12, "tyid": "304000", "oid": "103:1576575135654", "color": "#202020" }, "geometry": { "type": "Point", "coordinates": [ -90.439453, 17.644022 ] } }
{"year": "AD407",  "type": "Feature", "tippecanoe": { "layer": "2AFCA0B954381583916683104", "minzoom": 2, "maxzoom": 8 }, "properties": { "halo": 0.8, "title": "多赛特文化", "fontsize": 12, "tyid": "304002", "oid": "103:1576575135646", "color": "#262626" }, "geometry": { "type": "Point", "coordinates": [ -69.960938, 66.652977 ] } }
{"year": "AD407",  "type": "Feature", "tippecanoe": { "layer": "2AFCA0B954381583916683104", "minzoom": 2, "maxzoom": 8 }, "properties": { "halo": 0.8, "title": "劳雷尔文化", "fontsize": 12, "tyid": "304002", "oid": "103:1576575135888", "color": "#262626" }, "geometry": { "type": "Point", "coordinates": [ -83.759766, 47.338823 ] } }
{"year": "AD407",  "type": "Feature", "tippecanoe": { "layer": "2AFCA0B954381583916683104", "minzoom": 2, "maxzoom": 8 }, "properties": { "halo": 0.8, "title": "波茵特半岛文化", "fontsize": 12, "tyid": "304002", "oid": "103:1576575136098", "color": "#262626" }, "geometry": { "type": "Point", "coordinates": [ -76.816406, 45.336702 ] } }
{"year": "AD407",  "type": "Feature", "tippecanoe": { "layer": "2AFCA0B954381583916683104", "minzoom": 2, "maxzoom": 8 }, "properties": { "halo": 0.8, "title": "古海洋文化", "fontsize": 12, "tyid": "304002", "oid": "103:1576575136013", "color": "#262626" }, "geometry": { "type": "Point", "coordinates": [ -66.972656, 46.920255 ] } }
{"year": "AD407",  "type": "Feature", "tippecanoe": { "layer": "2AFCA0B954381583916683104", "minzoom": 2, "maxzoom": 8 }, "properties": { "halo": 0.8, "title": "巴富尔人", "fontsize": 12, "tyid": "304001", "oid": "103:1576575135673", "color": "#262626" }, "geometry": { "type": "Point", "coordinates": [ -8.261719, 22.836946 ] } }
{"year": "AD407",  "type": "Feature", "tippecanoe": { "layer": "2AFCA0B954381583916683104", "minzoom": 2, "maxzoom": 8 }, "properties": { "halo": 0.8, "title": "柏柏尔人诸部", "fontsize": 12, "tyid": "304001", "oid": "103:1576575136063", "color": "#262626" }, "geometry": { "type": "Point", "coordinates": [ -0.087891, 29.458731 ] } }
{"year": "AD407",  "type": "Feature", "tippecanoe": { "layer": "2AFCA0B954381583916683104", "minzoom": 2, "maxzoom": 8 }, "properties": { "halo": 0.8, "title": "索宁克人", "fontsize": 12, "tyid": "304001", "oid": "103:1576575136048", "color": "#262626" }, "geometry": { "type": "Point", "coordinates": [ -13.886719, 18.229351 ] } }
{"year": "AD407",  "type": "Feature", "tippecanoe": { "layer": "2AFCA0B954381583916683104", "minzoom": 2, "maxzoom": 8 }, "properties": { "halo": 0.8, "title": "曼德人", "fontsize": 12, "tyid": "304001", "oid": "103:1576575135647", "color": "#262626" }, "geometry": { "type": "Point", "coordinates": [ -6.855469, 8.320212 ] } }
{"year": "AD407",  "type": "Feature", "tippecanoe": { "layer": "2AFCA0B954381583916683104", "minzoom": 2, "maxzoom": 8 }, "properties": { "halo": 0.8, "title": "昌戈人", "fontsize": 12, "tyid": "304001", "oid": "103:1576575135865", "color": "#262626" }, "geometry": { "type": "Point", "coordinates": [ -69.257812, -23.402765 ] } }
{"year": "AD407",  "type": "Feature", "tippecanoe": { "layer": "2AFCA0B954381583916683104", "minzoom": 2, "maxzoom": 8 }, "properties": { "halo": 0.8, "title": "沙内斯人", "fontsize": 12, "tyid": "304001", "oid": "103:1576575136130", "color": "#262626" }, "geometry": { "type": "Point", "coordinates": [ -66.269531, -21.616579 ] } }
{"year": "AD407",  "type": "Feature", "tippecanoe": { "layer": "2AFCA0B954381583916683104", "minzoom": 2, "maxzoom": 8 }, "properties": { "halo": 0.8, "title": "图皮人", "fontsize": 12, "tyid": "304001", "oid": "103:1576575136102", "color": "#262626" }, "geometry": { "type": "Point", "coordinates": [ -41.132812, -19.228177 ] } }
{"year": "AD407",  "type": "Feature", "tippecanoe": { "layer": "2AFCA0B954381583916683104", "minzoom": 2, "maxzoom": 8 }, "properties": { "halo": 0.8, "title": "萨米人", "fontsize": 12, "tyid": "304001", "oid": "103:1576575136056", "color": "#262626" }, "geometry": { "type": "Point", "coordinates": [ 25.400391, 68.171555 ] } }
{"year": "AD407",  "type": "Feature", "tippecanoe": { "layer": "2AFCA0B954381583916683104", "minzoom": 2, "maxzoom": 8 }, "properties": { "halo": 0.8, "title": "原始日耳曼人", "fontsize": 12, "tyid": "304001", "oid": "103:1576575135706", "color": "#262626" }, "geometry": { "type": "Point", "coordinates": [ 8.437500, 60.500525 ] } }
{"year": "AD407",  "type": "Feature", "tippecanoe": { "layer": "2AFCA0B954381583916683104", "minzoom": 2, "maxzoom": 8 }, "properties": { "halo": 0.8, "title": "古瑞典人", "fontsize": 12, "tyid": "304001", "oid": "103:1576575136140", "color": "#262626" }, "geometry": { "type": "Point", "coordinates": [ 15.820312, 61.312452 ] } }
{"year": "AD407",  "type": "Feature", "tippecanoe": { "layer": "2AFCA0B954381583916683104", "minzoom": 2, "maxzoom": 8 }, "properties": { "halo": 0.8, "title": "西罗马帝国", "fontsize": 12, "tyid": "304000", "oid": "103:1576575135627", "color": "#202020" }, "geometry": { "type": "Point", "coordinates": [ 5.449219, 47.576526 ] } }
{"year": "AD407",  "type": "Feature", "tippecanoe": { "layer": "2AFCA0B954381583916683104", "minzoom": 2, "maxzoom": 8 }, "properties": { "halo": 0.8, "title": "芬尼人", "fontsize": 12, "tyid": "304001", "oid": "103:1576575135660", "color": "#262626" }, "geometry": { "type": "Point", "coordinates": [ 29.970703, 64.510643 ] } }
{"year": "AD407",  "type": "Feature", "tippecanoe": { "layer": "2AFCA0B954381583916683104", "minzoom": 2, "maxzoom": 8 }, "properties": { "halo": 0.8, "title": "第聂伯河波罗的人", "fontsize": 12, "tyid": "304001", "oid": "103:1576575135923", "color": "#262626" }, "geometry": { "type": "Point", "coordinates": [ 32.519531, 56.992883 ] } }
{"year": "AD407",  "type": "Feature", "tippecanoe": { "layer": "2AFCA0B954381583916683104", "minzoom": 2, "maxzoom": 8 }, "properties": { "halo": 0.8, "title": "斯拉夫人", "fontsize": 12, "tyid": "304001", "oid": "103:1576575135944", "color": "#262626" }, "geometry": { "type": "Point", "coordinates": [ 27.158203, 52.052490 ] } }
{"year": "AD407",  "type": "Feature", "tippecanoe": { "layer": "2AFCA0B954381583916683104", "minzoom": 2, "maxzoom": 8 }, "properties": { "halo": 0.8, "title": "伏尔加芬兰人", "fontsize": 12, "tyid": "304001", "oid": "103:1576575135739", "color": "#262626" }, "geometry": { "type": "Point", "coordinates": [ 42.187500, 55.727110 ] } }
{"year": "AD407",  "type": "Feature", "tippecanoe": { "layer": "2AFCA0B954381583916683104", "minzoom": 2, "maxzoom": 8 }, "properties": { "halo": 0.8, "title": "匈人", "fontsize": 12, "tyid": "304001", "oid": "103:1576575135685", "color": "#262626" }, "geometry": { "type": "Point", "coordinates": [ 42.714844, 48.283193 ] } }
{"year": "AD407",  "type": "Feature", "tippecanoe": { "layer": "2AFCA0B954381583916683104", "minzoom": 2, "maxzoom": 8 }, "properties": { "halo": 0.8, "title": "加拉曼特人", "fontsize": 12, "tyid": "304001", "oid": "103:1576575135808", "color": "#262626" }, "geometry": { "type": "Point", "coordinates": [ 18.720703, 26.980829 ] } }
{"year": "AD407",  "type": "Feature", "tippecanoe": { "layer": "2AFCA0B954381583916683104", "minzoom": 2, "maxzoom": 8 }, "properties": { "halo": 0.8, "title": "图阿雷格人", "fontsize": 12, "tyid": "304001", "oid": "103:1576575135899", "color": "#262626" }, "geometry": { "type": "Point", "coordinates": [ 5.537109, 20.385825 ] } }
{"year": "AD407",  "type": "Feature", "tippecanoe": { "layer": "2AFCA0B954381583916683104", "minzoom": 2, "maxzoom": 8 }, "properties": { "halo": 0.8, "title": "豪萨人", "fontsize": 12, "tyid": "304001", "oid": "103:1576575135907", "color": "#262626" }, "geometry": { "type": "Point", "coordinates": [ 7.031250, 13.496473 ] } }
{"year": "AD407",  "type": "Feature", "tippecanoe": { "layer": "2AFCA0B954381583916683104", "minzoom": 2, "maxzoom": 8 }, "properties": { "halo": 0.8, "title": "诺克文化", "fontsize": 12, "tyid": "304002", "oid": "103:1576575136067", "color": "#262626" }, "geometry": { "type": "Point", "coordinates": [ 7.119141, 9.709057 ] } }
{"year": "AD407",  "type": "Feature", "tippecanoe": { "layer": "2AFCA0B954381583916683104", "minzoom": 2, "maxzoom": 8 }, "properties": { "halo": 0.8, "title": "萨奥文明", "fontsize": 12, "tyid": "304002", "oid": "103:1576575135674", "color": "#262626" }, "geometry": { "type": "Point", "coordinates": [ 14.941406, 13.239945 ] } }
{"year": "AD407",  "type": "Feature", "tippecanoe": { "layer": "2AFCA0B954381583916683104", "minzoom": 2, "maxzoom": 8 }, "properties": { "halo": 0.8, "title": "巴卡人", "fontsize": 12, "tyid": "304001", "oid": "103:1576575136054", "color": "#262626" }, "geometry": { "type": "Point", "coordinates": [ 18.105469, 5.878332 ] } }
{"year": "AD407",  "type": "Feature", "tippecanoe": { "layer": "2AFCA0B954381583916683104", "minzoom": 2, "maxzoom": 8 }, "properties": { "halo": 0.8, "title": "东罗马帝国", "fontsize": 12, "tyid": "304000", "oid": "103:1576575135942", "color": "#202020" }, "geometry": { "type": "Point", "coordinates": [ 39.375000, 37.926868 ] } }
{"year": "AD407",  "type": "Feature", "tippecanoe": { "layer": "2AFCA0B954381583916683104", "minzoom": 2, "maxzoom": 8 }, "properties": { "halo": 0.8, "title": "拉赫姆王国", "fontsize": 12, "tyid": "304000", "oid": "103:1576575135711", "color": "#202020" }, "geometry": { "type": "Point", "coordinates": [ 42.451172, 31.802893 ] } }
{"year": "AD407",  "type": "Feature", "tippecanoe": { "layer": "2AFCA0B954381583916683104", "minzoom": 2, "maxzoom": 8 }, "properties": { "halo": 0.8, "title": "肯德部落", "fontsize": 12, "tyid": "304001", "oid": "103:1576575135761", "color": "#262626" }, "geometry": { "type": "Point", "coordinates": [ 43.066406, 22.024546 ] } }
{"year": "AD407",  "type": "Feature", "tippecanoe": { "layer": "2AFCA0B954381583916683104", "minzoom": 2, "maxzoom": 8 }, "properties": { "halo": 0.8, "title": "北非贝都因人", "fontsize": 12, "tyid": "304001", "oid": "103:1576575135742", "color": "#262626" }, "geometry": { "type": "Point", "coordinates": [ 22.675781, 20.961440 ] } }
{"year": "AD407",  "type": "Feature", "tippecanoe": { "layer": "2AFCA0B954381583916683104", "minzoom": 2, "maxzoom": 8 }, "properties": { "halo": 0.8, "title": "札加瓦人", "fontsize": 12, "tyid": "304001", "oid": "103:1576575135950", "color": "#262626" }, "geometry": { "type": "Point", "coordinates": [ 22.763672, 15.792254 ] } }
{"year": "AD407",  "type": "Feature", "tippecanoe": { "layer": "2AFCA0B954381583916683104", "minzoom": 2, "maxzoom": 8 }, "properties": { "halo": 0.8, "title": "达优人", "fontsize": 12, "tyid": "304001", "oid": "103:1576575135901", "color": "#262626" }, "geometry": { "type": "Point", "coordinates": [ 29.091797, 11.005904 ] } }
{"year": "AD407",  "type": "Feature", "tippecanoe": { "layer": "2AFCA0B954381583916683104", "minzoom": 2, "maxzoom": 8 }, "properties": { "halo": 0.8, "title": "尼罗特人", "fontsize": 12, "tyid": "304001", "oid": "103:1576575136106", "color": "#262626" }, "geometry": { "type": "Point", "coordinates": [ 32.958984, 2.547988 ] } }
{"year": "AD407",  "type": "Feature", "tippecanoe": { "layer": "2AFCA0B954381583916683104", "minzoom": 2, "maxzoom": 8 }, "properties": { "halo": 0.8, "title": "阿克苏姆王国", "fontsize": 12, "tyid": "304000", "oid": "103:1576575135798", "color": "#202020" }, "geometry": { "type": "Point", "coordinates": [ 37.265625, 14.434680 ] } }
{"year": "AD407",  "type": "Feature", "tippecanoe": { "layer": "2AFCA0B954381583916683104", "minzoom": 2, "maxzoom": 8 }, "properties": { "halo": 0.8, "title": "卢欧诸部", "fontsize": 12, "tyid": "304001", "oid": "103:1576575135756", "color": "#262626" }, "geometry": { "type": "Point", "coordinates": [ 35.947266, 7.885147 ] } }
{"year": "AD407",  "type": "Feature", "tippecanoe": { "layer": "2AFCA0B954381583916683104", "minzoom": 2, "maxzoom": 8 }, "properties": { "halo": 0.8, "title": "库希特人", "fontsize": 12, "tyid": "304001", "oid": "103:1576575136035", "color": "#262626" }, "geometry": { "type": "Point", "coordinates": [ 44.736328, 5.703448 ] } }
{"year": "AD407",  "type": "Feature", "tippecanoe": { "layer": "2AFCA0B954381583916683104", "minzoom": 2, "maxzoom": 8 }, "properties": { "halo": 0.8, "title": "阿扎尼亚诸城邦", "fontsize": 12, "tyid": "304002", "oid": "103:1576575135806", "color": "#262626" }, "geometry": { "type": "Point", "coordinates": [ 40.693359, 1.142502 ] } }
{"year": "AD407",  "type": "Feature", "tippecanoe": { "layer": "2AFCA0B954381583916683104", "minzoom": 2, "maxzoom": 8 }, "properties": { "halo": 0.8, "title": "阿泽拉文化", "fontsize": 12, "tyid": "304002", "oid": "103:1576575135661", "color": "#262626" }, "geometry": { "type": "Point", "coordinates": [ 49.482422, 59.756395 ] } }
{"year": "AD407",  "type": "Feature", "tippecanoe": { "layer": "2AFCA0B954381583916683104", "minzoom": 2, "maxzoom": 8 }, "properties": { "halo": 0.8, "title": "彼尔姆人", "fontsize": 12, "tyid": "304001", "oid": "103:1576575135667", "color": "#262626" }, "geometry": { "type": "Point", "coordinates": [ 55.634766, 57.657158 ] } }
{"year": "AD407",  "type": "Feature", "tippecanoe": { "layer": "2AFCA0B954381583916683104", "minzoom": 2, "maxzoom": 8 }, "properties": { "halo": 0.8, "title": "东马扎尔人", "fontsize": 12, "tyid": "304001", "oid": "103:1576575136068", "color": "#262626" }, "geometry": { "type": "Point", "coordinates": [ 59.238281, 61.396719 ] } }
{"year": "AD407",  "type": "Feature", "tippecanoe": { "layer": "2AFCA0B954381583916683104", "minzoom": 2, "maxzoom": 8 }, "properties": { "halo": 0.8, "title": "伊曼科夫文化", "fontsize": 12, "tyid": "304002", "oid": "103:1576575135822", "color": "#262626" }, "geometry": { "type": "Point", "coordinates": [ 49.042969, 54.007769 ] } }
{"year": "AD407",  "type": "Feature", "tippecanoe": { "layer": "2AFCA0B954381583916683104", "minzoom": 2, "maxzoom": 8 }, "properties": { "halo": 0.8, "title": "巴赫穆廷诺文化", "fontsize": 12, "tyid": "304002", "oid": "103:1576575135679", "color": "#262626" }, "geometry": { "type": "Point", "coordinates": [ 55.634766, 53.120405 ] } }
{"year": "AD407",  "type": "Feature", "tippecanoe": { "layer": "2AFCA0B954381583916683104", "minzoom": 2, "maxzoom": 8 }, "properties": { "halo": 0.8, "title": "匈尼特人", "fontsize": 12, "tyid": "304001", "oid": "103:1576575136152", "color": "#262626" }, "geometry": { "type": "Point", "coordinates": [ 66.972656, 43.325178 ] } }
{"year": "AD407",  "type": "Feature", "tippecanoe": { "layer": "2AFCA0B954381583916683104", "minzoom": 2, "maxzoom": 8 }, "properties": { "halo": 0.8, "title": "汉特人", "fontsize": 12, "tyid": "304001", "oid": "103:1576575135709", "color": "#262626" }, "geometry": { "type": "Point", "coordinates": [ 70.048828, 61.606396 ] } }
{"year": "AD407",  "type": "Feature", "tippecanoe": { "layer": "2AFCA0B954381583916683104", "minzoom": 2, "maxzoom": 8 }, "properties": { "halo": 0.8, "title": "曼西人", "fontsize": 12, "tyid": "304001", "oid": "103:1576575136142", "color": "#262626" }, "geometry": { "type": "Point", "coordinates": [ 67.675781, 57.562995 ] } }
{"year": "AD407",  "type": "Feature", "tippecanoe": { "layer": "2AFCA0B954381583916683104", "minzoom": 2, "maxzoom": 8 }, "properties": { "halo": 0.8, "title": "萨莫耶德人", "fontsize": 12, "tyid": "304001", "oid": "103:1576575136046", "color": "#262626" }, "geometry": { "type": "Point", "coordinates": [ 82.441406, 58.585436 ] } }
{"year": "AD407",  "type": "Feature", "tippecanoe": { "layer": "2AFCA0B954381583916683104", "minzoom": 2, "maxzoom": 8 }, "properties": { "halo": 0.8, "title": "萨迦蒂安文化", "fontsize": 12, "tyid": "304002", "oid": "103:1576575136153", "color": "#262626" }, "geometry": { "type": "Point", "coordinates": [ 68.115234, 53.014783 ] } }
{"year": "AD407",  "type": "Feature", "tippecanoe": { "layer": "2AFCA0B954381583916683104", "minzoom": 2, "maxzoom": 8 }, "properties": { "halo": 0.8, "title": "康居国", "fontsize": 12, "tyid": "304001", "oid": "103:1576575136065", "color": "#262626" }, "geometry": { "type": "Point", "coordinates": [ 68.466797, 47.989922 ] } }
{"year": "AD407",  "type": "Feature", "tippecanoe": { "layer": "2AFCA0B954381583916683104", "minzoom": 2, "maxzoom": 8 }, "properties": { "halo": 0.8, "title": "悦般国", "fontsize": 12, "tyid": "304000", "oid": "103:1576575135850", "color": "#202020" }, "geometry": { "type": "Point", "coordinates": [ 80.332031, 46.316584 ] } }
{"year": "AD407",  "type": "Feature", "tippecanoe": { "layer": "2AFCA0B954381583916683104", "minzoom": 2, "maxzoom": 8 }, "properties": { "halo": 0.8, "title": "萨珊帝国", "fontsize": 12, "tyid": "304000", "oid": "103:1576575136144", "color": "#202020" }, "geometry": { "type": "Point", "coordinates": [ 55.810547, 33.870416 ] } }
{"year": "AD407",  "type": "Feature", "tippecanoe": { "layer": "2AFCA0B954381583916683104", "minzoom": 2, "maxzoom": 8 }, "properties": { "halo": 0.8, "title": "贝都因人", "fontsize": 12, "tyid": "304001", "oid": "103:1576575136025", "color": "#262626" }, "geometry": { "type": "Point", "coordinates": [ 47.285156, 18.312811 ] } }
{"year": "AD407",  "type": "Feature", "tippecanoe": { "layer": "2AFCA0B954381583916683104", "minzoom": 2, "maxzoom": 8 }, "properties": { "halo": 0.8, "title": "希木叶尔王国", "fontsize": 12, "tyid": "304000", "oid": "103:1576575136022", "color": "#202020" }, "geometry": { "type": "Point", "coordinates": [ 47.021484, 14.519780 ] } }
{"year": "AD407",  "type": "Feature", "tippecanoe": { "layer": "2AFCA0B954381583916683104", "minzoom": 2, "maxzoom": 8 }, "properties": { "halo": 0.8, "title": "索马里诸城邦", "fontsize": 12, "tyid": "304002", "oid": "103:1576575135644", "color": "#262626" }, "geometry": { "type": "Point", "coordinates": [ 47.636719, 8.928487 ] } }
{"year": "AD407",  "type": "Feature", "tippecanoe": { "layer": "2AFCA0B954381583916683104", "minzoom": 2, "maxzoom": 8 }, "properties": { "halo": 0.8, "title": "寄多罗王国", "fontsize": 12, "tyid": "304000", "oid": "103:1576575135620", "color": "#202020" }, "geometry": { "type": "Point", "coordinates": [ 69.082031, 37.509726 ] } }
{"year": "AD407",  "type": "Feature", "tippecanoe": { "layer": "2AFCA0B954381583916683104", "minzoom": 2, "maxzoom": 8 }, "properties": { "halo": 0.8, "title": "于阗国", "fontsize": 12, "tyid": "304000", "oid": "103:1576575136180", "color": "#202020" }, "geometry": { "type": "Point", "coordinates": [ 78.750000, 37.649034 ] } }
{"year": "AD407",  "type": "Feature", "tippecanoe": { "layer": "2AFCA0B954381583916683104", "minzoom": 2, "maxzoom": 8 }, "properties": { "halo": 0.8, "title": "鄯善国", "fontsize": 12, "tyid": "304000", "oid": "103:1576575136202", "color": "#202020" }, "geometry": { "type": "Point", "coordinates": [ 87.890625, 38.548165 ] } }
{"year": "AD407",  "type": "Feature", "tippecanoe": { "layer": "2AFCA0B954381583916683104", "minzoom": 2, "maxzoom": 8 }, "properties": { "halo": 0.8, "title": "唐旄国", "fontsize": 12, "tyid": "304000", "oid": "103:1576575135813", "color": "#202020" }, "geometry": { "type": "Point", "coordinates": [ 87.011719, 34.161818 ] } }
{"year": "AD407",  "type": "Feature", "tippecanoe": { "layer": "2AFCA0B954381583916683104", "minzoom": 2, "maxzoom": 8 }, "properties": { "halo": 0.8, "title": "象雄王国", "fontsize": 12, "tyid": "304000", "oid": "103:1576575135784", "color": "#202020" }, "geometry": { "type": "Point", "coordinates": [ 81.826172, 31.653381 ] } }
{"year": "AD407",  "type": "Feature", "tippecanoe": { "layer": "2AFCA0B954381583916683104", "minzoom": 2, "maxzoom": 8 }, "properties": { "halo": 0.8, "title": "笈多王朝", "fontsize": 12, "tyid": "304000", "oid": "103:1576575135621", "color": "#202020" }, "geometry": { "type": "Point", "coordinates": [ 79.013672, 25.720735 ] } }
{"year": "AD407",  "type": "Feature", "tippecanoe": { "layer": "2AFCA0B954381583916683104", "minzoom": 2, "maxzoom": 8 }, "properties": { "halo": 0.8, "title": "伐迦陀迦王朝", "fontsize": 12, "tyid": "304000", "oid": "103:1576575135860", "color": "#202020" }, "geometry": { "type": "Point", "coordinates": [ 76.552734, 19.559790 ] } }
{"year": "AD407",  "type": "Feature", "tippecanoe": { "layer": "2AFCA0B954381583916683104", "minzoom": 2, "maxzoom": 8 }, "properties": { "halo": 0.8, "title": "帕拉瓦王朝", "fontsize": 12, "tyid": "304000", "oid": "103:1576575135861", "color": "#202020" }, "geometry": { "type": "Point", "coordinates": [ 79.453125, 16.636192 ] } }
{"year": "AD407",  "type": "Feature", "tippecanoe": { "layer": "2AFCA0B954381583916683104", "minzoom": 2, "maxzoom": 8 }, "properties": { "halo": 0.8, "title": "坚昆", "fontsize": 12, "tyid": "304001", "oid": "103:1576575135779", "color": "#262626" }, "geometry": { "type": "Point", "coordinates": [ 91.142578, 54.007769 ] } }
{"year": "AD407",  "type": "Feature", "tippecanoe": { "layer": "2AFCA0B954381583916683104", "minzoom": 2, "maxzoom": 8 }, "properties": { "halo": 0.8, "title": "敕勒", "fontsize": 12, "tyid": "304001", "oid": "103:1576575136174", "color": "#262626" }, "geometry": { "type": "Point", "coordinates": [ 103.271484, 49.610710 ] } }
{"year": "AD407",  "type": "Feature", "tippecanoe": { "layer": "2AFCA0B954381583916683104", "minzoom": 2, "maxzoom": 8 }, "properties": { "halo": 0.8, "title": "北魏", "fontsize": 12, "tyid": "304000", "oid": "103:1576575135943", "color": "#202020" }, "geometry": { "type": "Point", "coordinates": [ 107.402344, 43.961191 ] } }
{"year": "AD407",  "type": "Feature", "tippecanoe": { "layer": "2AFCA0B954381583916683104", "minzoom": 2, "maxzoom": 8 }, "properties": { "halo": 0.8, "title": "通古斯人", "fontsize": 12, "tyid": "304001", "oid": "103:1576575135786", "color": "#262626" }, "geometry": { "type": "Point", "coordinates": [ 116.542969, 60.802064 ] } }
{"year": "AD407",  "type": "Feature", "tippecanoe": { "layer": "2AFCA0B954381583916683104", "minzoom": 2, "maxzoom": 8 }, "properties": { "halo": 0.8, "title": "乌落侯", "fontsize": 12, "tyid": "304001", "oid": "103:1576575136076", "color": "#262626" }, "geometry": { "type": "Point", "coordinates": [ 122.607422, 51.179343 ] } }
{"year": "AD407",  "type": "Feature", "tippecanoe": { "layer": "2AFCA0B954381583916683104", "minzoom": 2, "maxzoom": 8 }, "properties": { "halo": 0.8, "title": "寇漫汗国", "fontsize": 12, "tyid": "304001", "oid": "103:1576575136088", "color": "#262626" }, "geometry": { "type": "Point", "coordinates": [ 129.287109, 48.748945 ] } }
{"year": "AD407",  "type": "Feature", "tippecanoe": { "layer": "2AFCA0B954381583916683104", "minzoom": 2, "maxzoom": 8 }, "properties": { "halo": 0.8, "title": "勿吉", "fontsize": 12, "tyid": "304001", "oid": "103:1576575135835", "color": "#262626" }, "geometry": { "type": "Point", "coordinates": [ 133.593750, 45.951150 ] } }
{"year": "AD407",  "type": "Feature", "tippecanoe": { "layer": "2AFCA0B954381583916683104", "minzoom": 2, "maxzoom": 8 }, "properties": { "halo": 0.8, "title": "苏毗", "fontsize": 12, "tyid": "304001", "oid": "103:1576575135780", "color": "#262626" }, "geometry": { "type": "Point", "coordinates": [ 93.603516, 33.211116 ] } }
{"year": "AD407",  "type": "Feature", "tippecanoe": { "layer": "2AFCA0B954381583916683104", "minzoom": 2, "maxzoom": 8 }, "properties": { "halo": 0.8, "title": "吐谷浑", "fontsize": 12, "tyid": "304000", "oid": "103:1576575136082", "color": "#202020" }, "geometry": { "type": "Point", "coordinates": [ 97.207031, 36.244273 ] } }
{"year": "AD407",  "type": "Feature", "tippecanoe": { "layer": "2AFCA0B954381583916683104", "minzoom": 2, "maxzoom": 8 }, "properties": { "halo": 0.8, "title": "古羌人", "fontsize": 12, "tyid": "304001", "oid": "103:1576575135788", "color": "#262626" }, "geometry": { "type": "Point", "coordinates": [ 91.933594, 27.839076 ] } }
{"year": "AD407",  "type": "Feature", "tippecanoe": { "layer": "2AFCA0B954381583916683104", "minzoom": 2, "maxzoom": 8 }, "properties": { "halo": 0.8, "title": "后秦", "fontsize": 12, "tyid": "304000", "oid": "103:1576575135932", "color": "#202020" }, "geometry": { "type": "Point", "coordinates": [ 107.314453, 37.649034 ] } }
{"year": "AD407",  "type": "Feature", "tippecanoe": { "layer": "2AFCA0B954381583916683104", "minzoom": 2, "maxzoom": 8 }, "properties": { "halo": 0.8, "title": "爨氏", "fontsize": 12, "tyid": "304002", "oid": "103:1576575136211", "color": "#262626" }, "geometry": { "type": "Point", "coordinates": [ 101.777344, 23.563987 ] } }
{"year": "AD407",  "type": "Feature", "tippecanoe": { "layer": "2AFCA0B954381583916683104", "minzoom": 2, "maxzoom": 8 }, "properties": { "halo": 0.8, "title": "东晋", "fontsize": 12, "tyid": "304000", "oid": "103:1576575135832", "color": "#202020" }, "geometry": { "type": "Point", "coordinates": [ 109.335938, 27.371767 ] } }
{"year": "AD407",  "type": "Feature", "tippecanoe": { "layer": "2AFCA0B954381583916683104", "minzoom": 2, "maxzoom": 8 }, "properties": { "halo": 0.8, "title": "扶南王国", "fontsize": 12, "tyid": "304000", "oid": "103:1576575135623", "color": "#202020" }, "geometry": { "type": "Point", "coordinates": [ 103.710938, 12.468760 ] } }
{"year": "AD407",  "type": "Feature", "tippecanoe": { "layer": "2AFCA0B954381583916683104", "minzoom": 2, "maxzoom": 8 }, "properties": { "halo": 0.8, "title": "高句丽", "fontsize": 12, "tyid": "304000", "oid": "103:1576575135836", "color": "#202020" }, "geometry": { "type": "Point", "coordinates": [ 127.089844, 40.647304 ] } }
{"year": "AD407",  "type": "Feature", "tippecanoe": { "layer": "2AFCA0B954381583916683104", "minzoom": 2, "maxzoom": 8 }, "properties": { "halo": 0.8, "title": "尤卡吉尔人", "fontsize": 12, "tyid": "304001", "oid": "103:1576575135985", "color": "#262626" }, "geometry": { "type": "Point", "coordinates": [ 155.214844, 64.886265 ] } }
{"year": "AD407",  "type": "Feature", "tippecanoe": { "layer": "2AFCA0B954381583916683104", "minzoom": 2, "maxzoom": 8 }, "properties": { "halo": 0.8, "title": "科里亚克族", "fontsize": 12, "tyid": "304001", "oid": "103:1576575135983", "color": "#262626" }, "geometry": { "type": "Point", "coordinates": [ 164.882812, 61.814664 ] } }
{"year": "AD407",  "type": "Feature", "tippecanoe": { "layer": "2AFCA0B954381583916683104", "minzoom": 2, "maxzoom": 8 }, "properties": { "halo": 0.8, "title": "楚科奇人", "fontsize": 12, "tyid": "304001", "oid": "103:1576575135790", "color": "#262626" }, "geometry": { "type": "Point", "coordinates": [ 171.035156, 66.443107 ] } }
{"year": "AD407",  "type": "Feature", "tippecanoe": { "layer": "2AFCA0B954381583916683104", "minzoom": 2, "maxzoom": 8 }, "properties": { "halo": 0.8, "title": "大和国", "fontsize": 12, "tyid": "304000", "oid": "103:1576575135938", "color": "#202020" }, "geometry": { "type": "Point", "coordinates": [ 137.021484, 35.746512 ] } }
{"year": "AD407",  "type": "Feature", "tippecanoe": { "layer": "2AFCA0B954381583916683104", "minzoom": 2, "maxzoom": 8 }, "properties": { "halo": 0.8, "title": "西北班图人诸部", "fontsize": 12, "tyid": "304001", "oid": "103:1576575135957", "color": "#262626" }, "geometry": { "type": "Point", "coordinates": [ 20.654297, 0.000000 ] } }
{"year": "AD407",  "type": "Feature", "tippecanoe": { "layer": "2AFCA0B954381583916683104", "minzoom": 2, "maxzoom": 8 }, "properties": { "halo": 0.8, "title": "西班图人诸部", "fontsize": 12, "tyid": "304001", "oid": "103:1576575136104", "color": "#262626" }, "geometry": { "type": "Point", "coordinates": [ 20.566406, -12.382928 ] } }
{"year": "AD407",  "type": "Feature", "tippecanoe": { "layer": "2AFCA0B954381583916683104", "minzoom": 2, "maxzoom": 8 }, "properties": { "halo": 0.8, "title": "科伊桑人", "fontsize": 12, "tyid": "304001", "oid": "103:1576575136029", "color": "#262626" }, "geometry": { "type": "Point", "coordinates": [ 21.533203, -27.059126 ] } }
{"year": "AD407",  "type": "Feature", "tippecanoe": { "layer": "2AFCA0B954381583916683104", "minzoom": 2, "maxzoom": 8 }, "properties": { "halo": 0.8, "title": "东班图人诸部", "fontsize": 12, "tyid": "304001", "oid": "103:1576575136053", "color": "#262626" }, "geometry": { "type": "Point", "coordinates": [ 32.958984, -14.604847 ] } }
{"year": "AD407",  "type": "Feature", "tippecanoe": { "layer": "2AFCA0B954381583916683104", "minzoom": 2, "maxzoom": 8 }, "properties": { "halo": 0.8, "title": "南岛人", "fontsize": 12, "tyid": "304001", "oid": "103:1576575135735", "color": "#262626" }, "geometry": { "type": "Point", "coordinates": [ 111.445312, -0.263671 ] } }
{"year": "AD407",  "type": "Feature", "tippecanoe": { "layer": "2AFCA0B954381583916683104", "minzoom": 2, "maxzoom": 8 }, "properties": { "halo": 0.8, "title": "澳洲原住民", "fontsize": 12, "tyid": "304001", "oid": "103:1576575135977", "color": "#262626" }, "geometry": { "type": "Point", "coordinates": [ 134.296875, -25.562265 ] } }
{"year": "AD407",  "type": "Feature", "tippecanoe": { "layer": "2AFCA0B954381583916683104", "minzoom": 2, "maxzoom": 8 }, "properties": { "halo": 0.8, "title": "巴布亚人", "fontsize": 12, "tyid": "304001", "oid": "103:1576575136045", "color": "#262626" }, "geometry": { "type": "Point", "coordinates": [ 140.888672, -5.266008 ] } }
{"year": "AD407",  "type": "Feature", "tippecanoe": { "layer": "2AFCA0B959081583916683116", "minzoom": 2, "maxzoom": 8 }, "properties": { "tyid": "410000", "centroid": "{\"type\":\"Point\",\"coordinates\":[102.890655519,50.32448578]}", "opacity": 1, "oid": "103:1582721307215", "color": "#A11300", "width": 3 }, "geometry": { "type": "MultiLineString", "coordinates": [ [ [ 108.017578, 21.616579 ], [ 106.611328, 22.024546 ], [ 106.523438, 22.512557 ], [ 106.699219, 22.836946 ], [ 105.820312, 22.998852 ], [ 105.205078, 23.402765 ], [ 103.886719, 22.512557 ], [ 103.535156, 22.836946 ], [ 103.183594, 22.105999 ], [ 102.480469, 22.512557 ], [ 101.777344, 21.861499 ], [ 101.689453, 21.207459 ], [ 101.162109, 21.207459 ], [ 100.986328, 21.779905 ], [ 100.195312, 21.534847 ], [ 99.843750, 22.105999 ], [ 99.140625, 22.187405 ], [ 99.228516, 22.917923 ], [ 98.437500, 23.079732 ], [ 98.701172, 23.402765 ], [ 98.349609, 23.966176 ], [ 98.525391, 24.206890 ], [ 97.294922, 23.805450 ], [ 97.470703, 25.324167 ], [ 98.261719, 26.431228 ], [ 98.701172, 26.667096 ], [ 98.613281, 27.605671 ], [ 98.261719, 27.605671 ], [ 98.085938, 28.226970 ], [ 97.558594, 28.536275 ], [ 97.031250, 27.761330 ], [ 96.240234, 28.304381 ], [ 95.625000, 28.304381 ], [ 94.218750, 27.605671 ], [ 93.691406, 27.059126 ], [ 92.988281, 26.902477 ], [ 92.021484, 26.902477 ], [ 92.109375, 27.371767 ], [ 91.494141, 27.605671 ], [ 91.494141, 27.916767 ], [ 90.791016, 28.071980 ] ], [ [ 130.605469, 42.293564 ], [ 130.166016, 42.940339 ], [ 129.814453, 43.004647 ], [ 129.638672, 42.488302 ], [ 129.287109, 42.423457 ], [ 128.847656, 42.032974 ], [ 127.968750, 42.032974 ], [ 128.232422, 41.574361 ], [ 128.056641, 41.442726 ], [ 127.177734, 41.508577 ], [ 126.826172, 41.836828 ], [ 125.947266, 40.913513 ], [ 124.804688, 40.513799 ], [ 124.277344, 40.044438 ] ], [ [ 135.263672, 54.775346 ], [ 132.978516, 54.162434 ], [ 130.517578, 54.110943 ], [ 131.835938, 54.927142 ], [ 131.044922, 55.677584 ], [ 129.462891, 55.776573 ], [ 128.759766, 55.528631 ], [ 127.705078, 55.727110 ], [ 126.123047, 55.627996 ], [ 125.859375, 55.825973 ], [ 124.804688, 55.924586 ], [ 123.134766, 54.775346 ], [ 121.376953, 54.265224 ], [ 121.025391, 54.521081 ], [ 120.234375, 54.162434 ], [ 119.267578, 54.007769 ], [ 119.003906, 53.383328 ], [ 119.179688, 53.120405 ], [ 120.058594, 53.488046 ], [ 121.201172, 53.540307 ], [ 121.376953, 53.383328 ], [ 120.761719, 53.278353 ], [ 119.970703, 52.802761 ], [ 120.058594, 52.589701 ], [ 120.673828, 52.536273 ], [ 120.673828, 51.998410 ], [ 120.058594, 51.672555 ], [ 119.091797, 50.401515 ], [ 119.355469, 50.401515 ], [ 119.267578, 50.120578 ], [ 118.037109, 49.610710 ], [ 116.191406, 50.064192 ], [ 115.312500, 49.951220 ], [ 114.960938, 50.233152 ], [ 114.257812, 50.289339 ], [ 112.675781, 49.496675 ], [ 110.654297, 49.152970 ], [ 108.457031, 49.382373 ], [ 107.929688, 49.724479 ], [ 107.929688, 49.951220 ], [ 107.050781, 50.064192 ], [ 106.523438, 50.345460 ], [ 105.292969, 50.513427 ], [ 103.974609, 50.176898 ], [ 103.271484, 50.233152 ], [ 102.216797, 50.625073 ], [ 102.041016, 51.399206 ], [ 98.964844, 52.106505 ], [ 98.613281, 52.482780 ], [ 98.876953, 52.908902 ], [ 99.140625, 52.961875 ], [ 98.789062, 53.173119 ], [ 98.173828, 53.120405 ], [ 96.767578, 53.800651 ], [ 96.416016, 53.592505 ], [ 94.658203, 53.435719 ], [ 94.394531, 52.961875 ], [ 94.130859, 52.908902 ], [ 93.515625, 52.214339 ], [ 92.812500, 51.890054 ], [ 91.054688, 51.890054 ], [ 90.175781, 52.696361 ], [ 87.802734, 53.383328 ], [ 86.396484, 53.173119 ], [ 86.132812, 52.908902 ], [ 83.056641, 51.618017 ], [ 82.617188, 51.179343 ], [ 83.056641, 50.958427 ], [ 83.232422, 50.513427 ], [ 82.529297, 49.724479 ], [ 82.529297, 49.325122 ], [ 81.298828, 48.690960 ], [ 81.035156, 48.166085 ], [ 79.628906, 47.694974 ], [ 79.453125, 46.800059 ], [ 78.750000, 46.800059 ], [ 78.750000, 46.619261 ], [ 78.574219, 46.800059 ], [ 78.222656, 46.498392 ], [ 77.783203, 46.679594 ], [ 74.531250, 46.800059 ], [ 73.564453, 46.134170 ], [ 73.388672, 45.706179 ], [ 72.070312, 44.964798 ], [ 70.488281, 44.402392 ], [ 69.521484, 43.452919 ], [ 70.927734, 42.293564 ], [ 73.212891, 42.163403 ], [ 73.916016, 41.836828 ], [ 74.003906, 41.574361 ], [ 73.300781, 41.508577 ], [ 73.828125, 41.046217 ], [ 73.212891, 40.847060 ], [ 72.949219, 40.446947 ], [ 73.125000, 40.044438 ], [ 72.773438, 39.842286 ], [ 72.861328, 39.368279 ], [ 72.421875, 39.436193 ], [ 72.070312, 39.095963 ], [ 72.246094, 38.548165 ], [ 71.894531, 38.272689 ], [ 72.158203, 37.649034 ], [ 71.718750, 36.738884 ], [ 73.476562, 37.509726 ], [ 73.740234, 37.439974 ], [ 73.740234, 37.160317 ], [ 74.531250, 37.090240 ], [ 75.673828, 36.385913 ], [ 75.761719, 36.031332 ], [ 74.882812, 35.817813 ], [ 75.322266, 35.173808 ], [ 75.146484, 34.669359 ], [ 76.113281, 33.578015 ], [ 77.080078, 32.990236 ], [ 77.080078, 32.472695 ], [ 77.871094, 31.802893 ], [ 78.662109, 31.728167 ], [ 79.013672, 31.052934 ], [ 79.892578, 30.826781 ], [ 80.683594, 30.145127 ], [ 82.001953, 30.145127 ], [ 83.583984, 29.228890 ], [ 83.935547, 29.305561 ], [ 84.462891, 28.536275 ], [ 85.605469, 28.226970 ], [ 85.869141, 27.916767 ], [ 87.714844, 27.839076 ], [ 88.681641, 28.071980 ], [ 88.945312, 27.215556 ], [ 89.560547, 28.226970 ], [ 90.791016, 28.071980 ] ] ] } }
{"year": "AD407",  "type": "Feature", "tippecanoe": { "layer": "2AFCA0B959081583916683116", "minzoom": 2, "maxzoom": 8 }, "properties": { "tyid": "410000", "centroid": "{\"type\":\"Point\",\"coordinates\":[118.9965612163,11.9748626986]}", "opacity": 1, "oid": "103:1582721307213", "color": "#A11300", "width": 3 }, "geometry": { "type": "MultiLineString", "coordinates": [ [ [ 122.695312, 24.447150 ], [ 122.431641, 23.402765 ] ], [ [ 120.849609, 20.550509 ], [ 121.728516, 21.616579 ] ], [ [ 119.355469, 17.727759 ], [ 119.794922, 18.895893 ] ], [ [ 118.916016, 14.689881 ], [ 118.916016, 16.045813 ] ], [ [ 118.476562, 10.833306 ], [ 119.003906, 12.039321 ] ], [ [ 115.312500, 7.013668 ], [ 116.191406, 8.059230 ] ], [ [ 111.708984, 3.425692 ], [ 112.939453, 3.864255 ] ], [ [ 108.281250, 5.965754 ], [ 108.193359, 7.362467 ] ], [ [ 110.039062, 11.264612 ], [ 110.214844, 12.468760 ] ], [ [ 109.775391, 15.029686 ], [ 109.248047, 16.214675 ] ] ] } }
{"year": "AD407",  "type": "Feature", "tippecanoe": { "layer": "2AFCA0B95AC81583916683110", "minzoom": 2, "maxzoom": 8 }, "properties": { "halo": 1.6, "title": "图勒人", "fontsize": 12, "tyid": "304001", "oid": "103:1576575136070", "color": "#0056E7" }, "geometry": { "type": "Point", "coordinates": [ -130.781250, 68.942607 ] } }
{"year": "AD407",  "type": "Feature", "tippecanoe": { "layer": "2AFCA0B95AC81583916683110", "minzoom": 2, "maxzoom": 8 }, "properties": { "halo": 1.6, "title": "诺顿文化", "fontsize": 12, "tyid": "304002", "oid": "103:1576575135854", "color": "#0056E7" }, "geometry": { "type": "Point", "coordinates": [ -163.740234, 65.330178 ] } }
{"year": "AD407",  "type": "Feature", "tippecanoe": { "layer": "2AFCA0B95AC81583916683110", "minzoom": 2, "maxzoom": 8 }, "properties": { "halo": 1.6, "title": "尤皮克人", "fontsize": 12, "tyid": "304001", "oid": "103:1576575136113", "color": "#0056E7" }, "geometry": { "type": "Point", "coordinates": [ -159.169922, 60.630102 ] } }
{"year": "AD407",  "type": "Feature", "tippecanoe": { "layer": "2AFCA0B95AC81583916683110", "minzoom": 2, "maxzoom": 8 }, "properties": { "halo": 1.6, "title": "因纽皮雅特人", "fontsize": 12, "tyid": "304001", "oid": "103:1576575135975", "color": "#0056E7" }, "geometry": { "type": "Point", "coordinates": [ -150.908203, 65.476508 ] } }
{"year": "AD407",  "type": "Feature", "tippecanoe": { "layer": "2AFCA0B95AC81583916683110", "minzoom": 2, "maxzoom": 8 }, "properties": { "halo": 1.6, "title": "阿留申人", "fontsize": 12, "tyid": "304001", "oid": "103:1576575136177", "color": "#0056E7" }, "geometry": { "type": "Point", "coordinates": [ -152.226562, 61.312452 ] } }
{"year": "AD407",  "type": "Feature", "tippecanoe": { "layer": "2AFCA0B95AC81583916683110", "minzoom": 2, "maxzoom": 8 }, "properties": { "halo": 1.6, "title": "泰萨勒页岩文化", "fontsize": 12, "tyid": "304002", "oid": "103:1576575135754", "color": "#0056E7" }, "geometry": { "type": "Point", "coordinates": [ -101.865234, 56.511018 ] } }
{"year": "AD407",  "type": "Feature", "tippecanoe": { "layer": "2AFCA0B95AC81583916683110", "minzoom": 2, "maxzoom": 8 }, "properties": { "halo": 1.6, "title": "因纽特人", "fontsize": 12, "tyid": "304001", "oid": "103:1576575135827", "color": "#0056E7" }, "geometry": { "type": "Point", "coordinates": [ -100.195312, 65.802776 ] } }
{"year": "AD407",  "type": "Feature", "tippecanoe": { "layer": "2AFCA0B95AC81583916683110", "minzoom": 2, "maxzoom": 8 }, "properties": { "halo": 1.6, "title": "坎贝尔文化", "fontsize": 12, "tyid": "304002", "oid": "103:1576575135663", "color": "#0056E7" }, "geometry": { "type": "Point", "coordinates": [ -121.289062, 38.685510 ] } }
{"year": "AD407",  "type": "Feature", "tippecanoe": { "layer": "2AFCA0B95AC81583916683110", "minzoom": 2, "maxzoom": 8 }, "properties": { "halo": 1.8, "title": "玛雅文明[古典时期]", "fontsize": 12, "tyid": "304000", "oid": "103:1576575135654", "color": "#0056E7" }, "geometry": { "type": "Point", "coordinates": [ -90.439453, 17.644022 ] } }
{"year": "AD407",  "type": "Feature", "tippecanoe": { "layer": "2AFCA0B95AC81583916683110", "minzoom": 2, "maxzoom": 8 }, "properties": { "halo": 1.6, "title": "多赛特文化", "fontsize": 12, "tyid": "304002", "oid": "103:1576575135646", "color": "#0056E7" }, "geometry": { "type": "Point", "coordinates": [ -69.960938, 66.652977 ] } }
{"year": "AD407",  "type": "Feature", "tippecanoe": { "layer": "2AFCA0B95AC81583916683110", "minzoom": 2, "maxzoom": 8 }, "properties": { "halo": 1.6, "title": "劳雷尔文化", "fontsize": 12, "tyid": "304002", "oid": "103:1576575135888", "color": "#0056E7" }, "geometry": { "type": "Point", "coordinates": [ -83.759766, 47.338823 ] } }
{"year": "AD407",  "type": "Feature", "tippecanoe": { "layer": "2AFCA0B95AC81583916683110", "minzoom": 2, "maxzoom": 8 }, "properties": { "halo": 1.6, "title": "波茵特半岛文化", "fontsize": 12, "tyid": "304002", "oid": "103:1576575136098", "color": "#0056E7" }, "geometry": { "type": "Point", "coordinates": [ -76.816406, 45.336702 ] } }
{"year": "AD407",  "type": "Feature", "tippecanoe": { "layer": "2AFCA0B95AC81583916683110", "minzoom": 2, "maxzoom": 8 }, "properties": { "halo": 1.6, "title": "古海洋文化", "fontsize": 12, "tyid": "304002", "oid": "103:1576575136013", "color": "#0056E7" }, "geometry": { "type": "Point", "coordinates": [ -66.972656, 46.920255 ] } }
{"year": "AD407",  "type": "Feature", "tippecanoe": { "layer": "2AFCA0B95AC81583916683110", "minzoom": 2, "maxzoom": 8 }, "properties": { "halo": 1.6, "title": "巴富尔人", "fontsize": 12, "tyid": "304001", "oid": "103:1576575135673", "color": "#0056E7" }, "geometry": { "type": "Point", "coordinates": [ -8.261719, 22.836946 ] } }
{"year": "AD407",  "type": "Feature", "tippecanoe": { "layer": "2AFCA0B95AC81583916683110", "minzoom": 2, "maxzoom": 8 }, "properties": { "halo": 1.6, "title": "柏柏尔人诸部", "fontsize": 12, "tyid": "304001", "oid": "103:1576575136063", "color": "#0056E7" }, "geometry": { "type": "Point", "coordinates": [ -0.087891, 29.458731 ] } }
{"year": "AD407",  "type": "Feature", "tippecanoe": { "layer": "2AFCA0B95AC81583916683110", "minzoom": 2, "maxzoom": 8 }, "properties": { "halo": 1.6, "title": "索宁克人", "fontsize": 12, "tyid": "304001", "oid": "103:1576575136048", "color": "#0056E7" }, "geometry": { "type": "Point", "coordinates": [ -13.886719, 18.229351 ] } }
{"year": "AD407",  "type": "Feature", "tippecanoe": { "layer": "2AFCA0B95AC81583916683110", "minzoom": 2, "maxzoom": 8 }, "properties": { "halo": 1.6, "title": "曼德人", "fontsize": 12, "tyid": "304001", "oid": "103:1576575135647", "color": "#0056E7" }, "geometry": { "type": "Point", "coordinates": [ -6.855469, 8.320212 ] } }
{"year": "AD407",  "type": "Feature", "tippecanoe": { "layer": "2AFCA0B95AC81583916683110", "minzoom": 2, "maxzoom": 8 }, "properties": { "halo": 1.6, "title": "昌戈人", "fontsize": 12, "tyid": "304001", "oid": "103:1576575135865", "color": "#0056E7" }, "geometry": { "type": "Point", "coordinates": [ -69.257812, -23.402765 ] } }
{"year": "AD407",  "type": "Feature", "tippecanoe": { "layer": "2AFCA0B95AC81583916683110", "minzoom": 2, "maxzoom": 8 }, "properties": { "halo": 1.6, "title": "沙内斯人", "fontsize": 12, "tyid": "304001", "oid": "103:1576575136130", "color": "#0056E7" }, "geometry": { "type": "Point", "coordinates": [ -66.269531, -21.616579 ] } }
{"year": "AD407",  "type": "Feature", "tippecanoe": { "layer": "2AFCA0B95AC81583916683110", "minzoom": 2, "maxzoom": 8 }, "properties": { "halo": 1.6, "title": "图皮人", "fontsize": 12, "tyid": "304001", "oid": "103:1576575136102", "color": "#0056E7" }, "geometry": { "type": "Point", "coordinates": [ -41.132812, -19.228177 ] } }
{"year": "AD407",  "type": "Feature", "tippecanoe": { "layer": "2AFCA0B95AC81583916683110", "minzoom": 2, "maxzoom": 8 }, "properties": { "halo": 1.6, "title": "萨米人", "fontsize": 12, "tyid": "304001", "oid": "103:1576575136056", "color": "#0056E7" }, "geometry": { "type": "Point", "coordinates": [ 25.400391, 68.171555 ] } }
{"year": "AD407",  "type": "Feature", "tippecanoe": { "layer": "2AFCA0B95AC81583916683110", "minzoom": 2, "maxzoom": 8 }, "properties": { "halo": 1.6, "title": "原始日耳曼人", "fontsize": 12, "tyid": "304001", "oid": "103:1576575135706", "color": "#0056E7" }, "geometry": { "type": "Point", "coordinates": [ 8.437500, 60.500525 ] } }
{"year": "AD407",  "type": "Feature", "tippecanoe": { "layer": "2AFCA0B95AC81583916683110", "minzoom": 2, "maxzoom": 8 }, "properties": { "halo": 1.6, "title": "古瑞典人", "fontsize": 12, "tyid": "304001", "oid": "103:1576575136140", "color": "#0056E7" }, "geometry": { "type": "Point", "coordinates": [ 15.820312, 61.312452 ] } }
{"year": "AD407",  "type": "Feature", "tippecanoe": { "layer": "2AFCA0B95AC81583916683110", "minzoom": 2, "maxzoom": 8 }, "properties": { "halo": 1.8, "title": "西罗马帝国", "fontsize": 12, "tyid": "304000", "oid": "103:1576575135627", "color": "#0056E7" }, "geometry": { "type": "Point", "coordinates": [ 5.449219, 47.576526 ] } }
{"year": "AD407",  "type": "Feature", "tippecanoe": { "layer": "2AFCA0B95AC81583916683110", "minzoom": 2, "maxzoom": 8 }, "properties": { "halo": 1.6, "title": "芬尼人", "fontsize": 12, "tyid": "304001", "oid": "103:1576575135660", "color": "#0056E7" }, "geometry": { "type": "Point", "coordinates": [ 29.970703, 64.510643 ] } }
{"year": "AD407",  "type": "Feature", "tippecanoe": { "layer": "2AFCA0B95AC81583916683110", "minzoom": 2, "maxzoom": 8 }, "properties": { "halo": 1.6, "title": "第聂伯河波罗的人", "fontsize": 12, "tyid": "304001", "oid": "103:1576575135923", "color": "#0056E7" }, "geometry": { "type": "Point", "coordinates": [ 32.519531, 56.992883 ] } }
{"year": "AD407",  "type": "Feature", "tippecanoe": { "layer": "2AFCA0B95AC81583916683110", "minzoom": 2, "maxzoom": 8 }, "properties": { "halo": 1.6, "title": "斯拉夫人", "fontsize": 12, "tyid": "304001", "oid": "103:1576575135944", "color": "#0056E7" }, "geometry": { "type": "Point", "coordinates": [ 27.158203, 52.052490 ] } }
{"year": "AD407",  "type": "Feature", "tippecanoe": { "layer": "2AFCA0B95AC81583916683110", "minzoom": 2, "maxzoom": 8 }, "properties": { "halo": 1.6, "title": "伏尔加芬兰人", "fontsize": 12, "tyid": "304001", "oid": "103:1576575135739", "color": "#0056E7" }, "geometry": { "type": "Point", "coordinates": [ 42.187500, 55.727110 ] } }
{"year": "AD407",  "type": "Feature", "tippecanoe": { "layer": "2AFCA0B95AC81583916683110", "minzoom": 2, "maxzoom": 8 }, "properties": { "halo": 1.6, "title": "匈人", "fontsize": 12, "tyid": "304001", "oid": "103:1576575135685", "color": "#0056E7" }, "geometry": { "type": "Point", "coordinates": [ 42.714844, 48.283193 ] } }
{"year": "AD407",  "type": "Feature", "tippecanoe": { "layer": "2AFCA0B95AC81583916683110", "minzoom": 2, "maxzoom": 8 }, "properties": { "halo": 1.6, "title": "加拉曼特人", "fontsize": 12, "tyid": "304001", "oid": "103:1576575135808", "color": "#0056E7" }, "geometry": { "type": "Point", "coordinates": [ 18.720703, 26.980829 ] } }
{"year": "AD407",  "type": "Feature", "tippecanoe": { "layer": "2AFCA0B95AC81583916683110", "minzoom": 2, "maxzoom": 8 }, "properties": { "halo": 1.6, "title": "图阿雷格人", "fontsize": 12, "tyid": "304001", "oid": "103:1576575135899", "color": "#0056E7" }, "geometry": { "type": "Point", "coordinates": [ 5.537109, 20.385825 ] } }
{"year": "AD407",  "type": "Feature", "tippecanoe": { "layer": "2AFCA0B95AC81583916683110", "minzoom": 2, "maxzoom": 8 }, "properties": { "halo": 1.6, "title": "豪萨人", "fontsize": 12, "tyid": "304001", "oid": "103:1576575135907", "color": "#0056E7" }, "geometry": { "type": "Point", "coordinates": [ 7.031250, 13.496473 ] } }
{"year": "AD407",  "type": "Feature", "tippecanoe": { "layer": "2AFCA0B95AC81583916683110", "minzoom": 2, "maxzoom": 8 }, "properties": { "halo": 1.6, "title": "诺克文化", "fontsize": 12, "tyid": "304002", "oid": "103:1576575136067", "color": "#0056E7" }, "geometry": { "type": "Point", "coordinates": [ 7.119141, 9.709057 ] } }
{"year": "AD407",  "type": "Feature", "tippecanoe": { "layer": "2AFCA0B95AC81583916683110", "minzoom": 2, "maxzoom": 8 }, "properties": { "halo": 1.6, "title": "萨奥文明", "fontsize": 12, "tyid": "304002", "oid": "103:1576575135674", "color": "#0056E7" }, "geometry": { "type": "Point", "coordinates": [ 14.941406, 13.239945 ] } }
{"year": "AD407",  "type": "Feature", "tippecanoe": { "layer": "2AFCA0B95AC81583916683110", "minzoom": 2, "maxzoom": 8 }, "properties": { "halo": 1.6, "title": "巴卡人", "fontsize": 12, "tyid": "304001", "oid": "103:1576575136054", "color": "#0056E7" }, "geometry": { "type": "Point", "coordinates": [ 18.105469, 5.878332 ] } }
{"year": "AD407",  "type": "Feature", "tippecanoe": { "layer": "2AFCA0B95AC81583916683110", "minzoom": 2, "maxzoom": 8 }, "properties": { "halo": 1.8, "title": "东罗马帝国", "fontsize": 12, "tyid": "304000", "oid": "103:1576575135942", "color": "#0056E7" }, "geometry": { "type": "Point", "coordinates": [ 39.375000, 37.926868 ] } }
{"year": "AD407",  "type": "Feature", "tippecanoe": { "layer": "2AFCA0B95AC81583916683110", "minzoom": 2, "maxzoom": 8 }, "properties": { "halo": 1.8, "title": "拉赫姆王国", "fontsize": 12, "tyid": "304000", "oid": "103:1576575135711", "color": "#0056E7" }, "geometry": { "type": "Point", "coordinates": [ 42.451172, 31.802893 ] } }
{"year": "AD407",  "type": "Feature", "tippecanoe": { "layer": "2AFCA0B95AC81583916683110", "minzoom": 2, "maxzoom": 8 },