{ "type": "Feature", "tippecanoe": { "layer": "2AFCA0FE35881583916454735", "minzoom": 2, "maxzoom": 8 }, "properties": { "halo": 0.8, "title": "古白令海文化", "fontsize": 12, "tyid": "304002", "oid": "103:1576575151480", "color": "#262626" }, "geometry": { "type": "Point", "coordinates": [ -170.332031, 63.470145 ] } }
{ "type": "Feature", "tippecanoe": { "layer": "2AFCA0FE35881583916454735", "minzoom": 2, "maxzoom": 8 }, "properties": { "halo": 0.8, "title": "梅奥人", "fontsize": 12, "tyid": "304001", "oid": "103:1576575151465", "color": "#262626" }, "geometry": { "type": "Point", "coordinates": [ -109.160156, 26.667096 ] } }
{ "type": "Feature", "tippecanoe": { "layer": "2AFCA0FE35881583916454735", "minzoom": 2, "maxzoom": 8 }, "properties": { "halo": 0.8, "title": "查尔奇维特斯文化", "fontsize": 12, "tyid": "304002", "oid": "103:1576575151363", "color": "#262626" }, "geometry": { "type": "Point", "coordinates": [ -103.974609, 23.483401 ] } }
{ "type": "Feature", "tippecanoe": { "layer": "2AFCA0FE35881583916454735", "minzoom": 2, "maxzoom": 8 }, "properties": { "halo": 0.8, "title": "巴希奥文化", "fontsize": 12, "tyid": "304002", "oid": "103:1576575151653", "color": "#262626" }, "geometry": { "type": "Point", "coordinates": [ -99.931641, 20.961440 ] } }
{ "type": "Feature", "tippecanoe": { "layer": "2AFCA0FE35881583916454735", "minzoom": 2, "maxzoom": 8 }, "properties": { "halo": 0.8, "title": "特奥蒂瓦坎", "fontsize": 12, "tyid": "304002", "oid": "103:1576575151590", "color": "#262626" }, "geometry": { "type": "Point", "coordinates": [ -99.404297, 19.808054 ] } }
{ "type": "Feature", "tippecanoe": { "layer": "2AFCA0FE35881583916454735", "minzoom": 2, "maxzoom": 8 }, "properties": { "halo": 0.8, "title": "圣米格尔伊克帕坦文化", "fontsize": 12, "tyid": "304002", "oid": "103:1576575151640", "color": "#262626" }, "geometry": { "type": "Point", "coordinates": [ -100.019531, 19.062118 ] } }
{ "type": "Feature", "tippecanoe": { "layer": "2AFCA0FE35881583916454735", "minzoom": 2, "maxzoom": 8 }, "properties": { "halo": 0.8, "title": "科韦克卡-琼塔尔文化", "fontsize": 12, "tyid": "304002", "oid": "103:1576575151768", "color": "#262626" }, "geometry": { "type": "Point", "coordinates": [ -99.667969, 18.062312 ] } }
{ "type": "Feature", "tippecanoe": { "layer": "2AFCA0FE35881583916454735", "minzoom": 2, "maxzoom": 8 }, "properties": { "halo": 0.8, "title": "古韦拉克鲁斯文化", "fontsize": 12, "tyid": "304002", "oid": "103:1576575151407", "color": "#262626" }, "geometry": { "type": "Point", "coordinates": [ -96.767578, 19.642588 ] } }
{ "type": "Feature", "tippecanoe": { "layer": "2AFCA0FE35881583916454735", "minzoom": 2, "maxzoom": 8 }, "properties": { "halo": 0.8, "title": "米斯特克人", "fontsize": 12, "tyid": "304001", "oid": "103:1576575151368", "color": "#262626" }, "geometry": { "type": "Point", "coordinates": [ -98.349609, 17.224758 ] } }
{ "type": "Feature", "tippecanoe": { "layer": "2AFCA0FE35881583916454735", "minzoom": 2, "maxzoom": 8 }, "properties": { "halo": 0.8, "title": "特里克人", "fontsize": 12, "tyid": "304001", "oid": "103:1576575151651", "color": "#262626" }, "geometry": { "type": "Point", "coordinates": [ -97.382812, 17.811456 ] } }
{ "type": "Feature", "tippecanoe": { "layer": "2AFCA0FE35881583916454735", "minzoom": 2, "maxzoom": 8 }, "properties": { "halo": 0.8, "title": "洛瓦贾达斯文化", "fontsize": 12, "tyid": "304002", "oid": "103:1576575151634", "color": "#262626" }, "geometry": { "type": "Point", "coordinates": [ -96.416016, 19.145168 ] } }
{ "type": "Feature", "tippecanoe": { "layer": "2AFCA0FE35881583916454735", "minzoom": 2, "maxzoom": 8 }, "properties": { "halo": 0.8, "title": "麦克斯人", "fontsize": 12, "tyid": "304001", "oid": "103:1576575151783", "color": "#262626" }, "geometry": { "type": "Point", "coordinates": [ -96.503906, 18.312811 ] } }
{ "type": "Feature", "tippecanoe": { "layer": "2AFCA0FE35881583916454735", "minzoom": 2, "maxzoom": 8 }, "properties": { "halo": 0.8, "title": "佐齐尔人", "fontsize": 12, "tyid": "304001", "oid": "103:1576575151472", "color": "#262626" }, "geometry": { "type": "Point", "coordinates": [ -93.339844, 16.551962 ] } }
{ "type": "Feature", "tippecanoe": { "layer": "2AFCA0FE35881583916454735", "minzoom": 2, "maxzoom": 8 }, "properties": { "halo": 0.8, "title": "祖赫人", "fontsize": 12, "tyid": "304001", "oid": "103:1576575151564", "color": "#262626" }, "geometry": { "type": "Point", "coordinates": [ -92.109375, 16.045813 ] } }
{ "type": "Feature", "tippecanoe": { "layer": "2AFCA0FE35881583916454735", "minzoom": 2, "maxzoom": 8 }, "properties": { "halo": 0.8, "title": "基切人", "fontsize": 12, "tyid": "304001", "oid": "103:1576575151473", "color": "#262626" }, "geometry": { "type": "Point", "coordinates": [ -90.966797, 15.029686 ] } }
{ "type": "Feature", "tippecanoe": { "layer": "2AFCA0FE35881583916454735", "minzoom": 2, "maxzoom": 8 }, "properties": { "halo": 0.8, "title": "怒溪文化", "fontsize": 12, "tyid": "304002", "oid": "103:1576575151330", "color": "#262626" }, "geometry": { "type": "Point", "coordinates": [ -72.421875, 41.574361 ] } }
{ "type": "Feature", "tippecanoe": { "layer": "2AFCA0FE35881583916454735", "minzoom": 2, "maxzoom": 8 }, "properties": { "halo": 0.8, "title": "埃里森-拉莫特文化", "fontsize": 12, "tyid": "304002", "oid": "103:1576575151658", "color": "#262626" }, "geometry": { "type": "Point", "coordinates": [ -87.626953, 39.095963 ] } }
{ "type": "Feature", "tippecanoe": { "layer": "2AFCA0FE35881583916454735", "minzoom": 2, "maxzoom": 8 }, "properties": { "halo": 0.8, "title": "米勒文化", "fontsize": 12, "tyid": "304002", "oid": "103:1576575151555", "color": "#262626" }, "geometry": { "type": "Point", "coordinates": [ -88.242188, 34.161818 ] } }
{ "type": "Feature", "tippecanoe": { "layer": "2AFCA0FE35881583916454735", "minzoom": 2, "maxzoom": 8 }, "properties": { "halo": 0.8, "title": "山地霍普维尔文化", "fontsize": 12, "tyid": "304002", "oid": "103:1576575151353", "color": "#262626" }, "geometry": { "type": "Point", "coordinates": [ -79.980469, 39.300299 ] } }
{ "type": "Feature", "tippecanoe": { "layer": "2AFCA0FE35881583916454735", "minzoom": 2, "maxzoom": 8 }, "properties": { "halo": 0.8, "title": "凯兹池塘文化", "fontsize": 12, "tyid": "304002", "oid": "103:1576575151734", "color": "#262626" }, "geometry": { "type": "Point", "coordinates": [ -82.265625, 29.535230 ] } }
{ "type": "Feature", "tippecanoe": { "layer": "2AFCA0FE35881583916454735", "minzoom": 2, "maxzoom": 8 }, "properties": { "halo": 0.8, "title": "玛纳索塔文化", "fontsize": 12, "tyid": "304002", "oid": "103:1576575151370", "color": "#262626" }, "geometry": { "type": "Point", "coordinates": [ -82.441406, 27.683528 ] } }
{ "type": "Feature", "tippecanoe": { "layer": "2AFCA0FE35881583916454735", "minzoom": 2, "maxzoom": 8 }, "properties": { "halo": 0.8, "title": "卡卢萨人", "fontsize": 12, "tyid": "304001", "oid": "103:1576575151333", "color": "#262626" }, "geometry": { "type": "Point", "coordinates": [ -81.650391, 27.137368 ] } }
{ "type": "Feature", "tippecanoe": { "layer": "2AFCA0FE35881583916454735", "minzoom": 2, "maxzoom": 8 }, "properties": { "halo": 0.8, "title": "圣约翰文化", "fontsize": 12, "tyid": "304002", "oid": "103:1576575151389", "color": "#262626" }, "geometry": { "type": "Point", "coordinates": [ -81.474609, 29.382175 ] } }
{ "type": "Feature", "tippecanoe": { "layer": "2AFCA0FE35881583916454735", "minzoom": 2, "maxzoom": 8 }, "properties": { "halo": 0.8, "title": "贝尔格莱德文化", "fontsize": 12, "tyid": "304002", "oid": "103:1576575151289", "color": "#262626" }, "geometry": { "type": "Point", "coordinates": [ -80.859375, 27.527758 ] } }
{ "type": "Feature", "tippecanoe": { "layer": "2AFCA0FE35881583916454735", "minzoom": 2, "maxzoom": 8 }, "properties": { "halo": 0.8, "title": "格莱兹文化", "fontsize": 12, "tyid": "304002", "oid": "103:1576575151737", "color": "#262626" }, "geometry": { "type": "Point", "coordinates": [ -80.859375, 26.037042 ] } }
{ "type": "Feature", "tippecanoe": { "layer": "2AFCA0FE35881583916454735", "minzoom": 2, "maxzoom": 8 }, "properties": { "halo": 0.8, "title": "德贵斯塔族", "fontsize": 12, "tyid": "304001", "oid": "103:1576575151460", "color": "#262626" }, "geometry": { "type": "Point", "coordinates": [ -80.419922, 25.641526 ] } }
{ "type": "Feature", "tippecanoe": { "layer": "2AFCA0FE35881583916454735", "minzoom": 2, "maxzoom": 8 }, "properties": { "halo": 0.8, "title": "雷卡人", "fontsize": 12, "tyid": "304001", "oid": "103:1576575151723", "color": "#262626" }, "geometry": { "type": "Point", "coordinates": [ -87.802734, 13.752725 ] } }
{ "type": "Feature", "tippecanoe": { "layer": "2AFCA0FE35881583916454735", "minzoom": 2, "maxzoom": 8 }, "properties": { "halo": 0.8, "title": "格兰科克勒文化", "fontsize": 12, "tyid": "304002", "oid": "103:1576575151315", "color": "#262626" }, "geometry": { "type": "Point", "coordinates": [ -80.507812, 8.581021 ] } }
{ "type": "Feature", "tippecanoe": { "layer": "2AFCA0FE35881583916454735", "minzoom": 2, "maxzoom": 8 }, "properties": { "halo": 0.8, "title": "泰罗纳", "fontsize": 12, "tyid": "304000", "oid": "103:1576575151434", "color": "#202020" }, "geometry": { "type": "Point", "coordinates": [ -73.564453, 10.833306 ] } }
{ "type": "Feature", "tippecanoe": { "layer": "2AFCA0FE35881583916454735", "minzoom": 2, "maxzoom": 8 }, "properties": { "halo": 0.8, "title": "约托科文化", "fontsize": 12, "tyid": "304002", "oid": "103:1576575151593", "color": "#262626" }, "geometry": { "type": "Point", "coordinates": [ -76.464844, 3.864255 ] } }
{ "type": "Feature", "tippecanoe": { "layer": "2AFCA0FE35881583916454735", "minzoom": 2, "maxzoom": 8 }, "properties": { "halo": 0.8, "title": "昆巴雅文明", "fontsize": 12, "tyid": "304002", "oid": "103:1576575151639", "color": "#262626" }, "geometry": { "type": "Point", "coordinates": [ -75.761719, 5.090944 ] } }
{ "type": "Feature", "tippecanoe": { "layer": "2AFCA0FE35881583916454735", "minzoom": 2, "maxzoom": 8 }, "properties": { "halo": 0.8, "title": "萨拉杜文化", "fontsize": 12, "tyid": "304002", "oid": "103:1576575151319", "color": "#262626" }, "geometry": { "type": "Point", "coordinates": [ -61.699219, 16.214675 ] } }
{ "type": "Feature", "tippecanoe": { "layer": "2AFCA0FE35881583916454735", "minzoom": 2, "maxzoom": 8 }, "properties": { "halo": 0.8, "title": "奥利尔王国", "fontsize": 12, "tyid": "304000", "oid": "103:1576575151664", "color": "#202020" }, "geometry": { "type": "Point", "coordinates": [ -7.910156, 54.927142 ] } }
{ "type": "Feature", "tippecanoe": { "layer": "2AFCA0FE35881583916454735", "minzoom": 2, "maxzoom": 8 }, "properties": { "halo": 0.8, "title": "斯特拉瑟克雷德王国", "fontsize": 12, "tyid": "304000", "oid": "103:1576575151519", "color": "#202020" }, "geometry": { "type": "Point", "coordinates": [ -4.218750, 55.429013 ] } }
{ "type": "Feature", "tippecanoe": { "layer": "2AFCA0FE35881583916454735", "minzoom": 2, "maxzoom": 8 }, "properties": { "halo": 0.8, "title": "格温内斯王国", "fontsize": 12, "tyid": "304000", "oid": "103:1576575151726", "color": "#202020" }, "geometry": { "type": "Point", "coordinates": [ -3.867188, 53.014783 ] } }
{ "type": "Feature", "tippecanoe": { "layer": "2AFCA0FE35881583916454735", "minzoom": 2, "maxzoom": 8 }, "properties": { "halo": 0.8, "title": "波威斯王国", "fontsize": 12, "tyid": "304000", "oid": "103:1576575151422", "color": "#202020" }, "geometry": { "type": "Point", "coordinates": [ -3.339844, 52.536273 ] } }
{ "type": "Feature", "tippecanoe": { "layer": "2AFCA0FE35881583916454735", "minzoom": 2, "maxzoom": 8 }, "properties": { "halo": 0.8, "title": "锡尔迪金王国", "fontsize": 12, "tyid": "304000", "oid": "103:1576575151576", "color": "#202020" }, "geometry": { "type": "Point", "coordinates": [ -4.306641, 52.160455 ] } }
{ "type": "Feature", "tippecanoe": { "layer": "2AFCA0FE35881583916454735", "minzoom": 2, "maxzoom": 8 }, "properties": { "halo": 0.8, "title": "达费德王国", "fontsize": 12, "tyid": "304000", "oid": "103:1576575151574", "color": "#202020" }, "geometry": { "type": "Point", "coordinates": [ -4.042969, 51.890054 ] } }
{ "type": "Feature", "tippecanoe": { "layer": "2AFCA0FE35881583916454735", "minzoom": 2, "maxzoom": 8 }, "properties": { "halo": 0.8, "title": "布里奇尼奥格王国", "fontsize": 12, "tyid": "304000", "oid": "103:1576575151531", "color": "#202020" }, "geometry": { "type": "Point", "coordinates": [ -3.251953, 52.052490 ] } }
{ "type": "Feature", "tippecanoe": { "layer": "2AFCA0FE35881583916454735", "minzoom": 2, "maxzoom": 8 }, "properties": { "halo": 0.8, "title": "格利维辛王国", "fontsize": 12, "tyid": "304000", "oid": "103:1576575151570", "color": "#202020" }, "geometry": { "type": "Point", "coordinates": [ -3.427734, 51.672555 ] } }
{ "type": "Feature", "tippecanoe": { "layer": "2AFCA0FE35881583916454735", "minzoom": 2, "maxzoom": 8 }, "properties": { "halo": 0.8, "title": "格温特王国", "fontsize": 12, "tyid": "304000", "oid": "103:1576575151261", "color": "#202020" }, "geometry": { "type": "Point", "coordinates": [ -2.900391, 51.727028 ] } }
{ "type": "Feature", "tippecanoe": { "layer": "2AFCA0FE35881583916454735", "minzoom": 2, "maxzoom": 8 }, "properties": { "halo": 0.8, "title": "坎塔布里人", "fontsize": 12, "tyid": "304001", "oid": "103:1576575151528", "color": "#262626" }, "geometry": { "type": "Point", "coordinates": [ -4.218750, 43.068888 ] } }
{ "type": "Feature", "tippecanoe": { "layer": "2AFCA0FE35881583916454735", "minzoom": 2, "maxzoom": 8 }, "properties": { "halo": 0.8, "title": "奥特里冈人", "fontsize": 12, "tyid": "304001", "oid": "103:1576575151417", "color": "#262626" }, "geometry": { "type": "Point", "coordinates": [ -3.339844, 43.004647 ] } }
{ "type": "Feature", "tippecanoe": { "layer": "2AFCA0FE35881583916454735", "minzoom": 2, "maxzoom": 8 }, "properties": { "halo": 0.8, "title": "卡斯蒂利人", "fontsize": 12, "tyid": "304001", "oid": "103:1576575151436", "color": "#262626" }, "geometry": { "type": "Point", "coordinates": [ -2.812500, 43.068888 ] } }
{ "type": "Feature", "tippecanoe": { "layer": "2AFCA0FE35881583916454735", "minzoom": 2, "maxzoom": 8 }, "properties": { "halo": 0.8, "title": "瓦杜里人", "fontsize": 12, "tyid": "304001", "oid": "103:1576575151403", "color": "#262626" }, "geometry": { "type": "Point", "coordinates": [ -2.285156, 42.940339 ] } }
{ "type": "Feature", "tippecanoe": { "layer": "2AFCA0FE35881583916454735", "minzoom": 2, "maxzoom": 8 }, "properties": { "halo": 0.8, "title": "巴斯克人", "fontsize": 12, "tyid": "304001", "oid": "103:1576575151578", "color": "#262626" }, "geometry": { "type": "Point", "coordinates": [ -1.494141, 42.811522 ] } }
{ "type": "Feature", "tippecanoe": { "layer": "2AFCA0FE35881583916454735", "minzoom": 2, "maxzoom": 8 }, "properties": { "halo": 0.8, "title": "关切人", "fontsize": 12, "tyid": "304001", "oid": "103:1576575151743", "color": "#262626" }, "geometry": { "type": "Point", "coordinates": [ -16.611328, 28.304381 ] } }
{ "type": "Feature", "tippecanoe": { "layer": "2AFCA0FE35881583916454735", "minzoom": 2, "maxzoom": 8 }, "properties": { "halo": 0.8, "title": "瓜纳加拉文化", "fontsize": 12, "tyid": "304002", "oid": "103:1576575151377", "color": "#262626" }, "geometry": { "type": "Point", "coordinates": [ -80.595703, -1.669686 ] } }
{ "type": "Feature", "tippecanoe": { "layer": "2AFCA0FE35881583916454735", "minzoom": 2, "maxzoom": 8 }, "properties": { "halo": 0.8, "title": "巴伊亚文化", "fontsize": 12, "tyid": "304002", "oid": "103:1576575151514", "color": "#262626" }, "geometry": { "type": "Point", "coordinates": [ -80.068359, -0.527336 ] } }
{ "type": "Feature", "tippecanoe": { "layer": "2AFCA0FE35881583916454735", "minzoom": 2, "maxzoom": 8 }, "properties": { "halo": 0.8, "title": "莫切文明", "fontsize": 12, "tyid": "304002", "oid": "103:1576575151301", "color": "#262626" }, "geometry": { "type": "Point", "coordinates": [ -79.013672, -7.623887 ] } }
{ "type": "Feature", "tippecanoe": { "layer": "2AFCA0FE35881583916454735", "minzoom": 2, "maxzoom": 8 }, "properties": { "halo": 0.8, "title": "维鲁文化", "fontsize": 12, "tyid": "304002", "oid": "103:1576575151718", "color": "#262626" }, "geometry": { "type": "Point", "coordinates": [ -78.837891, -8.320212 ] } }
{ "type": "Feature", "tippecanoe": { "layer": "2AFCA0FE35881583916454735", "minzoom": 2, "maxzoom": 8 }, "properties": { "halo": 0.8, "title": "卡哈马卡文化", "fontsize": 12, "tyid": "304002", "oid": "103:1576575151662", "color": "#262626" }, "geometry": { "type": "Point", "coordinates": [ -78.750000, -6.227934 ] } }
{ "type": "Feature", "tippecanoe": { "layer": "2AFCA0FE35881583916454735", "minzoom": 2, "maxzoom": 8 }, "properties": { "halo": 0.8, "title": "瑞克文化", "fontsize": 12, "tyid": "304002", "oid": "103:1576575151296", "color": "#262626" }, "geometry": { "type": "Point", "coordinates": [ -77.607422, -9.709057 ] } }
{ "type": "Feature", "tippecanoe": { "layer": "2AFCA0FE35881583916454735", "minzoom": 2, "maxzoom": 8 }, "properties": { "halo": 0.8, "title": "利马文化", "fontsize": 12, "tyid": "304002", "oid": "103:1576575151288", "color": "#262626" }, "geometry": { "type": "Point", "coordinates": [ -76.289062, -12.382928 ] } }
{ "type": "Feature", "tippecanoe": { "layer": "2AFCA0FE35881583916454735", "minzoom": 2, "maxzoom": 8 }, "properties": { "halo": 0.8, "title": "华帕文化", "fontsize": 12, "tyid": "304002", "oid": "103:1576575151322", "color": "#262626" }, "geometry": { "type": "Point", "coordinates": [ -74.179688, -13.581921 ] } }
{ "type": "Feature", "tippecanoe": { "layer": "2AFCA0FE35881583916454735", "minzoom": 2, "maxzoom": 8 }, "properties": { "halo": 0.8, "title": "纳斯卡文化", "fontsize": 12, "tyid": "304002", "oid": "103:1576575151298", "color": "#262626" }, "geometry": { "type": "Point", "coordinates": [ -75.058594, -14.944785 ] } }
{ "type": "Feature", "tippecanoe": { "layer": "2AFCA0FE35881583916454735", "minzoom": 2, "maxzoom": 8 }, "properties": { "halo": 0.8, "title": "普加拉文化", "fontsize": 12, "tyid": "304002", "oid": "103:1576575151346", "color": "#262626" }, "geometry": { "type": "Point", "coordinates": [ -69.697266, -13.838080 ] } }
{ "type": "Feature", "tippecanoe": { "layer": "2AFCA0FE35881583916454735", "minzoom": 2, "maxzoom": 8 }, "properties": { "halo": 0.8, "title": "巴托文化", "fontsize": 12, "tyid": "304002", "oid": "103:1576575151469", "color": "#262626" }, "geometry": { "type": "Point", "coordinates": [ -71.367188, -33.211116 ] } }
{ "type": "Feature", "tippecanoe": { "layer": "2AFCA0FE35881583916454735", "minzoom": 2, "maxzoom": 8 }, "properties": { "halo": 0.8, "title": "塔夫文化", "fontsize": 12, "tyid": "304002", "oid": "103:1576575151765", "color": "#262626" }, "geometry": { "type": "Point", "coordinates": [ -65.654297, -26.980829 ] } }
{ "type": "Feature", "tippecanoe": { "layer": "2AFCA0FE35881583916454735", "minzoom": 2, "maxzoom": 8 }, "properties": { "halo": 0.8, "title": "豪什人", "fontsize": 12, "tyid": "304001", "oid": "103:1576575151272", "color": "#262626" }, "geometry": { "type": "Point", "coordinates": [ -65.917969, -54.724620 ] } }
{ "type": "Feature", "tippecanoe": { "layer": "2AFCA0FE35881583916454735", "minzoom": 2, "maxzoom": 8 }, "properties": { "halo": 0.8, "title": "哥得兰人", "fontsize": 12, "tyid": "304001", "oid": "103:1576575151316", "color": "#262626" }, "geometry": { "type": "Point", "coordinates": [ 18.457031, 57.515823 ] } }
{ "type": "Feature", "tippecanoe": { "layer": "2AFCA0FE35881583916454735", "minzoom": 2, "maxzoom": 8 }, "properties": { "halo": 0.8, "title": "东盎格利亚王国", "fontsize": 12, "tyid": "304000", "oid": "103:1576575151682", "color": "#202020" }, "geometry": { "type": "Point", "coordinates": [ 0.791016, 52.268157 ] } }
{ "type": "Feature", "tippecanoe": { "layer": "2AFCA0FE35881583916454735", "minzoom": 2, "maxzoom": 8 }, "properties": { "halo": 0.8, "title": "盎格鲁人", "fontsize": 12, "tyid": "304001", "oid": "103:1576575151558", "color": "#262626" }, "geometry": { "type": "Point", "coordinates": [ 9.667969, 54.316523 ] } }
{ "type": "Feature", "tippecanoe": { "layer": "2AFCA0FE35881583916454735", "minzoom": 2, "maxzoom": 8 }, "properties": { "halo": 0.8, "title": "西加林迪亚人", "fontsize": 12, "tyid": "304001", "oid": "103:1576575151557", "color": "#262626" }, "geometry": { "type": "Point", "coordinates": [ 20.654297, 53.067627 ] } }
{ "type": "Feature", "tippecanoe": { "layer": "2AFCA0FE35881583916454735", "minzoom": 2, "maxzoom": 8 }, "properties": { "halo": 0.8, "title": "圣马力诺共和国", "fontsize": 12, "tyid": "304001", "oid": "103:1576575151561", "color": "#262626" }, "geometry": { "type": "Point", "coordinates": [ 12.392578, 43.961191 ] } }
{ "type": "Feature", "tippecanoe": { "layer": "2AFCA0FE35881583916454735", "minzoom": 2, "maxzoom": 8 }, "properties": { "halo": 0.8, "title": "奥耶塞利人", "fontsize": 12, "tyid": "304001", "oid": "103:1576575151379", "color": "#262626" }, "geometry": { "type": "Point", "coordinates": [ 22.500000, 58.447733 ] } }
{ "type": "Feature", "tippecanoe": { "layer": "2AFCA0FE35881583916454735", "minzoom": 2, "maxzoom": 8 }, "properties": { "halo": 0.8, "title": "塞米加利亚人", "fontsize": 12, "tyid": "304001", "oid": "103:1576575151470", "color": "#262626" }, "geometry": { "type": "Point", "coordinates": [ 23.642578, 56.559482 ] } }
{ "type": "Feature", "tippecanoe": { "layer": "2AFCA0FE35881583916454735", "minzoom": 2, "maxzoom": 8 }, "properties": { "halo": 0.8, "title": "瑟罗尼亚人", "fontsize": 12, "tyid": "304001", "oid": "103:1576575151402", "color": "#262626" }, "geometry": { "type": "Point", "coordinates": [ 25.312500, 56.121060 ] } }
{ "type": "Feature", "tippecanoe": { "layer": "2AFCA0FE35881583916454735", "minzoom": 2, "maxzoom": 8 }, "properties": { "halo": 0.8, "title": "科尔基斯山中诸部", "fontsize": 12, "tyid": "304002", "oid": "103:1576575151739", "color": "#262626" }, "geometry": { "type": "Point", "coordinates": [ 40.429688, 43.389082 ] } }
{ "type": "Feature", "tippecanoe": { "layer": "2AFCA0FE35881583916454735", "minzoom": 2, "maxzoom": 8 }, "properties": { "halo": 0.8, "title": "古莱什部落", "fontsize": 12, "tyid": "304001", "oid": "103:1576575151638", "color": "#262626" }, "geometry": { "type": "Point", "coordinates": [ 39.990234, 21.616579 ] } }
{ "type": "Feature", "tippecanoe": { "layer": "2AFCA0FE35881583916454735", "minzoom": 2, "maxzoom": 8 }, "properties": { "halo": 0.8, "title": "石国", "fontsize": 12, "tyid": "304000", "oid": "103:1576575151399", "color": "#202020" }, "geometry": { "type": "Point", "coordinates": [ 69.345703, 41.442726 ] } }
{ "type": "Feature", "tippecanoe": { "layer": "2AFCA0FE35881583916454735", "minzoom": 2, "maxzoom": 8 }, "properties": { "halo": 0.8, "title": "安国", "fontsize": 12, "tyid": "304000", "oid": "103:1576575151609", "color": "#202020" }, "geometry": { "type": "Point", "coordinates": [ 64.511719, 39.842286 ] } }
{ "type": "Feature", "tippecanoe": { "layer": "2AFCA0FE35881583916454735", "minzoom": 2, "maxzoom": 8 }, "properties": { "halo": 0.8, "title": "何国", "fontsize": 12, "tyid": "304000", "oid": "103:1576575151610", "color": "#202020" }, "geometry": { "type": "Point", "coordinates": [ 65.742188, 39.977120 ] } }
{ "type": "Feature", "tippecanoe": { "layer": "2AFCA0FE35881583916454735", "minzoom": 2, "maxzoom": 8 }, "properties": { "halo": 0.8, "title": "史国", "fontsize": 12, "tyid": "304000", "oid": "103:1576575151511", "color": "#202020" }, "geometry": { "type": "Point", "coordinates": [ 66.621094, 39.027719 ] } }
{ "type": "Feature", "tippecanoe": { "layer": "2AFCA0FE35881583916454735", "minzoom": 2, "maxzoom": 8 }, "properties": { "halo": 0.8, "title": "康国", "fontsize": 12, "tyid": "304000", "oid": "103:1576575151447", "color": "#202020" }, "geometry": { "type": "Point", "coordinates": [ 66.972656, 39.707187 ] } }
{ "type": "Feature", "tippecanoe": { "layer": "2AFCA0FE35881583916454735", "minzoom": 2, "maxzoom": 8 }, "properties": { "halo": 0.8, "title": "曹国", "fontsize": 12, "tyid": "304000", "oid": "103:1576575151443", "color": "#202020" }, "geometry": { "type": "Point", "coordinates": [ 68.027344, 40.044438 ] } }
{ "type": "Feature", "tippecanoe": { "layer": "2AFCA0FE35881583916454735", "minzoom": 2, "maxzoom": 8 }, "properties": { "halo": 0.8, "title": "米国", "fontsize": 12, "tyid": "304000", "oid": "103:1576575151792", "color": "#202020" }, "geometry": { "type": "Point", "coordinates": [ 67.851562, 39.504041 ] } }
{ "type": "Feature", "tippecanoe": { "layer": "2AFCA0FE35881583916454735", "minzoom": 2, "maxzoom": 8 }, "properties": { "halo": 0.8, "title": "竭盘陀国", "fontsize": 12, "tyid": "304000", "oid": "103:1576575151507", "color": "#202020" }, "geometry": { "type": "Point", "coordinates": [ 75.234375, 37.996163 ] } }
{ "type": "Feature", "tippecanoe": { "layer": "2AFCA0FE35881583916454735", "minzoom": 2, "maxzoom": 8 }, "properties": { "halo": 0.8, "title": "罗昂", "fontsize": 12, "tyid": "304000", "oid": "103:1576575151693", "color": "#202020" }, "geometry": { "type": "Point", "coordinates": [ 89.208984, 29.152161 ] } }
{ "type": "Feature", "tippecanoe": { "layer": "2AFCA0FE35881583916454735", "minzoom": 2, "maxzoom": 8 }, "properties": { "halo": 0.8, "title": "藏", "fontsize": 12, "tyid": "304000", "oid": "103:1576575151458", "color": "#202020" }, "geometry": { "type": "Point", "coordinates": [ 89.736328, 28.844674 ] } }
{ "type": "Feature", "tippecanoe": { "layer": "2AFCA0FE35881583916454735", "minzoom": 2, "maxzoom": 8 }, "properties": { "halo": 0.8, "title": "卓木南木松", "fontsize": 12, "tyid": "304000", "oid": "103:1576575151747", "color": "#202020" }, "geometry": { "type": "Point", "coordinates": [ 88.945312, 27.839076 ] } }
{ "type": "Feature", "tippecanoe": { "layer": "2AFCA0FE35881583916454735", "minzoom": 2, "maxzoom": 8 }, "properties": { "halo": 0.8, "title": "阿拉帕王朝", "fontsize": 12, "tyid": "304000", "oid": "103:1576575151605", "color": "#202020" }, "geometry": { "type": "Point", "coordinates": [ 75.322266, 12.811801 ] } }
{ "type": "Feature", "tippecanoe": { "layer": "2AFCA0FE35881583916454735", "minzoom": 2, "maxzoom": 8 }, "properties": { "halo": 0.8, "title": "吉", "fontsize": 12, "tyid": "304000", "oid": "103:1576575151457", "color": "#202020" }, "geometry": { "type": "Point", "coordinates": [ 91.406250, 29.764377 ] } }
{ "type": "Feature", "tippecanoe": { "layer": "2AFCA0FE35881583916454735", "minzoom": 2, "maxzoom": 8 }, "properties": { "halo": 0.8, "title": "琛", "fontsize": 12, "tyid": "304000", "oid": "103:1576575151265", "color": "#202020" }, "geometry": { "type": "Point", "coordinates": [ 91.230469, 29.382175 ] } }
{ "type": "Feature", "tippecanoe": { "layer": "2AFCA0FE35881583916454735", "minzoom": 2, "maxzoom": 8 }, "properties": { "halo": 0.8, "title": "悉补野", "fontsize": 12, "tyid": "304000", "oid": "103:1576575151691", "color": "#202020" }, "geometry": { "type": "Point", "coordinates": [ 91.845703, 29.152161 ] } }
{ "type": "Feature", "tippecanoe": { "layer": "2AFCA0FE35881583916454735", "minzoom": 2, "maxzoom": 8 }, "properties": { "halo": 0.8, "title": "俄玉邦噶", "fontsize": 12, "tyid": "304000", "oid": "103:1576575151773", "color": "#202020" }, "geometry": { "type": "Point", "coordinates": [ 92.548828, 29.152161 ] } }
{ "type": "Feature", "tippecanoe": { "layer": "2AFCA0FE35881583916454735", "minzoom": 2, "maxzoom": 8 }, "properties": { "halo": 0.8, "title": "娘", "fontsize": 12, "tyid": "304000", "oid": "103:1576575151748", "color": "#202020" }, "geometry": { "type": "Point", "coordinates": [ 93.339844, 29.916852 ] } }
{ "type": "Feature", "tippecanoe": { "layer": "2AFCA0FE35881583916454735", "minzoom": 2, "maxzoom": 8 }, "properties": { "halo": 0.8, "title": "贡", "fontsize": 12, "tyid": "304000", "oid": "103:1576575151453", "color": "#202020" }, "geometry": { "type": "Point", "coordinates": [ 94.482422, 29.688053 ] } }
{ "type": "Feature", "tippecanoe": { "layer": "2AFCA0FE35881583916454735", "minzoom": 2, "maxzoom": 8 }, "properties": { "halo": 0.8, "title": "达", "fontsize": 12, "tyid": "304000", "oid": "103:1576575151455", "color": "#202020" }, "geometry": { "type": "Point", "coordinates": [ 93.603516, 29.152161 ] } }
{ "type": "Feature", "tippecanoe": { "layer": "2AFCA0FE35881583916454735", "minzoom": 2, "maxzoom": 8 }, "properties": { "halo": 0.8, "title": "宕昌国", "fontsize": 12, "tyid": "304000", "oid": "103:1576575151680", "color": "#202020" }, "geometry": { "type": "Point", "coordinates": [ 104.238281, 33.943360 ] } }
{ "type": "Feature", "tippecanoe": { "layer": "2AFCA0FE35881583916454735", "minzoom": 2, "maxzoom": 8 }, "properties": { "halo": 0.8, "title": "邓至国", "fontsize": 12, "tyid": "304000", "oid": "103:1576575151269", "color": "#202020" }, "geometry": { "type": "Point", "coordinates": [ 104.062500, 33.137551 ] } }
{ "type": "Feature", "tippecanoe": { "layer": "2AFCA0FE35881583916454735", "minzoom": 2, "maxzoom": 8 }, "properties": { "halo": 0.8, "title": "迦托诃国", "fontsize": 12, "tyid": "304000", "oid": "103:1576575151746", "color": "#202020" }, "geometry": { "type": "Point", "coordinates": [ 100.283203, 6.315299 ] } }
{ "type": "Feature", "tippecanoe": { "layer": "2AFCA0FE35881583916454735", "minzoom": 2, "maxzoom": 8 }, "properties": { "halo": 0.8, "title": "狼牙脩国", "fontsize": 12, "tyid": "304000", "oid": "103:1576575151705", "color": "#202020" }, "geometry": { "type": "Point", "coordinates": [ 100.898438, 6.053161 ] } }
{ "type": "Feature", "tippecanoe": { "layer": "2AFCA0FE35881583916454735", "minzoom": 2, "maxzoom": 8 }, "properties": { "halo": 0.8, "title": "刚迦王国", "fontsize": 12, "tyid": "304000", "oid": "103:1576575151594", "color": "#202020" }, "geometry": { "type": "Point", "coordinates": [ 101.074219, 4.828260 ] } }
{ "type": "Feature", "tippecanoe": { "layer": "2AFCA0FE35881583916454735", "minzoom": 2, "maxzoom": 8 }, "properties": { "halo": 0.8, "title": "石坛文化", "fontsize": 12, "tyid": "304002", "oid": "103:1576575151774", "color": "#262626" }, "geometry": { "type": "Point", "coordinates": [ 103.359375, 19.559790 ] } }
{ "type": "Feature", "tippecanoe": { "layer": "2AFCA0FE35881583916454735", "minzoom": 2, "maxzoom": 8 }, "properties": { "halo": 0.8, "title": "丹丹国", "fontsize": 12, "tyid": "304000", "oid": "103:1576575151571", "color": "#202020" }, "geometry": { "type": "Point", "coordinates": [ 103.359375, 2.108899 ] } }
{ "type": "Feature", "tippecanoe": { "layer": "2AFCA0FE35881583916454735", "minzoom": 2, "maxzoom": 8 }, "properties": { "halo": 0.8, "title": "番仔园文化", "fontsize": 12, "tyid": "304002", "oid": "103:1576575151710", "color": "#262626" }, "geometry": { "type": "Point", "coordinates": [ 120.673828, 24.287027 ] } }
{ "type": "Feature", "tippecanoe": { "layer": "2AFCA0FE35881583916454735", "minzoom": 2, "maxzoom": 8 }, "properties": { "halo": 0.8, "title": "茑松文化", "fontsize": 12, "tyid": "304002", "oid": "103:1576575151752", "color": "#262626" }, "geometry": { "type": "Point", "coordinates": [ 120.322266, 23.079732 ] } }
{ "type": "Feature", "tippecanoe": { "layer": "2AFCA0FE35881583916454735", "minzoom": 2, "maxzoom": 8 }, "properties": { "halo": 0.8, "title": "龟山文化", "fontsize": 12, "tyid": "304002", "oid": "103:1576575151433", "color": "#262626" }, "geometry": { "type": "Point", "coordinates": [ 120.673828, 22.512557 ] } }
{ "type": "Feature", "tippecanoe": { "layer": "2AFCA0FE35881583916454735", "minzoom": 2, "maxzoom": 8 }, "properties": { "halo": 0.8, "title": "十三行文化", "fontsize": 12, "tyid": "304002", "oid": "103:1576575151763", "color": "#262626" }, "geometry": { "type": "Point", "coordinates": [ 121.376953, 24.846565 ] } }
{ "type": "Feature", "tippecanoe": { "layer": "2AFCA0FE35881583916454735", "minzoom": 2, "maxzoom": 8 }, "properties": { "halo": 0.8, "title": "静浦文化", "fontsize": 12, "tyid": "304002", "oid": "103:1576575151612", "color": "#262626" }, "geometry": { "type": "Point", "coordinates": [ 121.025391, 22.917923 ] } }
{ "type": "Feature", "tippecanoe": { "layer": "2AFCA0FE35881583916454735", "minzoom": 2, "maxzoom": 8 }, "properties": { "halo": 0.8, "title": "耽罗国", "fontsize": 12, "tyid": "304000", "oid": "103:1576575151777", "color": "#202020" }, "geometry": { "type": "Point", "coordinates": [ 126.474609, 33.431441 ] } }
{ "type": "Feature", "tippecanoe": { "layer": "2AFCA0FE35881583916454735", "minzoom": 2, "maxzoom": 8 }, "properties": { "halo": 0.8, "title": "伽倻", "fontsize": 12, "tyid": "304000", "oid": "103:1576575151508", "color": "#202020" }, "geometry": { "type": "Point", "coordinates": [ 127.880859, 35.532226 ] } }
{ "type": "Feature", "tippecanoe": { "layer": "2AFCA0FE35881583916454735", "minzoom": 2, "maxzoom": 8 }, "properties": { "halo": 0.8, "title": "任那", "fontsize": 12, "tyid": "304000", "oid": "103:1576575151444", "color": "#202020" }, "geometry": { "type": "Point", "coordinates": [ 128.056641, 35.101934 ] } }
{ "type": "Feature", "tippecanoe": { "layer": "2AFCA0FE35881583916454735", "minzoom": 2, "maxzoom": 8 }, "properties": { "halo": 0.8, "title": "于山国", "fontsize": 12, "tyid": "304000", "oid": "103:1576575151716", "color": "#202020" }, "geometry": { "type": "Point", "coordinates": [ 130.869141, 37.509726 ] } }
{ "type": "Feature", "tippecanoe": { "layer": "2AFCA0FE35881583916454735", "minzoom": 2, "maxzoom": 8 }, "properties": { "halo": 0.8, "title": "隼人", "fontsize": 12, "tyid": "304001", "oid": "103:1576575151501", "color": "#262626" }, "geometry": { "type": "Point", "coordinates": [ 130.869141, 32.026706 ] } }
{ "type": "Feature", "tippecanoe": { "layer": "2AFCA0FE35881583916454735", "minzoom": 2, "maxzoom": 8 }, "properties": { "halo": 0.8, "title": "尼格利陀人", "fontsize": 12, "tyid": "304001", "oid": "103:1576575151754", "color": "#262626" }, "geometry": { "type": "Point", "coordinates": [ 122.431641, 11.264612 ] } }
{ "type": "Feature", "tippecanoe": { "layer": "2AFCA0FE35881583916454735", "minzoom": 2, "maxzoom": 8 }, "properties": { "halo": 0.8, "title": "塔卢马王国", "fontsize": 12, "tyid": "304000", "oid": "103:1576575151709", "color": "#202020" }, "geometry": { "type": "Point", "coordinates": [ 106.787109, -6.402648 ] } }
{ "type": "Feature", "tippecanoe": { "layer": "2AFCA0FE35881583916454735", "minzoom": 2, "maxzoom": 8 }, "properties": { "halo": 0.8, "title": "托雷斯海峡岛民", "fontsize": 12, "tyid": "304001", "oid": "103:1576575151713", "color": "#262626" }, "geometry": { "type": "Point", "coordinates": [ 142.382812, -11.264612 ] } }
{ "type": "Feature", "tippecanoe": { "layer": "2AFCA193C4381583916454732", "minzoom": 2, "maxzoom": 8 }, "properties": { "halo": 0.8, "title": "拉霍亚文化", "fontsize": 12, "tyid": "304002", "oid": "103:1576575151485", "color": "#262626" }, "geometry": { "type": "Point", "coordinates": [ -118.212891, 34.379713 ] } }
{ "type": "Feature", "tippecanoe": { "layer": "2AFCA193C4381583916454732", "minzoom": 2, "maxzoom": 8 }, "properties": { "halo": 0.8, "title": "维珍阿纳萨齐人", "fontsize": 12, "tyid": "304001", "oid": "103:1576575151307", "color": "#262626" }, "geometry": { "type": "Point", "coordinates": [ -113.818359, 36.879621 ] } }
{ "type": "Feature", "tippecanoe": { "layer": "2AFCA193C4381583916454732", "minzoom": 2, "maxzoom": 8 }, "properties": { "halo": 0.8, "title": "霍霍卡姆文化", "fontsize": 12, "tyid": "304002", "oid": "103:1576575151360", "color": "#262626" }, "geometry": { "type": "Point", "coordinates": [ -112.851562, 32.768800 ] } }
{ "type": "Feature", "tippecanoe": { "layer": "2AFCA193C4381583916454732", "minzoom": 2, "maxzoom": 8 }, "properties": { "halo": 0.8, "title": "弗里蒙特文化", "fontsize": 12, "tyid": "304002", "oid": "103:1576575151294", "color": "#262626" }, "geometry": { "type": "Point", "coordinates": [ -111.533203, 38.134557 ] } }
{ "type": "Feature", "tippecanoe": { "layer": "2AFCA193C4381583916454732", "minzoom": 2, "maxzoom": 8 }, "properties": { "halo": 0.8, "title": "奥沙拉文化", "fontsize": 12, "tyid": "304002", "oid": "103:1576575151666", "color": "#262626" }, "geometry": { "type": "Point", "coordinates": [ -107.841797, 37.509726 ] } }
{ "type": "Feature", "tippecanoe": { "layer": "2AFCA193C4381583916454732", "minzoom": 2, "maxzoom": 8 }, "properties": { "halo": 0.8, "title": "古普韦布洛人", "fontsize": 12, "tyid": "304001", "oid": "103:1576575151669", "color": "#262626" }, "geometry": { "type": "Point", "coordinates": [ -109.951172, 36.527295 ] } }
{ "type": "Feature", "tippecanoe": { "layer": "2AFCA193C4381583916454732", "minzoom": 2, "maxzoom": 8 }, "properties": { "halo": 0.8, "title": "莫戈隆文化", "fontsize": 12, "tyid": "304002", "oid": "103:1576575151579", "color": "#262626" }, "geometry": { "type": "Point", "coordinates": [ -108.808594, 31.802893 ] } }
{ "type": "Feature", "tippecanoe": { "layer": "2AFCA193C4381583916454732", "minzoom": 2, "maxzoom": 8 }, "properties": { "halo": 0.8, "title": "瓜伊库拉人", "fontsize": 12, "tyid": "304001", "oid": "103:1576575151371", "color": "#262626" }, "geometry": { "type": "Point", "coordinates": [ -111.269531, 24.846565 ] } }
{ "type": "Feature", "tippecanoe": { "layer": "2AFCA193C4381583916454732", "minzoom": 2, "maxzoom": 8 }, "properties": { "halo": 0.8, "title": "堪萨斯城霍普韦尔文化", "fontsize": 12, "tyid": "304002", "oid": "103:1576575151439", "color": "#262626" }, "geometry": { "type": "Point", "coordinates": [ -94.042969, 39.027719 ] } }
{ "type": "Feature", "tippecanoe": { "layer": "2AFCA193C4381583916454732", "minzoom": 2, "maxzoom": 8 }, "properties": { "halo": 0.8, "title": "喀多语密西西比文化", "fontsize": 12, "tyid": "304002", "oid": "103:1576575151334", "color": "#262626" }, "geometry": { "type": "Point", "coordinates": [ -94.482422, 35.960223 ] } }
{ "type": "Feature", "tippecanoe": { "layer": "2AFCA193C4381583916454732", "minzoom": 2, "maxzoom": 8 }, "properties": { "halo": 0.8, "title": "福切马里尼文化", "fontsize": 12, "tyid": "304002", "oid": "103:1576575151676", "color": "#262626" }, "geometry": { "type": "Point", "coordinates": [ -94.042969, 33.358062 ] } }
{ "type": "Feature", "tippecanoe": { "layer": "2AFCA193C4381583916454732", "minzoom": 2, "maxzoom": 8 }, "properties": { "halo": 0.8, "title": "贝敦文化", "fontsize": 12, "tyid": "304002", "oid": "103:1576575151581", "color": "#262626" }, "geometry": { "type": "Point", "coordinates": [ -90.703125, 34.379713 ] } }
{ "type": "Feature", "tippecanoe": { "layer": "2AFCA193C4381583916454732", "minzoom": 2, "maxzoom": 8 }, "properties": { "halo": 0.8, "title": "华斯塔克文明", "fontsize": 12, "tyid": "304002", "oid": "103:1576575151351", "color": "#262626" }, "geometry": { "type": "Point", "coordinates": [ -98.613281, 22.105999 ] } }
{ "type": "Feature", "tippecanoe": { "layer": "2AFCA193C4381583916454732", "minzoom": 2, "maxzoom": 8 }, "properties": { "halo": 0.8, "title": "奇蒂玛察人", "fontsize": 12, "tyid": "304001", "oid": "103:1576575151642", "color": "#262626" }, "geometry": { "type": "Point", "coordinates": [ -90.878906, 30.902225 ] } }
{ "type": "Feature", "tippecanoe": { "layer": "2AFCA193C4381583916454732", "minzoom": 2, "maxzoom": 8 }, "properties": { "halo": 0.8, "title": "萨波特克文明", "fontsize": 12, "tyid": "304002", "oid": "103:1576575151344", "color": "#262626" }, "geometry": { "type": "Point", "coordinates": [ -96.064453, 16.888660 ] } }
{ "type": "Feature", "tippecanoe": { "layer": "2AFCA193C4381583916454732", "minzoom": 2, "maxzoom": 8 }, "properties": { "halo": 0.8, "title": "古德尔文化", "fontsize": 12, "tyid": "304002", "oid": "103:1576575151700", "color": "#262626" }, "geometry": { "type": "Point", "coordinates": [ -85.869141, 43.133061 ] } }
{ "type": "Feature", "tippecanoe": { "layer": "2AFCA193C4381583916454732", "minzoom": 2, "maxzoom": 8 }, "properties": { "halo": 0.8, "title": "索根文化", "fontsize": 12, "tyid": "304002", "oid": "103:1576575151646", "color": "#262626" }, "geometry": { "type": "Point", "coordinates": [ -81.298828, 43.707594 ] } }
{ "type": "Feature", "tippecanoe": { "layer": "2AFCA193C4381583916454732", "minzoom": 2, "maxzoom": 8 }, "properties": { "halo": 0.8, "title": "蟹园文化", "fontsize": 12, "tyid": "304002", "oid": "103:1576575151644", "color": "#262626" }, "geometry": { "type": "Point", "coordinates": [ -88.593750, 37.230328 ] } }
{ "type": "Feature", "tippecanoe": { "layer": "2AFCA193C4381583916454732", "minzoom": 2, "maxzoom": 8 }, "properties": { "halo": 0.8, "title": "特洛伊维尔文化", "fontsize": 12, "tyid": "304002", "oid": "103:1576575151583", "color": "#262626" }, "geometry": { "type": "Point", "coordinates": [ -89.912109, 32.101190 ] } }
{ "type": "Feature", "tippecanoe": { "layer": "2AFCA193C4381583916454732", "minzoom": 2, "maxzoom": 8 }, "properties": { "halo": 0.8, "title": "科佩纳文化", "fontsize": 12, "tyid": "304002", "oid": "103:1576575151652", "color": "#262626" }, "geometry": { "type": "Point", "coordinates": [ -87.275391, 34.307144 ] } }
{ "type": "Feature", "tippecanoe": { "layer": "2AFCA193C4381583916454732", "minzoom": 2, "maxzoom": 8 }, "properties": { "halo": 0.8, "title": "斯威夫特溪文化", "fontsize": 12, "tyid": "304002", "oid": "103:1576575151623", "color": "#262626" }, "geometry": { "type": "Point", "coordinates": [ -84.814453, 32.175612 ] } }
{ "type": "Feature", "tippecanoe": { "layer": "2AFCA193C4381583916454732", "minzoom": 2, "maxzoom": 8 }, "properties": { "halo": 0.8, "title": "俄亥俄霍普韦尔文化", "fontsize": 12, "tyid": "304002", "oid": "103:1576575151347", "color": "#262626" }, "geometry": { "type": "Point", "coordinates": [ -82.089844, 39.639538 ] } }
{ "type": "Feature", "tippecanoe": { "layer": "2AFCA193C4381583916454732", "minzoom": 2, "maxzoom": 8 }, "properties": { "halo": 0.8, "title": "阿姆斯特朗文化", "fontsize": 12, "tyid": "304002", "oid": "103:1576575151466", "color": "#262626" }, "geometry": { "type": "Point", "coordinates": [ -82.968750, 38.134557 ] } }
{ "type": "Feature", "tippecanoe": { "layer": "2AFCA193C4381583916454732", "minzoom": 2, "maxzoom": 8 }, "properties": { "halo": 0.8, "title": "德普特福德文化", "fontsize": 12, "tyid": "304002", "oid": "103:1576575151719", "color": "#262626" }, "geometry": { "type": "Point", "coordinates": [ -79.628906, 33.431441 ] } }
{ "type": "Feature", "tippecanoe": { "layer": "2AFCA193C4381583916454732", "minzoom": 2, "maxzoom": 8 }, "properties": { "halo": 0.8, "title": "圣罗莎-斯威夫特溪文化", "fontsize": 12, "tyid": "304002", "oid": "103:1576575151385", "color": "#262626" }, "geometry": { "type": "Point", "coordinates": [ -86.748047, 30.977609 ] } }
{ "type": "Feature", "tippecanoe": { "layer": "2AFCA193C4381583916454732", "minzoom": 2, "maxzoom": 8 }, "properties": { "halo": 0.8, "title": "维登岛文化", "fontsize": 12, "tyid": "304002", "oid": "103:1576575151512", "color": "#262626" }, "geometry": { "type": "Point", "coordinates": [ -84.902344, 30.524413 ] } }
{ "type": "Feature", "tippecanoe": { "layer": "2AFCA193C4381583916454732", "minzoom": 2, "maxzoom": 8 }, "properties": { "halo": 0.8, "title": "泰诺人", "fontsize": 12, "tyid": "304001", "oid": "103:1576575151387", "color": "#262626" }, "geometry": { "type": "Point", "coordinates": [ -79.628906, 22.105999 ] } }
{ "type": "Feature", "tippecanoe": { "layer": "2AFCA193C4381583916454732", "minzoom": 2, "maxzoom": 8 }, "properties": { "halo": 0.8, "title": "佩奇人", "fontsize": 12, "tyid": "304001", "oid": "103:1576575151645", "color": "#262626" }, "geometry": { "type": "Point", "coordinates": [ -84.814453, 15.368950 ] } }
{ "type": "Feature", "tippecanoe": { "layer": "2AFCA193C4381583916454732", "minzoom": 2, "maxzoom": 8 }, "properties": { "halo": 0.8, "title": "兹努文化", "fontsize": 12, "tyid": "304002", "oid": "103:1576575151769", "color": "#262626" }, "geometry": { "type": "Point", "coordinates": [ -75.585938, 8.581021 ] } }
{ "type": "Feature", "tippecanoe": { "layer": "2AFCA193C4381583916454732", "minzoom": 2, "maxzoom": 8 }, "properties": { "halo": 0.8, "title": "埃雷拉时期", "fontsize": 12, "tyid": "304002", "oid": "103:1576575151732", "color": "#262626" }, "geometry": { "type": "Point", "coordinates": [ -73.037109, 5.965754 ] } }
{ "type": "Feature", "tippecanoe": { "layer": "2AFCA193C4381583916454732", "minzoom": 2, "maxzoom": 8 }, "properties": { "halo": 0.8, "title": "伊奈里人", "fontsize": 12, "tyid": "304001", "oid": "103:1576575151601", "color": "#262626" }, "geometry": { "type": "Point", "coordinates": [ -61.787109, 8.754795 ] } }
{ "type": "Feature", "tippecanoe": { "layer": "2AFCA193C4381583916454732", "minzoom": 2, "maxzoom": 8 }, "properties": { "halo": 0.8, "title": "皮克特诸王国", "fontsize": 12, "tyid": "304000", "oid": "103:1576575151537", "color": "#202020" }, "geometry": { "type": "Point", "coordinates": [ -4.042969, 56.992883 ] } }
{ "type": "Feature", "tippecanoe": { "layer": "2AFCA193C4381583916454732", "minzoom": 2, "maxzoom": 8 }, "properties": { "halo": 0.8, "title": "康诺特诸王国", "fontsize": 12, "tyid": "304000", "oid": "103:1576575151406", "color": "#202020" }, "geometry": { "type": "Point", "coordinates": [ -8.789062, 53.800651 ] } }
{ "type": "Feature", "tippecanoe": { "layer": "2AFCA193C4381583916454732", "minzoom": 2, "maxzoom": 8 }, "properties": { "halo": 0.8, "title": "盖尔人", "fontsize": 12, "tyid": "304001", "oid": "103:1576575151532", "color": "#262626" }, "geometry": { "type": "Point", "coordinates": [ -6.855469, 53.904338 ] } }
{ "type": "Feature", "tippecanoe": { "layer": "2AFCA193C4381583916454732", "minzoom": 2, "maxzoom": 8 }, "properties": { "halo": 0.8, "title": "明斯特王国", "fontsize": 12, "tyid": "304000", "oid": "103:1576575151429", "color": "#202020" }, "geometry": { "type": "Point", "coordinates": [ -8.613281, 52.375599 ] } }
{ "type": "Feature", "tippecanoe": { "layer": "2AFCA193C4381583916454732", "minzoom": 2, "maxzoom": 8 }, "properties": { "halo": 0.8, "title": "凯尔特布立吞人", "fontsize": 12, "tyid": "304001", "oid": "103:1576575151521", "color": "#262626" }, "geometry": { "type": "Point", "coordinates": [ -2.197266, 52.749594 ] } }
{ "type": "Feature", "tippecanoe": { "layer": "2AFCA193C4381583916454732", "minzoom": 2, "maxzoom": 8 }, "properties": { "halo": 0.8, "title": "毛里人", "fontsize": 12, "tyid": "304002", "oid": "103:1576575151793", "color": "#262626" }, "geometry": { "type": "Point", "coordinates": [ -4.921875, 34.597042 ] } }
{ "type": "Feature", "tippecanoe": { "layer": "2AFCA193C4381583916454732", "minzoom": 2, "maxzoom": 8 }, "properties": { "halo": 0.8, "title": "杰内-杰诺文化三期", "fontsize": 12, "tyid": "304002", "oid": "103:1576575151731", "color": "#262626" }, "geometry": { "type": "Point", "coordinates": [ -4.218750, 14.264383 ] } }
{ "type": "Feature", "tippecanoe": { "layer": "2AFCA193C4381583916454732", "minzoom": 2, "maxzoom": 8 }, "properties": { "halo": 0.8, "title": "楚真文化", "fontsize": 12, "tyid": "304002", "oid": "103:1576575151736", "color": "#262626" }, "geometry": { "type": "Point", "coordinates": [ -70.576172, -16.299051 ] } }
{ "type": "Feature", "tippecanoe": { "layer": "2AFCA193C4381583916454732", "minzoom": 2, "maxzoom": 8 }, "properties": { "halo": 0.8, "title": "艾马拉人", "fontsize": 12, "tyid": "304001", "oid": "103:1576575151337", "color": "#262626" }, "geometry": { "type": "Point", "coordinates": [ -68.291016, -17.224758 ] } }
{ "type": "Feature", "tippecanoe": { "layer": "2AFCA193C4381583916454732", "minzoom": 2, "maxzoom": 8 }, "properties": { "halo": 0.8, "title": "阿拉米托文化", "fontsize": 12, "tyid": "304002", "oid": "103:1576575151400", "color": "#262626" }, "geometry": { "type": "Point", "coordinates": [ -67.851562, -26.588527 ] } }
{ "type": "Feature", "tippecanoe": { "layer": "2AFCA193C4381583916454732", "minzoom": 2, "maxzoom": 8 }, "properties": { "halo": 0.8, "title": "埃尔莫尔文化", "fontsize": 12, "tyid": "304002", "oid": "103:1576575151355", "color": "#262626" }, "geometry": { "type": "Point", "coordinates": [ -70.927734, -30.675715 ] } }
{ "type": "Feature", "tippecanoe": { "layer": "2AFCA193C4381583916454732", "minzoom": 2, "maxzoom": 8 }, "properties": { "halo": 0.8, "title": "安西尔塔文化", "fontsize": 12, "tyid": "304002", "oid": "103:1576575151361", "color": "#262626" }, "geometry": { "type": "Point", "coordinates": [ -68.818359, -31.353637 ] } }
{ "type": "Feature", "tippecanoe": { "layer": "2AFCA193C4381583916454732", "minzoom": 2, "maxzoom": 8 }, "properties": { "halo": 0.8, "title": "洛勒洛文化", "fontsize": 12, "tyid": "304002", "oid": "103:1576575151584", "color": "#262626" }, "geometry": { "type": "Point", "coordinates": [ -70.664062, -33.724340 ] } }
{ "type": "Feature", "tippecanoe": { "layer": "2AFCA193C4381583916454732", "minzoom": 2, "maxzoom": 8 }, "properties": { "halo": 0.8, "title": "马普切人", "fontsize": 12, "tyid": "304001", "oid": "103:1576575151649", "color": "#262626" }, "geometry": { "type": "Point", "coordinates": [ -71.455078, -38.959409 ] } }
{ "type": "Feature", "tippecanoe": { "layer": "2AFCA193C4381583916454732", "minzoom": 2, "maxzoom": 8 }, "properties": { "halo": 0.8, "title": "希德拉里卡文化", "fontsize": 12, "tyid": "304002", "oid": "103:1576575151671", "color": "#262626" }, "geometry": { "type": "Point", "coordinates": [ -66.005859, -12.297068 ] } }
{ "type": "Feature", "tippecanoe": { "layer": "2AFCA193C4381583916454732", "minzoom": 2, "maxzoom": 8 }, "properties": { "halo": 0.8, "title": "摩克索人", "fontsize": 12, "tyid": "304001", "oid": "103:1576575151463", "color": "#262626" }, "geometry": { "type": "Point", "coordinates": [ -65.830078, -13.923404 ] } }
{ "type": "Feature", "tippecanoe": { "layer": "2AFCA193C4381583916454732", "minzoom": 2, "maxzoom": 8 }, "properties": { "halo": 0.8, "title": "马拉约文化", "fontsize": 12, "tyid": "304002", "oid": "103:1576575151336", "color": "#262626" }, "geometry": { "type": "Point", "coordinates": [ -50.712891, -2.723583 ] } }
{ "type": "Feature", "tippecanoe": { "layer": "2AFCA193C4381583916454732", "minzoom": 2, "maxzoom": 8 }, "properties": { "halo": 0.8, "title": "拉坎德拉里亚文化", "fontsize": 12, "tyid": "304002", "oid": "103:1576575151596", "color": "#262626" }, "geometry": { "type": "Point", "coordinates": [ -65.390625, -25.720735 ] } }
{ "type": "Feature", "tippecanoe": { "layer": "2AFCA193C4381583916454732", "minzoom": 2, "maxzoom": 8 }, "properties": { "halo": 0.8, "title": "康多拉瓦西文化", "fontsize": 12, "tyid": "304002", "oid": "103:1576575151704", "color": "#262626" }, "geometry": { "type": "Point", "coordinates": [ -66.708984, -27.293689 ] } }
{ "type": "Feature", "tippecanoe": { "layer": "2AFCA193C4381583916454732", "minzoom": 2, "maxzoom": 8 }, "properties": { "halo": 0.8, "title": "拉斯梅塞德斯文化", "fontsize": 12, "tyid": "304002", "oid": "103:1576575151287", "color": "#262626" }, "geometry": { "type": "Point", "coordinates": [ -63.808594, -27.605671 ] } }
{ "type": "Feature", "tippecanoe": { "layer": "2AFCA193C4381583916454732", "minzoom": 2, "maxzoom": 8 }, "properties": { "halo": 0.8, "title": "查鲁亚人", "fontsize": 12, "tyid": "304001", "oid": "103:1576575151462", "color": "#262626" }, "geometry": { "type": "Point", "coordinates": [ -57.128906, -32.398516 ] } }
{ "type": "Feature", "tippecanoe": { "layer": "2AFCA193C4381583916454732", "minzoom": 2, "maxzoom": 8 }, "properties": { "halo": 0.8, "title": "特胡尔切人", "fontsize": 12, "tyid": "304001", "oid": "103:1576575151324", "color": "#262626" }, "geometry": { "type": "Point", "coordinates": [ -70.751953, -50.176898 ] } }
{ "type": "Feature", "tippecanoe": { "layer": "2AFCA193C4381583916454732", "minzoom": 2, "maxzoom": 8 }, "properties": { "halo": 0.8, "title": "塞尔克南人", "fontsize": 12, "tyid": "304001", "oid": "103:1576575151474", "color": "#262626" }, "geometry": { "type": "Point", "coordinates": [ -68.378906, -53.696706 ] } }
{ "type": "Feature", "tippecanoe": { "layer": "2AFCA193C4381583916454732", "minzoom": 2, "maxzoom": 8 }, "properties": { "halo": 0.8, "title": "雅干人", "fontsize": 12, "tyid": "304001", "oid": "103:1576575151318", "color": "#262626" }, "geometry": { "type": "Point", "coordinates": [ -68.554688, -54.521081 ] } }
{ "type": "Feature", "tippecanoe": { "layer": "2AFCA193C4381583916454732", "minzoom": 2, "maxzoom": 8 }, "properties": { "halo": 0.8, "title": "朱特人", "fontsize": 12, "tyid": "304001", "oid": "103:1576575151766", "color": "#262626" }, "geometry": { "type": "Point", "coordinates": [ 9.316406, 56.267761 ] } }
{ "type": "Feature", "tippecanoe": { "layer": "2AFCA193C4381583916454732", "minzoom": 2, "maxzoom": 8 }, "properties": { "halo": 0.8, "title": "耶阿特人", "fontsize": 12, "tyid": "304001", "oid": "103:1576575151416", "color": "#262626" }, "geometry": { "type": "Point", "coordinates": [ 13.710938, 57.657158 ] } }
{ "type": "Feature", "tippecanoe": { "layer": "2AFCA193C4381583916454732", "minzoom": 2, "maxzoom": 8 }, "properties": { "halo": 0.8, "title": "赫鲁利人", "fontsize": 12, "tyid": "304001", "oid": "103:1576575151648", "color": "#262626" }, "geometry": { "type": "Point", "coordinates": [ 13.447266, 55.875311 ] } }
{ "type": "Feature", "tippecanoe": { "layer": "2AFCA193C4381583916454732", "minzoom": 2, "maxzoom": 8 }, "properties": { "halo": 0.8, "title": "库洛尼亚人", "fontsize": 12, "tyid": "304001", "oid": "103:1576575151523", "color": "#262626" }, "geometry": { "type": "Point", "coordinates": [ 21.972656, 56.607885 ] } }
{ "type": "Feature", "tippecanoe": { "layer": "2AFCA193C4381583916454732", "minzoom": 2, "maxzoom": 8 }, "properties": { "halo": 0.8, "title": "盎格鲁-撒克逊人", "fontsize": 12, "tyid": "304001", "oid": "103:1576575151527", "color": "#262626" }, "geometry": { "type": "Point", "coordinates": [ 0.087891, 51.179343 ] } }
{ "type": "Feature", "tippecanoe": { "layer": "2AFCA193C4381583916454732", "minzoom": 2, "maxzoom": 8 }, "properties": { "halo": 0.8, "title": "萨克森人", "fontsize": 12, "tyid": "304001", "oid": "103:1576575151820", "color": "#262626" }, "geometry": { "type": "Point", "coordinates": [ 8.876953, 53.067627 ] } }
{ "type": "Feature", "tippecanoe": { "layer": "2AFCA193C4381583916454732", "minzoom": 2, "maxzoom": 8 }, "properties": { "halo": 0.8, "title": "图林根人", "fontsize": 12, "tyid": "304001", "oid": "103:1576575151821", "color": "#262626" }, "geometry": { "type": "Point", "coordinates": [ 10.898438, 50.847573 ] } }
{ "type": "Feature", "tippecanoe": { "layer": "2AFCA193C4381583916454732", "minzoom": 2, "maxzoom": 8 }, "properties": { "halo": 0.8, "title": "第二勃艮第王国", "fontsize": 12, "tyid": "304000", "oid": "103:1576575151628", "color": "#202020" }, "geometry": { "type": "Point", "coordinates": [ 6.152344, 46.498392 ] } }
{ "type": "Feature", "tippecanoe": { "layer": "2AFCA193C4381583916454732", "minzoom": 2, "maxzoom": 8 }, "properties": { "halo": 0.8, "title": "古普鲁士人", "fontsize": 12, "tyid": "304001", "oid": "103:1576575151404", "color": "#262626" }, "geometry": { "type": "Point", "coordinates": [ 20.390625, 54.110943 ] } }
{ "type": "Feature", "tippecanoe": { "layer": "2AFCA193C4381583916454732", "minzoom": 2, "maxzoom": 8 }, "properties": { "halo": 0.8, "title": "伦巴第人", "fontsize": 12, "tyid": "304001", "oid": "103:1576575151808", "color": "#262626" }, "geometry": { "type": "Point", "coordinates": [ 17.314453, 48.980217 ] } }
{ "type": "Feature", "tippecanoe": { "layer": "2AFCA193C4381583916454732", "minzoom": 2, "maxzoom": 8 }, "properties": { "halo": 0.8, "title": "古爱沙尼亚人", "fontsize": 12, "tyid": "304001", "oid": "103:1576575151490", "color": "#262626" }, "geometry": { "type": "Point", "coordinates": [ 25.576172, 58.995311 ] } }
{ "type": "Feature", "tippecanoe": { "layer": "2AFCA193C4381583916454732", "minzoom": 2, "maxzoom": 8 }, "properties": { "halo": 0.8, "title": "利沃尼亚人", "fontsize": 12, "tyid": "304001", "oid": "103:1576575151413", "color": "#262626" }, "geometry": { "type": "Point", "coordinates": [ 26.191406, 58.077876 ] } }
{ "type": "Feature", "tippecanoe": { "layer": "2AFCA193C4381583916454732", "minzoom": 2, "maxzoom": 8 }, "properties": { "halo": 0.8, "title": "拉特加莱人", "fontsize": 12, "tyid": "304001", "oid": "103:1576575151595", "color": "#262626" }, "geometry": { "type": "Point", "coordinates": [ 26.542969, 56.944974 ] } }
{ "type": "Feature", "tippecanoe": { "layer": "2AFCA193C4381583916454732", "minzoom": 2, "maxzoom": 8 }, "properties": { "halo": 0.8, "title": "沃茨人", "fontsize": 12, "tyid": "304001", "oid": "103:1576575151762", "color": "#262626" }, "geometry": { "type": "Point", "coordinates": [ 29.794922, 59.040555 ] } }
{ "type": "Feature", "tippecanoe": { "layer": "2AFCA193C4381583916454732", "minzoom": 2, "maxzoom": 8 }, "properties": { "halo": 0.8, "title": "萨莫吉希亚人", "fontsize": 12, "tyid": "304001", "oid": "103:1576575151534", "color": "#262626" }, "geometry": { "type": "Point", "coordinates": [ 23.203125, 55.578345 ] } }
{ "type": "Feature", "tippecanoe": { "layer": "2AFCA193C4381583916454732", "minzoom": 2, "maxzoom": 8 }, "properties": { "halo": 0.8, "title": "古立陶宛人", "fontsize": 12, "tyid": "304001", "oid": "103:1576575151525", "color": "#262626" }, "geometry": { "type": "Point", "coordinates": [ 25.224609, 54.265224 ] } }
{ "type": "Feature", "tippecanoe": { "layer": "2AFCA193C4381583916454732", "minzoom": 2, "maxzoom": 8 }, "properties": { "halo": 0.8, "title": "约特文基人", "fontsize": 12, "tyid": "304001", "oid": "103:1576575151421", "color": "#262626" }, "geometry": { "type": "Point", "coordinates": [ 23.027344, 53.956086 ] } }
{ "type": "Feature", "tippecanoe": { "layer": "2AFCA193C4381583916454732", "minzoom": 2, "maxzoom": 8 }, "properties": { "halo": 0.8, "title": "奥克施泰提亚人", "fontsize": 12, "tyid": "304001", "oid": "103:1576575151518", "color": "#262626" }, "geometry": { "type": "Point", "coordinates": [ 27.070312, 55.078367 ] } }
{ "type": "Feature", "tippecanoe": { "layer": "2AFCA193C4381583916454732", "minzoom": 2, "maxzoom": 8 }, "properties": { "halo": 0.8, "title": "安特人", "fontsize": 12, "tyid": "304001", "oid": "103:1576575151816", "color": "#262626" }, "geometry": { "type": "Point", "coordinates": [ 29.794922, 49.152970 ] } }
{ "type": "Feature", "tippecanoe": { "layer": "2AFCA193C4381583916454732", "minzoom": 2, "maxzoom": 8 }, "properties": { "halo": 0.8, "title": "匈人", "fontsize": 12, "tyid": "304001", "oid": "103:1576575151803", "color": "#262626" }, "geometry": { "type": "Point", "coordinates": [ 31.992188, 47.694974 ] } }
{ "type": "Feature", "tippecanoe": { "layer": "2AFCA193C4381583916454732", "minzoom": 2, "maxzoom": 8 }, "properties": { "halo": 0.8, "title": "东加林迪亚人", "fontsize": 12, "tyid": "304001", "oid": "103:1576575151630", "color": "#262626" }, "geometry": { "type": "Point", "coordinates": [ 34.980469, 55.329144 ] } }
{ "type": "Feature", "tippecanoe": { "layer": "2AFCA193C4381583916454732", "minzoom": 2, "maxzoom": 8 }, "properties": { "halo": 0.8, "title": "保加尔人", "fontsize": 12, "tyid": "304001", "oid": "103:1576575151813", "color": "#262626" }, "geometry": { "type": "Point", "coordinates": [ 42.978516, 51.124213 ] } }
{ "type": "Feature", "tippecanoe": { "layer": "2AFCA193C4381583916454732", "minzoom": 2, "maxzoom": 8 }, "properties": { "halo": 0.8, "title": "克里米亚哥特人", "fontsize": 12, "tyid": "304001", "oid": "103:1576575151811", "color": "#262626" }, "geometry": { "type": "Point", "coordinates": [ 34.189453, 46.073231 ] } }
{ "type": "Feature", "tippecanoe": { "layer": "2AFCA193C4381583916454732", "minzoom": 2, "maxzoom": 8 }, "properties": { "halo": 0.8, "title": "库特里格斯人", "fontsize": 12, "tyid": "304001", "oid": "103:1576575151814", "color": "#262626" }, "geometry": { "type": "Point", "coordinates": [ 39.111328, 48.341646 ] } }
{ "type": "Feature", "tippecanoe": { "layer": "2AFCA193C4381583916454732", "minzoom": 2, "maxzoom": 8 }, "properties": { "halo": 0.8, "title": "乌提格尔人", "fontsize": 12, "tyid": "304001", "oid": "103:1576575151815", "color": "#262626" }, "geometry": { "type": "Point", "coordinates": [ 41.572266, 46.619261 ] } }
{ "type": "Feature", "tippecanoe": { "layer": "2AFCA193C4381583916454732", "minzoom": 2, "maxzoom": 8 }, "properties": { "halo": 0.8, "title": "切尔克斯人", "fontsize": 12, "tyid": "304001", "oid": "103:1576575151587", "color": "#262626" }, "geometry": { "type": "Point", "coordinates": [ 41.308594, 44.213710 ] } }
{ "type": "Feature", "tippecanoe": { "layer": "2AFCA193C4381583916454732", "minzoom": 2, "maxzoom": 8 }, "properties": { "halo": 0.8, "title": "萨拉格尔人", "fontsize": 12, "tyid": "304001", "oid": "103:1576575151810", "color": "#262626" }, "geometry": { "type": "Point", "coordinates": [ 44.912109, 44.590467 ] } }
{ "type": "Feature", "tippecanoe": { "layer": "2AFCA193C4381583916454732", "minzoom": 2, "maxzoom": 8 }, "properties": { "halo": 0.8, "title": "拉基卡王国", "fontsize": 12, "tyid": "304000", "oid": "103:1576575151707", "color": "#202020" }, "geometry": { "type": "Point", "coordinates": [ 42.275391, 42.553080 ] } }
{ "type": "Feature", "tippecanoe": { "layer": "2AFCA193C4381583916454732", "minzoom": 2, "maxzoom": 8 }, "properties": { "halo": 0.8, "title": "萨珊伊比利亚", "fontsize": 12, "tyid": "304000", "oid": "103:1576575151535", "color": "#202020" }, "geometry": { "type": "Point", "coordinates": [ 44.121094, 41.771312 ] } }
{ "type": "Feature", "tippecanoe": { "layer": "2AFCA193C4381583916454732", "minzoom": 2, "maxzoom": 8 }, "properties": { "halo": 0.8, "title": "马乌鲁-罗马王国", "fontsize": 12, "tyid": "304000", "oid": "103:1576575151384", "color": "#202020" }, "geometry": { "type": "Point", "coordinates": [ 0.615234, 35.101934 ] } }
{ "type": "Feature", "tippecanoe": { "layer": "2AFCA193C4381583916454732", "minzoom": 2, "maxzoom": 8 }, "properties": { "halo": 0.8, "title": "盖图里人", "fontsize": 12, "tyid": "304001", "oid": "103:1576575151684", "color": "#262626" }, "geometry": { "type": "Point", "coordinates": [ 0.791016, 33.870416 ] } }
{ "type": "Feature", "tippecanoe": { "layer": "2AFCA193C4381583916454732", "minzoom": 2, "maxzoom": 8 }, "properties": { "halo": 0.8, "title": "奥拉王国", "fontsize": 12, "tyid": "304000", "oid": "103:1576575151740", "color": "#202020" }, "geometry": { "type": "Point", "coordinates": [ 6.064453, 34.813803 ] } }
{ "type": "Feature", "tippecanoe": { "layer": "2AFCA193C4381583916454732", "minzoom": 2, "maxzoom": 8 }, "properties": { "halo": 0.8, "title": "加拉曼特王国", "fontsize": 12, "tyid": "304000", "oid": "103:1576575151378", "color": "#202020" }, "geometry": { "type": "Point", "coordinates": [ 13.886719, 26.902477 ] } }
{ "type": "Feature", "tippecanoe": { "layer": "2AFCA193C4381583916454732", "minzoom": 2, "maxzoom": 8 }, "properties": { "halo": 0.8, "title": "拉古阿坦部落联盟", "fontsize": 12, "tyid": "304001", "oid": "103:1576575151728", "color": "#262626" }, "geometry": { "type": "Point", "coordinates": [ 21.357422, 31.877558 ] } }
{ "type": "Feature", "tippecanoe": { "layer": "2AFCA193C4381583916454732", "minzoom": 2, "maxzoom": 8 }, "properties": { "halo": 0.8, "title": "布拉-阿辛达-西卡文化", "fontsize": 12, "tyid": "304002", "oid": "103:1576575151365", "color": "#262626" }, "geometry": { "type": "Point", "coordinates": [ 1.757812, 12.983148 ] } }
{ "type": "Feature", "tippecanoe": { "layer": "2AFCA193C4381583916454732", "minzoom": 2, "maxzoom": 8 }, "properties": { "halo": 0.8, "title": "约鲁巴人", "fontsize": 12, "tyid": "304001", "oid": "103:1576575151325", "color": "#262626" }, "geometry": { "type": "Point", "coordinates": [ 3.427734, 7.536764 ] } }
{ "type": "Feature", "tippecanoe": { "layer": "2AFCA193C4381583916454732", "minzoom": 2, "maxzoom": 8 }, "properties": { "halo": 0.8, "title": "伊博人", "fontsize": 12, "tyid": "304001", "oid": "103:1576575151689", "color": "#262626" }, "geometry": { "type": "Point", "coordinates": [ 9.492188, 5.878332 ] } }
{ "type": "Feature", "tippecanoe": { "layer": "2AFCA193C4381583916454732", "minzoom": 2, "maxzoom": 8 }, "properties": { "halo": 0.8, "title": "奥邦奥孔伊塔王国", "fontsize": 12, "tyid": "304000", "oid": "103:1576575151476", "color": "#202020" }, "geometry": { "type": "Point", "coordinates": [ 7.558594, 5.441022 ] } }
{ "type": "Feature", "tippecanoe": { "layer": "2AFCA193C4381583916454732", "minzoom": 2, "maxzoom": 8 }, "properties": { "halo": 0.8, "title": "萨珊亚美尼亚", "fontsize": 12, "tyid": "304000", "oid": "103:1576575151468", "color": "#202020" }, "geometry": { "type": "Point", "coordinates": [ 43.505859, 39.639538 ] } }
{ "type": "Feature", "tippecanoe": { "layer": "2AFCA193C4381583916454732", "minzoom": 2, "maxzoom": 8 }, "properties": { "halo": 0.8, "title": "赛莫德人", "fontsize": 12, "tyid": "304001", "oid": "103:1576575151688", "color": "#262626" }, "geometry": { "type": "Point", "coordinates": [ 37.441406, 27.059126 ] } }
{ "type": "Feature", "tippecanoe": { "layer": "2AFCA193C4381583916454732", "minzoom": 2, "maxzoom": 8 }, "properties": { "halo": 0.8, "title": "瓦努席法尔", "fontsize": 12, "tyid": "304001", "oid": "103:1576575151790", "color": "#262626" }, "geometry": { "type": "Point", "coordinates": [ 39.111328, 24.686952 ] } }
{ "type": "Feature", "tippecanoe": { "layer": "2AFCA193C4381583916454732", "minzoom": 2, "maxzoom": 8 }, "properties": { "halo": 0.8, "title": "赫多凡部落", "fontsize": 12, "tyid": "304001", "oid": "103:1576575151382", "color": "#262626" }, "geometry": { "type": "Point", "coordinates": [ 41.396484, 26.509905 ] } }
{ "type": "Feature", "tippecanoe": { "layer": "2AFCA193C4381583916454732", "minzoom": 2, "maxzoom": 8 }, "properties": { "halo": 0.8, "title": "富尔人", "fontsize": 12, "tyid": "304001", "oid": "103:1576575151788", "color": "#262626" }, "geometry": { "type": "Point", "coordinates": [ 26.015625, 14.519780 ] } }
{ "type": "Feature", "tippecanoe": { "layer": "2AFCA193C4381583916454732", "minzoom": 2, "maxzoom": 8 }, "properties": { "halo": 0.8, "title": "努贝舍王国", "fontsize": 12, "tyid": "304000", "oid": "103:1576575151293", "color": "#202020" }, "geometry": { "type": "Point", "coordinates": [ 31.728516, 21.861499 ] } }
{ "type": "Feature", "tippecanoe": { "layer": "2AFCA193C4381583916454732", "minzoom": 2, "maxzoom": 8 }, "properties": { "halo": 0.8, "title": "马库里亚王国", "fontsize": 12, "tyid": "304000", "oid": "103:1576575151321", "color": "#202020" }, "geometry": { "type": "Point", "coordinates": [ 33.134766, 19.311143 ] } }
{ "type": "Feature", "tippecanoe": { "layer": "2AFCA193C4381583916454732", "minzoom": 2, "maxzoom": 8 }, "properties": { "halo": 0.8, "title": "努比亚人", "fontsize": 12, "tyid": "304001", "oid": "103:1576575151373", "color": "#262626" }, "geometry": { "type": "Point", "coordinates": [ 32.080078, 15.961329 ] } }
{ "type": "Feature", "tippecanoe": { "layer": "2AFCA193C4381583916454732", "minzoom": 2, "maxzoom": 8 }, "properties": { "halo": 0.8, "title": "贝扎人", "fontsize": 12, "tyid": "304001", "oid": "103:1576575151484", "color": "#262626" }, "geometry": { "type": "Point", "coordinates": [ 35.244141, 21.453069 ] } }
{ "type": "Feature", "tippecanoe": { "layer": "2AFCA193C4381583916454732", "minzoom": 2, "maxzoom": 8 }, "properties": { "halo": 0.8, "title": "马祖宁文化", "fontsize": 12, "tyid": "304002", "oid": "103:1576575151598", "color": "#262626" }, "geometry": { "type": "Point", "coordinates": [ 50.537109, 56.511018 ] } }
{ "type": "Feature", "tippecanoe": { "layer": "2AFCA193C4381583916454732", "minzoom": 2, "maxzoom": 8 }, "properties": { "halo": 0.8, "title": "伊曼科夫文化", "fontsize": 12, "tyid": "304002", "oid": "103:1576575151349", "color": "#262626" }, "geometry": { "type": "Point", "coordinates": [ 47.548828, 54.977614 ] } }
{ "type": "Feature", "tippecanoe": { "layer": "2AFCA193C4381583916454732", "minzoom": 2, "maxzoom": 8 }, "properties": { "halo": 0.8, "title": "布尔塔斯人", "fontsize": 12, "tyid": "304001", "oid": "103:1576575151621", "color": "#262626" }, "geometry": { "type": "Point", "coordinates": [ 47.812500, 53.173119 ] } }
{ "type": "Feature", "tippecanoe": { "layer": "2AFCA193C4381583916454732", "minzoom": 2, "maxzoom": 8 }, "properties": { "halo": 0.8, "title": "乌古尔人", "fontsize": 12, "tyid": "304001", "oid": "103:1576575151818", "color": "#262626" }, "geometry": { "type": "Point", "coordinates": [ 46.054688, 46.679594 ] } }
{ "type": "Feature", "tippecanoe": { "layer": "2AFCA193C4381583916454732", "minzoom": 2, "maxzoom": 8 }, "properties": { "halo": 0.8, "title": "阿兰人", "fontsize": 12, "tyid": "304001", "oid": "103:1576575151299", "color": "#262626" }, "geometry": { "type": "Point", "coordinates": [ 45.615234, 42.875964 ] } }
{ "type": "Feature", "tippecanoe": { "layer": "2AFCA193C4381583916454732", "minzoom": 2, "maxzoom": 8 }, "properties": { "halo": 0.8, "title": "塞迦人", "fontsize": 12, "tyid": "304001", "oid": "103:1576575151591", "color": "#262626" }, "geometry": { "type": "Point", "coordinates": [ 54.667969, 43.004647 ] } }
{ "type": "Feature", "tippecanoe": { "layer": "2AFCA193C4381583916454732", "minzoom": 2, "maxzoom": 8 }, "properties": { "halo": 0.8, "title": "图巴斯利文化", "fontsize": 12, "tyid": "304001", "oid": "103:1576575151410", "color": "#262626" }, "geometry": { "type": "Point", "coordinates": [ 56.250000, 55.528631 ] } }
{ "type": "Feature", "tippecanoe": { "layer": "2AFCA193C4381583916454732", "minzoom": 2, "maxzoom": 8 }, "properties": { "halo": 0.8, "title": "阿夫里格王朝", "fontsize": 12, "tyid": "304000", "oid": "103:1576575151785", "color": "#202020" }, "geometry": { "type": "Point", "coordinates": [ 60.029297, 42.617791 ] } }
{ "type": "Feature", "tippecanoe": { "layer": "2AFCA193C4381583916454732", "minzoom": 2, "maxzoom": 8 }, "properties": { "halo": 0.8, "title": "焉耆国", "fontsize": 12, "tyid": "304000", "oid": "103:1576575151799", "color": "#202020" }, "geometry": { "type": "Point", "coordinates": [ 87.451172, 41.705729 ] } }
{ "type": "Feature", "tippecanoe": { "layer": "2AFCA193C4381583916454732", "minzoom": 2, "maxzoom": 8 }, "properties": { "halo": 0.8, "title": "高加索阿尔巴尼亚王国", "fontsize": 12, "tyid": "304000", "oid": "103:1576575151302", "color": "#202020" }, "geometry": { "type": "Point", "coordinates": [ 46.845703, 40.647304 ] } }
{ "type": "Feature", "tippecanoe": { "layer": "2AFCA193C4381583916454732", "minzoom": 2, "maxzoom": 8 }, "properties": { "halo": 0.8, "title": "阿兹达巴部落", "fontsize": 12, "tyid": "304001", "oid": "103:1576575151489", "color": "#262626" }, "geometry": { "type": "Point", "coordinates": [ 58.798828, 22.268764 ] } }
{ "type": "Feature", "tippecanoe": { "layer": "2AFCA193C4381583916454732", "minzoom": 2, "maxzoom": 8 }, "properties": { "halo": 0.8, "title": "肯德王国", "fontsize": 12, "tyid": "304000", "oid": "103:1576575151482", "color": "#202020" }, "geometry": { "type": "Point", "coordinates": [ 45.000000, 20.138470 ] } }
{ "type": "Feature", "tippecanoe": { "layer": "2AFCA193C4381583916454732", "minzoom": 2, "maxzoom": 8 }, "properties": { "halo": 0.8, "title": "疏勒国", "fontsize": 12, "tyid": "304000", "oid": "103:1576575151798", "color": "#202020" }, "geometry": { "type": "Point", "coordinates": [ 75.410156, 39.368279 ] } }
{ "type": "Feature", "tippecanoe": { "layer": "2AFCA193C4381583916454732", "minzoom": 2, "maxzoom": 8 }, "properties": { "halo": 0.8, "title": "勃律国", "fontsize": 12, "tyid": "304000", "oid": "103:1576575151602", "color": "#202020" }, "geometry": { "type": "Point", "coordinates": [ 74.794922, 35.603719 ] } }
{ "type": "Feature", "tippecanoe": { "layer": "2AFCA193C4381583916454732", "minzoom": 2, "maxzoom": 8 }, "properties": { "halo": 0.8, "title": "磔迦国", "fontsize": 12, "tyid": "304000", "oid": "103:1576575151285", "color": "#202020" }, "geometry": { "type": "Point", "coordinates": [ 72.158203, 31.278551 ] } }
{ "type": "Feature", "tippecanoe": { "layer": "2AFCA193C4381583916454732", "minzoom": 2, "maxzoom": 8 }, "properties": { "halo": 0.8, "title": "罗尔王朝", "fontsize": 12, "tyid": "304000", "oid": "103:1576575151690", "color": "#202020" }, "geometry": { "type": "Point", "coordinates": [ 68.466797, 26.588527 ] } }
{ "type": "Feature", "tippecanoe": { "layer": "2AFCA193C4381583916454732", "minzoom": 2, "maxzoom": 8 }, "properties": { "halo": 0.8, "title": "龟兹国", "fontsize": 12, "tyid": "304000", "oid": "103:1576575151796", "color": "#202020" }, "geometry": { "type": "Point", "coordinates": [ 81.035156, 40.913513 ] } }
{ "type": "Feature", "tippecanoe": { "layer": "2AFCA193C4381583916454732", "minzoom": 2, "maxzoom": 8 }, "properties": { "halo": 0.8, "title": "尼波罗国", "fontsize": 12, "tyid": "304000", "oid": "103:1576575151391", "color": "#202020" }, "geometry": { "type": "Point", "coordinates": [ 84.199219, 28.071980 ] } }
{ "type": "Feature", "tippecanoe": { "layer": "2AFCA193C4381583916454732", "minzoom": 2, "maxzoom": 8 }, "properties": { "halo": 0.8, "title": "耽摩栗底国", "fontsize": 12, "tyid": "304000", "oid": "103:1576575151374", "color": "#202020" }, "geometry": { "type": "Point", "coordinates": [ 88.593750, 22.593726 ] } }
{ "type": "Feature", "tippecanoe": { "layer": "2AFCA193C4381583916454732", "minzoom": 2, "maxzoom": 8 }, "properties": { "halo": 0.8, "title": "特里库塔卡王朝", "fontsize": 12, "tyid": "304000", "oid": "103:1576575151503", "color": "#202020" }, "geometry": { "type": "Point", "coordinates": [ 73.388672, 19.725342 ] } }
{ "type": "Feature", "tippecanoe": { "layer": "2AFCA193C4381583916454732", "minzoom": 2, "maxzoom": 8 }, "properties": { "halo": 0.8, "title": "卡达姆巴王朝", "fontsize": 12, "tyid": "304000", "oid": "103:1576575151332", "color": "#202020" }, "geometry": { "type": "Point", "coordinates": [ 75.673828, 15.453680 ] } }
{ "type": "Feature", "tippecanoe": { "layer": "2AFCA193C4381583916454732", "minzoom": 2, "maxzoom": 8 }, "properties": { "halo": 0.8, "title": "西恒伽王朝", "fontsize": 12, "tyid": "304000", "oid": "103:1576575151695", "color": "#202020" }, "geometry": { "type": "Point", "coordinates": [ 76.992188, 12.811801 ] } }
{ "type": "Feature", "tippecanoe": { "layer": "2AFCA193C4381583916454732", "minzoom": 2, "maxzoom": 8 }, "properties": { "halo": 0.8, "title": "卡拉波拉王朝", "fontsize": 12, "tyid": "304000", "oid": "103:1576575151510", "color": "#202020" }, "geometry": { "type": "Point", "coordinates": [ 77.783203, 10.833306 ] } }
{ "type": "Feature", "tippecanoe": { "layer": "2AFCA193C4381583916454732", "minzoom": 2, "maxzoom": 8 }, "properties": { "halo": 0.8, "title": "韦湿奴甘地那王朝", "fontsize": 12, "tyid": "304000", "oid": "103:1576575151331", "color": "#202020" }, "geometry": { "type": "Point", "coordinates": [ 79.628906, 17.644022 ] } }
{ "type": "Feature", "tippecanoe": { "layer": "2AFCA193C4381583916454732", "minzoom": 2, "maxzoom": 8 }, "properties": { "halo": 0.8, "title": "帕拉瓦王朝", "fontsize": 12, "tyid": "304000", "oid": "103:1576575151608", "color": "#202020" }, "geometry": { "type": "Point", "coordinates": [ 78.750000, 14.689881 ] } }
{ "type": "Feature", "tippecanoe": { "layer": "2AFCA193C4381583916454732", "minzoom": 2, "maxzoom": 8 }, "properties": { "halo": 0.8, "title": "皮特布哈卡王朝", "fontsize": 12, "tyid": "304000", "oid": "103:1576575151674", "color": "#202020" }, "geometry": { "type": "Point", "coordinates": [ 84.814453, 20.055931 ] } }
{ "type": "Feature", "tippecanoe": { "layer": "2AFCA193C4381583916454732", "minzoom": 2, "maxzoom": 8 }, "properties": { "halo": 0.8, "title": "阿努拉德普勒王国", "fontsize": 12, "tyid": "304000", "oid": "103:1576575151744", "color": "#202020" }, "geometry": { "type": "Point", "coordinates": [ 80.683594, 7.623887 ] } }
{ "type": "Feature", "tippecanoe": { "layer": "2AFCA193C4381583916454732", "minzoom": 2, "maxzoom": 8 }, "properties": { "halo": 0.8, "title": "高昌北凉", "fontsize": 12, "tyid": "304000", "oid": "103:1576575151264", "color": "#202020" }, "geometry": { "type": "Point", "coordinates": [ 90.087891, 43.004647 ] } }
{ "type": "Feature", "tippecanoe": { "layer": "2AFCA193C4381583916454732", "minzoom": 2, "maxzoom": 8 }, "properties": { "halo": 0.8, "title": "地豆于", "fontsize": 12, "tyid": "304001", "oid": "103:1576575151759", "color": "#262626" }, "geometry": { "type": "Point", "coordinates": [ 120.849609, 45.951150 ] } }
{ "type": "Feature", "tippecanoe": { "layer": "2AFCA193C4381583916454732", "minzoom": 2, "maxzoom": 8 }, "properties": { "halo": 0.8, "title": "库莫奚", "fontsize": 12, "tyid": "304001", "oid": "103:1576575151618", "color": "#262626" }, "geometry": { "type": "Point", "coordinates": [ 118.828125, 43.004647 ] } }
{ "type": "Feature", "tippecanoe": { "layer": "2AFCA193C4381583916454732", "minzoom": 2, "maxzoom": 8 }, "properties": { "halo": 0.8, "title": "契丹", "fontsize": 12, "tyid": "304001", "oid": "103:1576575151392", "color": "#262626" }, "geometry": { "type": "Point", "coordinates": [ 121.992188, 43.580391 ] } }
{ "type": "Feature", "tippecanoe": { "layer": "2AFCA193C4381583916454732", "minzoom": 2, "maxzoom": 8 }, "properties": { "halo": 0.8, "title": "扶余", "fontsize": 12, "tyid": "304000", "oid": "103:1576575151772", "color": "#202020" }, "geometry": { "type": "Point", "coordinates": [ 125.068359, 45.460131 ] } }
{ "type": "Feature", "tippecanoe": { "layer": "2AFCA193C4381583916454732", "minzoom": 2, "maxzoom": 8 }, "properties": { "halo": 0.8, "title": "裨离国", "fontsize": 12, "tyid": "304000", "oid": "103:1576575151496", "color": "#202020" }, "geometry": { "type": "Point", "coordinates": [ 127.265625, 45.828799 ] } }
{ "type": "Feature", "tippecanoe": { "layer": "2AFCA193C4381583916454732", "minzoom": 2, "maxzoom": 8 }, "properties": { "halo": 0.8, "title": "瓦曼王朝", "fontsize": 12, "tyid": "304000", "oid": "103:1576575151696", "color": "#202020" }, "geometry": { "type": "Point", "coordinates": [ 90.439453, 25.482951 ] } }
{ "type": "Feature", "tippecanoe": { "layer": "2AFCA193C4381583916454732", "minzoom": 2, "maxzoom": 8 }, "properties": { "halo": 0.8, "title": "三摩呾吒国", "fontsize": 12, "tyid": "304000", "oid": "103:1576575151452", "color": "#202020" }, "geometry": { "type": "Point", "coordinates": [ 90.791016, 23.322080 ] } }
{ "type": "Feature", "tippecanoe": { "layer": "2AFCA193C4381583916454732", "minzoom": 2, "maxzoom": 8 }, "properties": { "halo": 0.8, "title": "古曼尼普尔王国", "fontsize": 12, "tyid": "304000", "oid": "103:1576575151782", "color": "#202020" }, "geometry": { "type": "Point", "coordinates": [ 93.867188, 24.766785 ] } }
{ "type": "Feature", "tippecanoe": { "layer": "2AFCA193C4381583916454732", "minzoom": 2, "maxzoom": 8 }, "properties": { "halo": 0.8, "title": "达瓦卡王国", "fontsize": 12, "tyid": "304000", "oid": "103:1576575151446", "color": "#202020" }, "geometry": { "type": "Point", "coordinates": [ 94.482422, 26.509905 ] } }
{ "type": "Feature", "tippecanoe": { "layer": "2AFCA193C4381583916454732", "minzoom": 2, "maxzoom": 8 }, "properties": { "halo": 0.8, "title": "附国", "fontsize": 12, "tyid": "304001", "oid": "103:1576575151431", "color": "#262626" }, "geometry": { "type": "Point", "coordinates": [ 100.371094, 31.728167 ] } }
{ "type": "Feature", "tippecanoe": { "layer": "2AFCA193C4381583916454732", "minzoom": 2, "maxzoom": 8 }, "properties": { "halo": 0.8, "title": "谢氏", "fontsize": 12, "tyid": "304002", "oid": "103:1576575151449", "color": "#262626" }, "geometry": { "type": "Point", "coordinates": [ 107.226562, 26.273714 ] } }
{ "type": "Feature", "tippecanoe": { "layer": "2AFCA193C4381583916454732", "minzoom": 2, "maxzoom": 8 }, "properties": { "halo": 0.8, "title": "达雅瓦底王国", "fontsize": 12, "tyid": "304000", "oid": "103:1576575151509", "color": "#202020" }, "geometry": { "type": "Point", "coordinates": [ 93.339844, 20.550509 ] } }
{ "type": "Feature", "tippecanoe": { "layer": "2AFCA193C4381583916454732", "minzoom": 2, "maxzoom": 8 }, "properties": { "halo": 0.8, "title": "骠国", "fontsize": 12, "tyid": "304000", "oid": "103:1576575151498", "color": "#202020" }, "geometry": { "type": "Point", "coordinates": [ 95.888672, 21.125498 ] } }
{ "type": "Feature", "tippecanoe": { "layer": "2AFCA193C4381583916454732", "minzoom": 2, "maxzoom": 8 }, "properties": { "halo": 0.8, "title": "直通王国", "fontsize": 12, "tyid": "304000", "oid": "103:1576575151499", "color": "#202020" }, "geometry": { "type": "Point", "coordinates": [ 96.152344, 17.140790 ] } }
{ "type": "Feature", "tippecanoe": { "layer": "2AFCA193C4381583916454732", "minzoom": 2, "maxzoom": 8 }, "properties": { "halo": 0.8, "title": "罗涡国", "fontsize": 12, "tyid": "304000", "oid": "103:1576575151607", "color": "#202020" }, "geometry": { "type": "Point", "coordinates": [ 100.019531, 15.961329 ] } }
{ "type": "Feature", "tippecanoe": { "layer": "2AFCA193C4381583916454732", "minzoom": 2, "maxzoom": 8 }, "properties": { "halo": 0.8, "title": "盘盘国", "fontsize": 12, "tyid": "304000", "oid": "103:1576575151694", "color": "#202020" }, "geometry": { "type": "Point", "coordinates": [ 99.404297, 8.581021 ] } }
{ "type": "Feature", "tippecanoe": { "layer": "2AFCA193C4381583916454732", "minzoom": 2, "maxzoom": 8 }, "properties": { "halo": 0.8, "title": "真腊王国", "fontsize": 12, "tyid": "304000", "oid": "103:1576575151757", "color": "#202020" }, "geometry": { "type": "Point", "coordinates": [ 106.259766, 13.923404 ] } }
{ "type": "Feature", "tippecanoe": { "layer": "2AFCA193C4381583916454732", "minzoom": 2, "maxzoom": 8 }, "properties": { "halo": 0.8, "title": "林邑国", "fontsize": 12, "tyid": "304000", "oid": "103:1576575151778", "color": "#202020" }, "geometry": { "type": "Point", "coordinates": [ 108.632812, 14.434680 ] } }
{ "type": "Feature", "tippecanoe": { "layer": "2AFCA193C4381583916454732", "minzoom": 2, "maxzoom": 8 }, "properties": { "halo": 0.8, "title": "赤土国", "fontsize": 12, "tyid": "304000", "oid": "103:1576575151566", "color": "#202020" }, "geometry": { "type": "Point", "coordinates": [ 102.304688, 5.353521 ] } }
{ "type": "Feature", "tippecanoe": { "layer": "2AFCA193C4381583916454732", "minzoom": 2, "maxzoom": 8 }, "properties": { "halo": 0.8, "title": "婆皇国", "fontsize": 12, "tyid": "304000", "oid": "103:1576575151568", "color": "#202020" }, "geometry": { "type": "Point", "coordinates": [ 102.480469, 3.776559 ] } }
{ "type": "Feature", "tippecanoe": { "layer": "2AFCA193C4381583916454732", "minzoom": 2, "maxzoom": 8 }, "properties": { "halo": 0.8, "title": "百济", "fontsize": 12, "tyid": "304000", "oid": "103:1576575151502", "color": "#202020" }, "geometry": { "type": "Point", "coordinates": [ 127.529297, 36.527295 ] } }
{ "type": "Feature", "tippecanoe": { "layer": "2AFCA193C4381583916454732", "minzoom": 2, "maxzoom": 8 }, "properties": { "halo": 0.8, "title": "新罗", "fontsize": 12, "tyid": "304000", "oid": "103:1576575151745", "color": "#202020" }, "geometry": { "type": "Point", "coordinates": [ 128.759766, 36.315125 ] } }
{ "type": "Feature", "tippecanoe": { "layer": "2AFCA193C4381583916454732", "minzoom": 2, "maxzoom": 8 }, "properties": { "halo": 0.8, "title": "尼夫赫人", "fontsize": 12, "tyid": "304001", "oid": "103:1576575151504", "color": "#262626" }, "geometry": { "type": "Point", "coordinates": [ 142.646484, 50.345460 ] } }
{ "type": "Feature", "tippecanoe": { "layer": "2AFCA193C4381583916454732", "minzoom": 2, "maxzoom": 8 }, "properties": { "halo": 0.8, "title": "绳文人", "fontsize": 12, "tyid": "304001", "oid": "103:1576575151775", "color": "#262626" }, "geometry": { "type": "Point", "coordinates": [ 142.558594, 43.389082 ] } }
{ "type": "Feature", "tippecanoe": { "layer": "2AFCA193C4381583916454732", "minzoom": 2, "maxzoom": 8 }, "properties": { "halo": 0.8, "title": "日高见国", "fontsize": 12, "tyid": "304000", "oid": "103:1576575151751", "color": "#202020" }, "geometry": { "type": "Point", "coordinates": [ 140.712891, 39.504041 ] } }
{ "type": "Feature", "tippecanoe": { "layer": "2AFCA193C4381583916454732", "minzoom": 2, "maxzoom": 8 }, "properties": { "halo": 0.8, "title": "乌莱维文明", "fontsize": 12, "tyid": "304002", "oid": "103:1576575151706", "color": "#262626" }, "geometry": { "type": "Point", "coordinates": [ 29.882812, -2.547988 ] } }
{ "type": "Feature", "tippecanoe": { "layer": "2AFCA193C4381583916454732", "minzoom": 2, "maxzoom": 8 }, "properties": { "halo": 0.8, "title": "艾布兰文化五期", "fontsize": 12, "tyid": "304002", "oid": "103:1576575151376", "color": "#262626" }, "geometry": { "type": "Point", "coordinates": [ 36.474609, -0.175781 ] } }
{ "type": "Feature", "tippecanoe": { "layer": "2AFCA193C4381583916454732", "minzoom": 2, "maxzoom": 8 }, "properties": { "halo": 0.8, "title": "末罗瑜王国", "fontsize": 12, "tyid": "304000", "oid": "103:1576575151451", "color": "#202020" }, "geometry": { "type": "Point", "coordinates": [ 103.623047, -2.460181 ] } }
{ "type": "Feature", "tippecanoe": { "layer": "2AFCA193C4381583916454732", "minzoom": 2, "maxzoom": 8 }, "properties": { "halo": 0.8, "title": "库泰王国", "fontsize": 12, "tyid": "304000", "oid": "103:1576575151611", "color": "#202020" }, "geometry": { "type": "Point", "coordinates": [ 116.191406, 0.000000 ] } }
{ "type": "Feature", "tippecanoe": { "layer": "2AFCA193C4381583916454732", "minzoom": 2, "maxzoom": 8 }, "properties": { "halo": 0.8, "title": "巴拉瓦人", "fontsize": 12, "tyid": "304001", "oid": "103:1576575151275", "color": "#262626" }, "geometry": { "type": "Point", "coordinates": [ 146.513672, -41.967659 ] } }
{ "type": "Feature", "tippecanoe": { "layer": "2AFCAB51B1601583916454764", "minzoom": 2, "maxzoom": 8 }, "properties": { "tyid": "410000", "centroid": "{\"type\":\"Point\",\"coordinates\":[102.890655519,50.32448578]}", "opacity": 1, "oid": "103:1582721307215", "color": "#A11300", "width": 3 }, "geometry": { "type": "MultiLineString", "coordinates": [ [ [ 108.017578, 21.616579 ], [ 106.611328, 22.024546 ], [ 106.523438, 22.512557 ], [ 106.699219, 22.836946 ], [ 105.820312, 22.998852 ], [ 105.205078, 23.402765 ], [ 103.886719, 22.512557 ], [ 103.535156, 22.836946 ], [ 103.183594, 22.105999 ], [ 102.480469, 22.512557 ], [ 101.777344, 21.861499 ], [ 101.689453, 21.207459 ], [ 101.162109, 21.207459 ], [ 100.986328, 21.779905 ], [ 100.195312, 21.534847 ], [ 99.843750, 22.105999 ], [ 99.140625, 22.187405 ], [ 99.228516, 22.917923 ], [ 98.437500, 23.079732 ], [ 98.701172, 23.402765 ], [ 98.349609, 23.966176 ], [ 98.525391, 24.206890 ], [ 97.294922, 23.805450 ], [ 97.470703, 25.324167 ], [ 98.261719, 26.431228 ], [ 98.701172, 26.667096 ], [ 98.613281, 27.605671 ], [ 98.261719, 27.605671 ], [ 98.085938, 28.226970 ], [ 97.558594, 28.536275 ], [ 97.031250, 27.761330 ], [ 96.240234, 28.304381 ], [ 95.625000, 28.304381 ], [ 94.218750, 27.605671 ], [ 93.691406, 27.059126 ], [ 92.988281, 26.902477 ], [ 92.021484, 26.902477 ], [ 92.109375, 27.371767 ], [ 91.494141, 27.605671 ], [ 91.494141, 27.916767 ], [ 90.791016, 28.071980 ] ], [ [ 130.605469, 42.293564 ], [ 130.166016, 42.940339 ], [ 129.814453, 43.004647 ], [ 129.638672, 42.488302 ], [ 129.287109, 42.423457 ], [ 128.847656, 42.032974 ], [ 127.968750, 42.032974 ], [ 128.232422, 41.574361 ], [ 128.056641, 41.442726 ], [ 127.177734, 41.508577 ], [ 126.826172, 41.836828 ], [ 125.947266, 40.913513 ], [ 124.804688, 40.513799 ], [ 124.277344, 40.044438 ] ], [ [ 135.263672, 54.775346 ], [ 132.978516, 54.162434 ], [ 130.517578, 54.110943 ], [ 131.835938, 54.927142 ], [ 131.044922, 55.677584 ], [ 129.462891, 55.776573 ], [ 128.759766, 55.528631 ], [ 127.705078, 55.727110 ], [ 126.123047, 55.627996 ], [ 125.859375, 55.825973 ], [ 124.804688, 55.924586 ], [ 123.134766, 54.775346 ], [ 121.376953, 54.265224 ], [ 121.025391, 54.521081 ], [ 120.234375, 54.162434 ], [ 119.267578, 54.007769 ], [ 119.003906, 53.383328 ], [ 119.179688, 53.120405 ], [ 120.058594, 53.488046 ], [ 121.201172, 53.540307 ], [ 121.376953, 53.383328 ], [ 120.761719, 53.278353 ], [ 119.970703, 52.802761 ], [ 120.058594, 52.589701 ], [ 120.673828, 52.536273 ], [ 120.673828, 51.998410 ], [ 120.058594, 51.672555 ], [ 119.091797, 50.401515 ], [ 119.355469, 50.401515 ], [ 119.267578, 50.120578 ], [ 118.037109, 49.610710 ], [ 116.191406, 50.064192 ], [ 115.312500, 49.951220 ], [ 114.960938, 50.233152 ], [ 114.257812, 50.289339 ], [ 112.675781, 49.496675 ], [ 110.654297, 49.152970 ], [ 108.457031, 49.382373 ], [ 107.929688, 49.724479 ], [ 107.929688, 49.951220 ], [ 107.050781, 50.064192 ], [ 106.523438, 50.345460 ], [ 105.292969, 50.513427 ], [ 103.974609, 50.176898 ], [ 103.271484, 50.233152 ], [ 102.216797, 50.625073 ], [ 102.041016, 51.399206 ], [ 98.964844, 52.106505 ], [ 98.613281, 52.482780 ], [ 98.876953, 52.908902 ], [ 99.140625, 52.961875 ], [ 98.789062, 53.173119 ], [ 98.173828, 53.120405 ], [ 96.767578, 53.800651 ], [ 96.416016, 53.592505 ], [ 94.658203, 53.435719 ], [ 94.394531, 52.961875 ], [ 94.130859, 52.908902 ], [ 93.515625, 52.214339 ], [ 92.812500, 51.890054 ], [ 91.054688, 51.890054 ], [ 90.175781, 52.696361 ], [ 87.802734, 53.383328 ], [ 86.396484, 53.173119 ], [ 86.132812, 52.908902 ], [ 83.056641, 51.618017 ], [ 82.617188, 51.179343 ], [ 83.056641, 50.958427 ], [ 83.232422, 50.513427 ], [ 82.529297, 49.724479 ], [ 82.529297, 49.325122 ], [ 81.298828, 48.690960 ], [ 81.035156, 48.166085 ], [ 79.628906, 47.694974 ], [ 79.453125, 46.800059 ], [ 78.750000, 46.800059 ], [ 78.750000, 46.619261 ], [ 78.574219, 46.800059 ], [ 78.222656, 46.498392 ], [ 77.783203, 46.679594 ], [ 74.531250, 46.800059 ], [ 73.564453, 46.134170 ], [ 73.388672, 45.706179 ], [ 72.070312, 44.964798 ], [ 70.488281, 44.402392 ], [ 69.521484, 43.452919 ], [ 70.927734, 42.293564 ], [ 73.212891, 42.163403 ], [ 73.916016, 41.836828 ], [ 74.003906, 41.574361 ], [ 73.300781, 41.508577 ], [ 73.828125, 41.046217 ], [ 73.212891, 40.847060 ], [ 72.949219, 40.446947 ], [ 73.125000, 40.044438 ], [ 72.773438, 39.842286 ], [ 72.861328, 39.368279 ], [ 72.421875, 39.436193 ], [ 72.070312, 39.095963 ], [ 72.246094, 38.548165 ], [ 71.894531, 38.272689 ], [ 72.158203, 37.649034 ], [ 71.718750, 36.738884 ], [ 73.476562, 37.509726 ], [ 73.740234, 37.439974 ], [ 73.740234, 37.160317 ], [ 74.531250, 37.090240 ], [ 75.673828, 36.385913 ], [ 75.761719, 36.031332 ], [ 74.882812, 35.817813 ], [ 75.322266, 35.173808 ], [ 75.146484, 34.669359 ], [ 76.113281, 33.578015 ], [ 77.080078, 32.990236 ], [ 77.080078, 32.472695 ], [ 77.871094, 31.802893 ], [ 78.662109, 31.728167 ], [ 79.013672, 31.052934 ], [ 79.892578, 30.826781 ], [ 80.683594, 30.145127 ], [ 82.001953, 30.145127 ], [ 83.583984, 29.228890 ], [ 83.935547, 29.305561 ], [ 84.462891, 28.536275 ], [ 85.605469, 28.226970 ], [ 85.869141, 27.916767 ], [ 87.714844, 27.839076 ], [ 88.681641, 28.071980 ], [ 88.945312, 27.215556 ], [ 89.560547, 28.226970 ], [ 90.791016, 28.071980 ] ] ] } }
{ "type": "Feature", "tippecanoe": { "layer": "2AFCAB51B1601583916454764", "minzoom": 2, "maxzoom": 8 }, "properties": { "tyid": "410000", "centroid": "{\"type\":\"Point\",\"coordinates\":[118.9965612163,11.9748626986]}", "opacity": 1, "oid": "103:1582721307213", "color": "#A11300", "width": 3 }, "geometry": { "type": "MultiLineString", "coordinates": [ [ [ 122.695312, 24.447150 ], [ 122.431641, 23.402765 ] ], [ [ 120.849609, 20.550509 ], [ 121.728516, 21.616579 ] ], [ [ 119.355469, 17.727759 ], [ 119.794922, 18.895893 ] ], [ [ 118.916016, 14.689881 ], [ 118.916016, 16.045813 ] ], [ [ 118.476562, 10.833306 ], [ 119.003906, 12.039321 ] ], [ [ 115.312500, 7.013668 ], [ 116.191406, 8.059230 ] ], [ [ 111.708984, 3.425692 ], [ 112.939453, 3.864255 ] ], [ [ 108.281250, 5.965754 ], [ 108.193359, 7.362467 ] ], [ [ 110.039062, 11.264612 ], [ 110.214844, 12.468760 ] ], [ [ 109.775391, 15.029686 ], [ 109.248047, 16.214675 ] ] ] } }
{ "type": "Feature", "tippecanoe": { "layer": "2AFCABF2C1D01583916454750", "minzoom": 2, "maxzoom": 8 }, "properties": { "halo": 1.6, "title": "古白令海文化", "fontsize": 12, "tyid": "304002", "oid": "103:1576575151480", "color": "#0056E7" }, "geometry": { "type": "Point", "coordinates": [ -170.332031, 63.470145 ] } }
{ "type": "Feature", "tippecanoe": { "layer": "2AFCABF2C1D01583916454750", "minzoom": 2, "maxzoom": 8 }, "properties": { "halo": 1.6, "title": "梅奥人", "fontsize": 12, "tyid": "304001", "oid": "103:1576575151465", "color": "#0056E7" }, "geometry": { "type": "Point", "coordinates": [ -109.160156, 26.667096 ] } }
{ "type": "Feature", "tippecanoe": { "layer": "2AFCABF2C1D01583916454750", "minzoom": 2, "maxzoom": 8 }, "properties": { "halo": 1.6, "title": "查尔奇维特斯文化", "fontsize": 12, "tyid": "304002", "oid": "103:1576575151363", "color": "#0056E7" }, "geometry": { "type": "Point", "coordinates": [ -103.974609, 23.483401 ] } }
{ "type": "Feature", "tippecanoe": { "layer": "2AFCABF2C1D01583916454750", "minzoom": 2, "maxzoom": 8 }, "properties": { "halo": 1.6, "title": "巴希奥文化", "fontsize": 12, "tyid": "304002", "oid": "103:1576575151653", "color": "#0056E7" }, "geometry": { "type": "Point", "coordinates": [ -99.931641, 20.961440 ] } }
{ "type": "Feature", "tippecanoe": { "layer": "2AFCABF2C1D01583916454750", "minzoom": 2, "maxzoom": 8 }, "properties": { "halo": 1.6, "title": "特奥蒂瓦坎", "fontsize": 12, "tyid": "304002", "oid": "103:1576575151590", "color": "#0056E7" }, "geometry": { "type": "Point", "coordinates": [ -99.404297, 19.808054 ] } }
{ "type": "Feature", "tippecanoe": { "layer": "2AFCABF2C1D01583916454750", "minzoom": 2, "maxzoom": 8 }, "properties": { "halo": 1.6, "title": "圣米格尔伊克帕坦文化", "fontsize": 12, "tyid": "304002", "oid": "103:1576575151640", "color": "#0056E7" }, "geometry": { "type": "Point", "coordinates": [ -100.019531, 19.062118 ] } }
{ "type": "Feature", "tippecanoe": { "layer": "2AFCABF2C1D01583916454750", "minzoom": 2, "maxzoom": 8 }, "properties": { "halo": 1.6, "title": "科韦克卡-琼塔尔文化", "fontsize": 12, "tyid": "304002", "oid": "103:1576575151768", "color": "#0056E7" }, "geometry": { "type": "Point", "coordinates": [ -99.667969, 18.062312 ] } }
{ "type": "Feature", "tippecanoe": { "layer": "2AFCABF2C1D01583916454750", "minzoom": 2, "maxzoom": 8 }, "properties": { "halo": 1.6, "title": "古韦拉克鲁斯文化", "fontsize": 12, "tyid": "304002", "oid": "103:1576575151407", "color": "#0056E7" }, "geometry": { "type": "Point", "coordinates": [ -96.767578, 19.642588 ] } }
{ "type": "Feature", "tippecanoe": { "layer": "2AFCABF2C1D01583916454750", "minzoom": 2, "maxzoom": 8 }, "properties": { "halo": 1.6, "title": "米斯特克人", "fontsize": 12, "tyid": "304001", "oid": "103:1576575151368", "color": "#0056E7" }, "geometry": { "type": "Point", "coordinates": [ -98.349609, 17.224758 ] } }
{ "type": "Feature", "tippecanoe": { "layer": "2AFCABF2C1D01583916454750", "minzoom": 2, "maxzoom": 8 }, "properties": { "halo": 1.6, "title": "特里克人", "fontsize": 12, "tyid": "304001", "oid": "103:1576575151651", "color": "#0056E7" }, "geometry": { "type": "Point", "coordinates": [ -97.382812, 17.811456 ] } }
{ "type": "Feature", "tippecanoe": { "layer": "2AFCABF2C1D01583916454750", "minzoom": 2, "maxzoom": 8 }, "properties": { "halo": 1.6, "title": "洛瓦贾达斯文化", "fontsize": 12, "tyid": "304002", "oid": "103:1576575151634", "color": "#0056E7" }, "geometry": { "type": "Point", "coordinates": [ -96.416016, 19.145168 ] } }
{ "type": "Feature", "tippecanoe": { "layer": "2AFCABF2C1D01583916454750", "minzoom": 2, "maxzoom": 8 }, "properties": { "halo": 1.6, "title": "麦克斯人", "fontsize": 12, "tyid": "304001", "oid": "103:1576575151783", "color": "#0056E7" }, "geometry": { "type": "Point", "coordinates": [ -96.503906, 18.312811 ] } }
{ "type": "Feature", "tippecanoe": { "layer": "2AFCABF2C1D01583916454750", "minzoom": 2, "maxzoom": 8 }, "properties": { "halo": 1.6, "title": "佐齐尔人", "fontsize": 12, "tyid": "304001", "oid": "103:1576575151472", "color": "#0056E7" }, "geometry": { "type": "Point", "coordinates": [ -93.339844, 16.551962 ] } }
{ "type": "Feature", "tippecanoe": { "layer": "2AFCABF2C1D01583916454750", "minzoom": 2, "maxzoom": 8 }, "properties": { "halo": 1.6, "title": "祖赫人", "fontsize": 12, "tyid": "304001", "oid": "103:1576575151564", "color": "#0056E7" }, "geometry": { "type": "Point", "coordinates": [ -92.109375, 16.045813 ] } }
{ "type": "Feature", "tippecanoe": { "layer": "2AFCABF2C1D01583916454750", "minzoom": 2, "maxzoom": 8 }, "properties": { "halo": 1.6, "title": "基切人", "fontsize": 12, "tyid": "304001", "oid": "103:1576575151473", "color": "#0056E7" }, "geometry": { "type": "Point", "coordinates": [ -90.966797, 15.029686 ] } }
{ "type": "Feature", "tippecanoe": { "layer": "2AFCABF2C1D01583916454750", "minzoom": 2, "maxzoom": 8 }, "properties": { "halo": 1.6, "title": "怒溪文化", "fontsize": 12, "tyid": "304002", "oid": "103:1576575151330", "color": "#0056E7" }, "geometry": { "type": "Point", "coordinates": [ -72.421875, 41.574361 ] } }
{ "type": "Feature", "tippecanoe": { "layer": "2AFCABF2C1D01583916454750", "minzoom": 2, "maxzoom": 8 }, "properties": { "halo": 1.6, "title": "埃里森-拉莫特文化", "fontsize": 12, "tyid": "304002", "oid": "103:1576575151658", "color": "#0056E7" }, "geometry": { "type": "Point", "coordinates": [ -87.626953, 39.095963 ] } }
{ "type": "Feature", "tippecanoe": { "layer": "2AFCABF2C1D01583916454750", "minzoom": 2, "maxzoom": 8 }, "properties": { "halo": 1.6, "title": "米勒文化", "fontsize": 12, "tyid": "304002", "oid": "103:1576575151555", "color": "#0056E7" }, "geometry": { "type": "Point", "coordinates": [ -88.242188, 34.161818 ] } }
{ "type": "Feature", "tippecanoe": { "layer": "2AFCABF2C1D01583916454750", "minzoom": 2, "maxzoom": 8 }, "properties": { "halo": 1.6, "title": "山地霍普维尔文化", "fontsize": 12, "tyid": "304002", "oid": "103:1576575151353", "color": "#0056E7" }, "geometry": { "type": "Point", "coordinates": [ -79.980469, 39.300299 ] } }
{ "type": "Feature", "tippecanoe": { "layer": "2AFCABF2C1D01583916454750", "minzoom": 2, "maxzoom": 8 }, "properties": { "halo": 1.6, "title": "凯兹池塘文化", "fontsize": 12, "tyid": "304002", "oid": "103:1576575151734", "color": "#0056E7" }, "geometry": { "type": "Point", "coordinates": [ -82.265625, 29.535230 ] } }
{ "type": "Feature", "tippecanoe": { "layer": "2AFCABF2C1D01583916454750", "minzoom": 2, "maxzoom": 8 }, "properties": { "halo": 1.6, "title": "玛纳索塔文化", "fontsize": 12, "tyid": "304002", "oid": "103:1576575151370", "color": "#0056E7" }, "geometry": { "type": "Point", "coordinates": [ -82.441406, 27.683528 ] } }
{ "type": "Feature", "tippecanoe": { "layer": "2AFCABF2C1D01583916454750", "minzoom": 2, "maxzoom": 8 }, "properties": { "halo": 1.6, "title": "卡卢萨人", "fontsize": 12, "tyid": "304001", "oid": "103:1576575151333", "color": "#0056E7" }, "geometry": { "type": "Point", "coordinates": [ -81.650391, 27.137368 ] } }
{ "type": "Feature", "tippecanoe": { "layer": "2AFCABF2C1D01583916454750", "minzoom": 2, "maxzoom": 8 }, "properties": { "halo": 1.6, "title": "圣约翰文化", "fontsize": 12, "tyid": "304002", "oid": "103:1576575151389", "color": "#0056E7" }, "geometry": { "type": "Point", "coordinates": [ -81.474609, 29.382175 ] } }
{ "type": "Feature", "tippecanoe": { "layer": "2AFCABF2C1D01583916454750", "minzoom": 2, "maxzoom": 8 }, "properties": { "halo": 1.6, "title": "贝尔格莱德文化", "fontsize": 12, "tyid": "304002", "oid": "103:1576575151289", "color": "#0056E7" }, "geometry": { "type": "Point", "coordinates": [ -80.859375, 27.527758 ] } }
{ "type": "Feature", "tippecanoe": { "layer": "2AFCABF2C1D01583916454750", "minzoom": 2, "maxzoom": 8 }, "properties": { "halo": 1.6, "title": "格莱兹文化", "fontsize": 12, "tyid": "304002", "oid": "103:1576575151737", "color": "#0056E7" }, "geometry": { "type": "Point", "coordinates": [ -80.859375, 26.037042 ] } }
{ "type": "Feature", "tippecanoe": { "layer": "2AFCABF2C1D01583916454750", "minzoom": 2, "maxzoom": 8 }, "properties": { "halo": 1.6, "title": "德贵斯塔族", "fontsize": 12, "tyid": "304001", "oid": "103:1576575151460", "color": "#0056E7" }, "geometry": { "type": "Point", "coordinates": [ -80.419922, 25.641526 ] } }
{ "type": "Feature", "tippecanoe": { "layer": "2AFCABF2C1D01583916454750", "minzoom": 2, "maxzoom": 8 }, "properties": { "halo": 1.6, "title": "雷卡人", "fontsize": 12, "tyid": "304001", "oid": "103:1576575151723", "color": "#0056E7" }, "geometry": { "type": "Point", "coordinates": [ -87.802734, 13.752725 ] } }
{ "type": "Feature", "tippecanoe": { "layer": "2AFCABF2C1D01583916454750", "minzoom": 2, "maxzoom": 8 }, "properties": { "halo": 1.6, "title": "格兰科克勒文化", "fontsize": 12, "tyid": "304002", "oid": "103:1576575151315", "color": "#0056E7" }, "geometry": { "type": "Point", "coordinates": [ -80.507812, 8.581021 ] } }
{ "type": "Feature", "tippecanoe": { "layer": "2AFCABF2C1D01583916454750", "minzoom": 2, "maxzoom": 8 }, "properties": { "halo": 1.8, "title": "泰罗纳", "fontsize": 12, "tyid": "304000", "oid": "103:1576575151434", "color": "#0056E7" }, "geometry": { "type": "Point", "coordinates": [ -73.564453, 10.833306 ] } }
{ "type": "Feature", "tippecanoe": { "layer": "2AFCABF2C1D01583916454750", "minzoom": 2, "maxzoom": 8 }, "properties": { "halo": 1.6, "title": "约托科文化", "fontsize": 12, "tyid": "304002", "oid": "103:1576575151593", "color": "#0056E7" }, "geometry": { "type": "Point", "coordinates": [ -76.464844, 3.864255 ] } }
{ "type": "Feature", "tippecanoe": { "layer": "2AFCABF2C1D01583916454750", "minzoom": 2, "maxzoom": 8 }, "properties": { "halo": 1.6, "title": "昆巴雅文明", "fontsize": 12, "tyid": "304002", "oid": "103:1576575151639", "color": "#0056E7" }, "geometry": { "type": "Point", "coordinates": [ -75.761719, 5.090944 ] } }
{ "type": "Feature", "tippecanoe": { "layer": "2AFCABF2C1D01583916454750", "minzoom": 2, "maxzoom": 8 }, "properties": { "halo": 1.6, "title": "萨拉杜文化", "fontsize": 12, "tyid": "304002", "oid": "103:1576575151319", "color": "#0056E7" },