{"year": "AD534",  "type": "Feature", "tippecanoe": { "layer": "2AFCAC801F601583916237093", "minzoom": 2, "maxzoom": 8 }, "properties": { "halo": 1.6, "title": "古白令海文化", "fontsize": 12, "tyid": "304002", "oid": "103:1576575169031", "color": "#0056E7" }, "geometry": { "type": "Point", "coordinates": [ -170.332031, 63.470145 ] } }
{"year": "AD534",  "type": "Feature", "tippecanoe": { "layer": "2AFCAC801F601583916237093", "minzoom": 2, "maxzoom": 8 }, "properties": { "halo": 1.6, "title": "梅奥人", "fontsize": 12, "tyid": "304001", "oid": "103:1576575169268", "color": "#0056E7" }, "geometry": { "type": "Point", "coordinates": [ -109.160156, 26.667096 ] } }
{"year": "AD534",  "type": "Feature", "tippecanoe": { "layer": "2AFCAC801F601583916237093", "minzoom": 2, "maxzoom": 8 }, "properties": { "halo": 1.6, "title": "查尔奇维特斯文化", "fontsize": 12, "tyid": "304002", "oid": "103:1576575169452", "color": "#0056E7" }, "geometry": { "type": "Point", "coordinates": [ -103.974609, 23.483401 ] } }
{"year": "AD534",  "type": "Feature", "tippecanoe": { "layer": "2AFCAC801F601583916237093", "minzoom": 2, "maxzoom": 8 }, "properties": { "halo": 1.6, "title": "巴希奥文化", "fontsize": 12, "tyid": "304002", "oid": "103:1576575169103", "color": "#0056E7" }, "geometry": { "type": "Point", "coordinates": [ -99.931641, 20.961440 ] } }
{"year": "AD534",  "type": "Feature", "tippecanoe": { "layer": "2AFCAC801F601583916237093", "minzoom": 2, "maxzoom": 8 }, "properties": { "halo": 1.6, "title": "特奥蒂瓦坎", "fontsize": 12, "tyid": "304002", "oid": "103:1576575168959", "color": "#0056E7" }, "geometry": { "type": "Point", "coordinates": [ -99.404297, 19.808054 ] } }
{"year": "AD534",  "type": "Feature", "tippecanoe": { "layer": "2AFCAC801F601583916237093", "minzoom": 2, "maxzoom": 8 }, "properties": { "halo": 1.6, "title": "圣米格尔伊克帕坦文化", "fontsize": 12, "tyid": "304002", "oid": "103:1576575169100", "color": "#0056E7" }, "geometry": { "type": "Point", "coordinates": [ -100.019531, 19.062118 ] } }
{"year": "AD534",  "type": "Feature", "tippecanoe": { "layer": "2AFCAC801F601583916237093", "minzoom": 2, "maxzoom": 8 }, "properties": { "halo": 1.6, "title": "科韦克卡-琼塔尔文化", "fontsize": 12, "tyid": "304002", "oid": "103:1576575169315", "color": "#0056E7" }, "geometry": { "type": "Point", "coordinates": [ -99.667969, 18.062312 ] } }
{"year": "AD534",  "type": "Feature", "tippecanoe": { "layer": "2AFCAC801F601583916237093", "minzoom": 2, "maxzoom": 8 }, "properties": { "halo": 1.6, "title": "托托纳克人", "fontsize": 12, "tyid": "304001", "oid": "103:1576575169006", "color": "#0056E7" }, "geometry": { "type": "Point", "coordinates": [ -98.349609, 20.220966 ] } }
{"year": "AD534",  "type": "Feature", "tippecanoe": { "layer": "2AFCAC801F601583916237093", "minzoom": 2, "maxzoom": 8 }, "properties": { "halo": 1.6, "title": "古韦拉克鲁斯文化", "fontsize": 12, "tyid": "304002", "oid": "103:1576575169365", "color": "#0056E7" }, "geometry": { "type": "Point", "coordinates": [ -96.767578, 19.642588 ] } }
{"year": "AD534",  "type": "Feature", "tippecanoe": { "layer": "2AFCAC801F601583916237093", "minzoom": 2, "maxzoom": 8 }, "properties": { "halo": 1.6, "title": "米斯特克人", "fontsize": 12, "tyid": "304001", "oid": "103:1576575169154", "color": "#0056E7" }, "geometry": { "type": "Point", "coordinates": [ -98.349609, 17.224758 ] } }
{"year": "AD534",  "type": "Feature", "tippecanoe": { "layer": "2AFCAC801F601583916237093", "minzoom": 2, "maxzoom": 8 }, "properties": { "halo": 1.6, "title": "特里克人", "fontsize": 12, "tyid": "304001", "oid": "103:1576575169027", "color": "#0056E7" }, "geometry": { "type": "Point", "coordinates": [ -97.382812, 17.811456 ] } }
{"year": "AD534",  "type": "Feature", "tippecanoe": { "layer": "2AFCAC801F601583916237093", "minzoom": 2, "maxzoom": 8 }, "properties": { "halo": 1.6, "title": "洛瓦贾达斯文化", "fontsize": 12, "tyid": "304002", "oid": "103:1576575169124", "color": "#0056E7" }, "geometry": { "type": "Point", "coordinates": [ -96.416016, 19.145168 ] } }
{"year": "AD534",  "type": "Feature", "tippecanoe": { "layer": "2AFCAC801F601583916237093", "minzoom": 2, "maxzoom": 8 }, "properties": { "halo": 1.6, "title": "麦克斯人", "fontsize": 12, "tyid": "304001", "oid": "103:1576575168925", "color": "#0056E7" }, "geometry": { "type": "Point", "coordinates": [ -96.503906, 18.312811 ] } }
{"year": "AD534",  "type": "Feature", "tippecanoe": { "layer": "2AFCAC801F601583916237093", "minzoom": 2, "maxzoom": 8 }, "properties": { "halo": 1.6, "title": "佐齐尔人", "fontsize": 12, "tyid": "304001", "oid": "103:1576575169371", "color": "#0056E7" }, "geometry": { "type": "Point", "coordinates": [ -93.339844, 16.551962 ] } }
{"year": "AD534",  "type": "Feature", "tippecanoe": { "layer": "2AFCAC801F601583916237093", "minzoom": 2, "maxzoom": 8 }, "properties": { "halo": 1.6, "title": "祖赫人", "fontsize": 12, "tyid": "304001", "oid": "103:1576575169344", "color": "#0056E7" }, "geometry": { "type": "Point", "coordinates": [ -92.109375, 16.045813 ] } }
{"year": "AD534",  "type": "Feature", "tippecanoe": { "layer": "2AFCAC801F601583916237093", "minzoom": 2, "maxzoom": 8 }, "properties": { "halo": 1.6, "title": "基切人", "fontsize": 12, "tyid": "304001", "oid": "103:1576575168958", "color": "#0056E7" }, "geometry": { "type": "Point", "coordinates": [ -90.966797, 15.029686 ] } }
{"year": "AD534",  "type": "Feature", "tippecanoe": { "layer": "2AFCAC801F601583916237093", "minzoom": 2, "maxzoom": 8 }, "properties": { "halo": 1.6, "title": "怒溪文化", "fontsize": 12, "tyid": "304002", "oid": "103:1576575168981", "color": "#0056E7" }, "geometry": { "type": "Point", "coordinates": [ -72.421875, 41.574361 ] } }
{"year": "AD534",  "type": "Feature", "tippecanoe": { "layer": "2AFCAC801F601583916237093", "minzoom": 2, "maxzoom": 8 }, "properties": { "halo": 1.6, "title": "埃里森-拉莫特文化", "fontsize": 12, "tyid": "304002", "oid": "103:1576575169195", "color": "#0056E7" }, "geometry": { "type": "Point", "coordinates": [ -87.626953, 39.095963 ] } }
{"year": "AD534",  "type": "Feature", "tippecanoe": { "layer": "2AFCAC801F601583916237093", "minzoom": 2, "maxzoom": 8 }, "properties": { "halo": 1.6, "title": "凯兹池塘文化", "fontsize": 12, "tyid": "304002", "oid": "103:1576575169389", "color": "#0056E7" }, "geometry": { "type": "Point", "coordinates": [ -82.265625, 29.535230 ] } }
{"year": "AD534",  "type": "Feature", "tippecanoe": { "layer": "2AFCAC801F601583916237093", "minzoom": 2, "maxzoom": 8 }, "properties": { "halo": 1.6, "title": "玛纳索塔文化", "fontsize": 12, "tyid": "304002", "oid": "103:1576575169361", "color": "#0056E7" }, "geometry": { "type": "Point", "coordinates": [ -82.441406, 27.683528 ] } }
{"year": "AD534",  "type": "Feature", "tippecanoe": { "layer": "2AFCAC801F601583916237093", "minzoom": 2, "maxzoom": 8 }, "properties": { "halo": 1.6, "title": "卡卢萨哈契文化", "fontsize": 12, "tyid": "304002", "oid": "103:1576575168985", "color": "#0056E7" }, "geometry": { "type": "Point", "coordinates": [ -81.650391, 27.137368 ] } }
{"year": "AD534",  "type": "Feature", "tippecanoe": { "layer": "2AFCAC801F601583916237093", "minzoom": 2, "maxzoom": 8 }, "properties": { "halo": 1.6, "title": "圣约翰文化", "fontsize": 12, "tyid": "304002", "oid": "103:1576575169020", "color": "#0056E7" }, "geometry": { "type": "Point", "coordinates": [ -81.474609, 29.382175 ] } }
{"year": "AD534",  "type": "Feature", "tippecanoe": { "layer": "2AFCAC801F601583916237093", "minzoom": 2, "maxzoom": 8 }, "properties": { "halo": 1.6, "title": "贝尔格莱德文化", "fontsize": 12, "tyid": "304002", "oid": "103:1576575169013", "color": "#0056E7" }, "geometry": { "type": "Point", "coordinates": [ -80.859375, 27.527758 ] } }
{"year": "AD534",  "type": "Feature", "tippecanoe": { "layer": "2AFCAC801F601583916237093", "minzoom": 2, "maxzoom": 8 }, "properties": { "halo": 1.6, "title": "格莱兹文化", "fontsize": 12, "tyid": "304002", "oid": "103:1576575169012", "color": "#0056E7" }, "geometry": { "type": "Point", "coordinates": [ -80.859375, 26.037042 ] } }
{"year": "AD534",  "type": "Feature", "tippecanoe": { "layer": "2AFCAC801F601583916237093", "minzoom": 2, "maxzoom": 8 }, "properties": { "halo": 1.6, "title": "德贵斯塔族", "fontsize": 12, "tyid": "304001", "oid": "103:1576575169272", "color": "#0056E7" }, "geometry": { "type": "Point", "coordinates": [ -80.419922, 25.641526 ] } }
{"year": "AD534",  "type": "Feature", "tippecanoe": { "layer": "2AFCAC801F601583916237093", "minzoom": 2, "maxzoom": 8 }, "properties": { "halo": 1.6, "title": "雷卡人", "fontsize": 12, "tyid": "304001", "oid": "103:1576575169001", "color": "#0056E7" }, "geometry": { "type": "Point", "coordinates": [ -87.802734, 13.923404 ] } }
{"year": "AD534",  "type": "Feature", "tippecanoe": { "layer": "2AFCAC801F601583916237093", "minzoom": 2, "maxzoom": 8 }, "properties": { "halo": 1.6, "title": "迪基斯文化", "fontsize": 12, "tyid": "304002", "oid": "103:1576575169010", "color": "#0056E7" }, "geometry": { "type": "Point", "coordinates": [ -83.320312, 8.928487 ] } }
{"year": "AD534",  "type": "Feature", "tippecanoe": { "layer": "2AFCAC801F601583916237093", "minzoom": 2, "maxzoom": 8 }, "properties": { "halo": 1.6, "title": "格兰科克勒文化", "fontsize": 12, "tyid": "304002", "oid": "103:1576575168939", "color": "#0056E7" }, "geometry": { "type": "Point", "coordinates": [ -80.507812, 8.581021 ] } }
{"year": "AD534",  "type": "Feature", "tippecanoe": { "layer": "2AFCAC801F601583916237093", "minzoom": 2, "maxzoom": 8 }, "properties": { "halo": 1.8, "title": "泰罗纳", "fontsize": 12, "tyid": "304000", "oid": "103:1576575169340", "color": "#0056E7" }, "geometry": { "type": "Point", "coordinates": [ -73.564453, 10.833306 ] } }
{"year": "AD534",  "type": "Feature", "tippecanoe": { "layer": "2AFCAC801F601583916237093", "minzoom": 2, "maxzoom": 8 }, "properties": { "halo": 1.6, "title": "约托科文化", "fontsize": 12, "tyid": "304002", "oid": "103:1576575169294", "color": "#0056E7" }, "geometry": { "type": "Point", "coordinates": [ -76.464844, 3.864255 ] } }
{"year": "AD534",  "type": "Feature", "tippecanoe": { "layer": "2AFCAC801F601583916237093", "minzoom": 2, "maxzoom": 8 }, "properties": { "halo": 1.6, "title": "昆巴雅文明", "fontsize": 12, "tyid": "304002", "oid": "103:1576575169109", "color": "#0056E7" }, "geometry": { "type": "Point", "coordinates": [ -75.761719, 5.090944 ] } }
{"year": "AD534",  "type": "Feature", "tippecanoe": { "layer": "2AFCAC801F601583916237093", "minzoom": 2, "maxzoom": 8 }, "properties": { "halo": 1.6, "title": "潘切人", "fontsize": 12, "tyid": "304001", "oid": "103:1576575169181", "color": "#0056E7" }, "geometry": { "type": "Point", "coordinates": [ -74.619141, 4.740675 ] } }
{"year": "AD534",  "type": "Feature", "tippecanoe": { "layer": "2AFCAC801F601583916237093", "minzoom": 2, "maxzoom": 8 }, "properties": { "halo": 1.6, "title": "萨拉杜文化", "fontsize": 12, "tyid": "304002", "oid": "103:1576575169284", "color": "#0056E7" }, "geometry": { "type": "Point", "coordinates": [ -61.699219, 16.214675 ] } }
{"year": "AD534",  "type": "Feature", "tippecanoe": { "layer": "2AFCAC801F601583916237093", "minzoom": 2, "maxzoom": 8 }, "properties": { "halo": 1.8, "title": "埃里克王国", "fontsize": 12, "tyid": "304000", "oid": "103:1576575169051", "color": "#0056E7" }, "geometry": { "type": "Point", "coordinates": [ -7.646484, 54.622978 ] } }
{"year": "AD534",  "type": "Feature", "tippecanoe": { "layer": "2AFCAC801F601583916237093", "minzoom": 2, "maxzoom": 8 }, "properties": { "halo": 1.8, "title": "乌勒王国", "fontsize": 12, "tyid": "304000", "oid": "103:1576575169036", "color": "#0056E7" }, "geometry": { "type": "Point", "coordinates": [ -6.152344, 54.418930 ] } }
{"year": "AD534",  "type": "Feature", "tippecanoe": { "layer": "2AFCAC801F601583916237093", "minzoom": 2, "maxzoom": 8 }, "properties": { "halo": 1.8, "title": "奥利尔王国", "fontsize": 12, "tyid": "304000", "oid": "103:1576575169097", "color": "#0056E7" }, "geometry": { "type": "Point", "coordinates": [ -7.031250, 54.110943 ] } }
{"year": "AD534",  "type": "Feature", "tippecanoe": { "layer": "2AFCAC801F601583916237093", "minzoom": 2, "maxzoom": 8 }, "properties": { "halo": 1.8, "title": "斯特拉瑟克雷德王国", "fontsize": 12, "tyid": "304000", "oid": "103:1576575169312", "color": "#0056E7" }, "geometry": { "type": "Point", "coordinates": [ -4.218750, 55.429013 ] } }
{"year": "AD534",  "type": "Feature", "tippecanoe": { "layer": "2AFCAC801F601583916237093", "minzoom": 2, "maxzoom": 8 }, "properties": { "halo": 1.8, "title": "格温内斯王国", "fontsize": 12, "tyid": "304000", "oid": "103:1576575168979", "color": "#0056E7" }, "geometry": { "type": "Point", "coordinates": [ -3.867188, 53.014783 ] } }
{"year": "AD534",  "type": "Feature", "tippecanoe": { "layer": "2AFCAC801F601583916237093", "minzoom": 2, "maxzoom": 8 }, "properties": { "halo": 1.8, "title": "波威斯王国", "fontsize": 12, "tyid": "304000", "oid": "103:1576575169363", "color": "#0056E7" }, "geometry": { "type": "Point", "coordinates": [ -3.339844, 52.536273 ] } }
{"year": "AD534",  "type": "Feature", "tippecanoe": { "layer": "2AFCAC801F601583916237093", "minzoom": 2, "maxzoom": 8 }, "properties": { "halo": 1.8, "title": "麦西亚王国", "fontsize": 12, "tyid": "304000", "oid": "103:1576575169106", "color": "#0056E7" }, "geometry": { "type": "Point", "coordinates": [ -1.406250, 52.749594 ] } }
{"year": "AD534",  "type": "Feature", "tippecanoe": { "layer": "2AFCAC801F601583916237093", "minzoom": 2, "maxzoom": 8 }, "properties": { "halo": 1.8, "title": "锡尔迪金王国", "fontsize": 12, "tyid": "304000", "oid": "103:1576575169139", "color": "#0056E7" }, "geometry": { "type": "Point", "coordinates": [ -4.306641, 52.160455 ] } }
{"year": "AD534",  "type": "Feature", "tippecanoe": { "layer": "2AFCAC801F601583916237093", "minzoom": 2, "maxzoom": 8 }, "properties": { "halo": 1.8, "title": "达费德王国", "fontsize": 12, "tyid": "304000", "oid": "103:1576575169038", "color": "#0056E7" }, "geometry": { "type": "Point", "coordinates": [ -4.042969, 51.890054 ] } }
{"year": "AD534",  "type": "Feature", "tippecanoe": { "layer": "2AFCAC801F601583916237093", "minzoom": 2, "maxzoom": 8 }, "properties": { "halo": 1.8, "title": "布里奇尼奥格王国", "fontsize": 12, "tyid": "304000", "oid": "103:1576575169306", "color": "#0056E7" }, "geometry": { "type": "Point", "coordinates": [ -3.251953, 52.052490 ] } }
{"year": "AD534",  "type": "Feature", "tippecanoe": { "layer": "2AFCAC801F601583916237093", "minzoom": 2, "maxzoom": 8 }, "properties": { "halo": 1.8, "title": "格利维辛王国", "fontsize": 12, "tyid": "304000", "oid": "103:1576575169054", "color": "#0056E7" }, "geometry": { "type": "Point", "coordinates": [ -3.427734, 51.672555 ] } }
{"year": "AD534",  "type": "Feature", "tippecanoe": { "layer": "2AFCAC801F601583916237093", "minzoom": 2, "maxzoom": 8 }, "properties": { "halo": 1.8, "title": "格温特王国", "fontsize": 12, "tyid": "304000", "oid": "103:1576575169368", "color": "#0056E7" }, "geometry": { "type": "Point", "coordinates": [ -2.900391, 51.727028 ] } }
{"year": "AD534",  "type": "Feature", "tippecanoe": { "layer": "2AFCAC801F601583916237093", "minzoom": 2, "maxzoom": 8 }, "properties": { "halo": 1.8, "title": "威塞克斯王国", "fontsize": 12, "tyid": "304000", "oid": "103:1576575169168", "color": "#0056E7" }, "geometry": { "type": "Point", "coordinates": [ -2.373047, 50.847573 ] } }
{"year": "AD534",  "type": "Feature", "tippecanoe": { "layer": "2AFCAC801F601583916237093", "minzoom": 2, "maxzoom": 8 }, "properties": { "halo": 1.8, "title": "萨塞克斯王国", "fontsize": 12, "tyid": "304000", "oid": "103:1576575169194", "color": "#0056E7" }, "geometry": { "type": "Point", "coordinates": [ -0.263672, 51.013755 ] } }
{"year": "AD534",  "type": "Feature", "tippecanoe": { "layer": "2AFCAC801F601583916237093", "minzoom": 2, "maxzoom": 8 }, "properties": { "halo": 1.6, "title": "阿斯图尔人", "fontsize": 12, "tyid": "304001", "oid": "103:1576575169187", "color": "#0056E7" }, "geometry": { "type": "Point", "coordinates": [ -5.537109, 42.811522 ] } }
{"year": "AD534",  "type": "Feature", "tippecanoe": { "layer": "2AFCAC801F601583916237093", "minzoom": 2, "maxzoom": 8 }, "properties": { "halo": 1.6, "title": "坎塔布里人", "fontsize": 12, "tyid": "304001", "oid": "103:1576575169280", "color": "#0056E7" }, "geometry": { "type": "Point", "coordinates": [ -4.394531, 43.068888 ] } }
{"year": "AD534",  "type": "Feature", "tippecanoe": { "layer": "2AFCAC801F601583916237093", "minzoom": 2, "maxzoom": 8 }, "properties": { "halo": 1.6, "title": "奥特里冈人", "fontsize": 12, "tyid": "304001", "oid": "103:1576575169456", "color": "#0056E7" }, "geometry": { "type": "Point", "coordinates": [ -3.339844, 43.004647 ] } }
{"year": "AD534",  "type": "Feature", "tippecanoe": { "layer": "2AFCAC801F601583916237093", "minzoom": 2, "maxzoom": 8 }, "properties": { "halo": 1.6, "title": "卡斯蒂利人", "fontsize": 12, "tyid": "304001", "oid": "103:1576575169055", "color": "#0056E7" }, "geometry": { "type": "Point", "coordinates": [ -2.812500, 43.068888 ] } }
{"year": "AD534",  "type": "Feature", "tippecanoe": { "layer": "2AFCAC801F601583916237093", "minzoom": 2, "maxzoom": 8 }, "properties": { "halo": 1.6, "title": "瓦杜里人", "fontsize": 12, "tyid": "304001", "oid": "103:1576575169050", "color": "#0056E7" }, "geometry": { "type": "Point", "coordinates": [ -2.285156, 42.940339 ] } }
{"year": "AD534",  "type": "Feature", "tippecanoe": { "layer": "2AFCAC801F601583916237093", "minzoom": 2, "maxzoom": 8 }, "properties": { "halo": 1.6, "title": "巴斯克人", "fontsize": 12, "tyid": "304001", "oid": "103:1576575169048", "color": "#0056E7" }, "geometry": { "type": "Point", "coordinates": [ -1.494141, 42.811522 ] } }
{"year": "AD534",  "type": "Feature", "tippecanoe": { "layer": "2AFCAC801F601583916237093", "minzoom": 2, "maxzoom": 8 }, "properties": { "halo": 1.6, "title": "关切人", "fontsize": 12, "tyid": "304001", "oid": "103:1576575169151", "color": "#0056E7" }, "geometry": { "type": "Point", "coordinates": [ -16.611328, 28.304381 ] } }
{"year": "AD534",  "type": "Feature", "tippecanoe": { "layer": "2AFCAC801F601583916237093", "minzoom": 2, "maxzoom": 8 }, "properties": { "halo": 1.6, "title": "卡纳里人", "fontsize": 12, "tyid": "304001", "oid": "103:1576575169177", "color": "#0056E7" }, "geometry": { "type": "Point", "coordinates": [ -79.189453, -2.811371 ] } }
{"year": "AD534",  "type": "Feature", "tippecanoe": { "layer": "2AFCAC801F601583916237093", "minzoom": 2, "maxzoom": 8 }, "properties": { "halo": 1.6, "title": "莫切文明", "fontsize": 12, "tyid": "304002", "oid": "103:1576575169330", "color": "#0056E7" }, "geometry": { "type": "Point", "coordinates": [ -79.013672, -7.623887 ] } }
{"year": "AD534",  "type": "Feature", "tippecanoe": { "layer": "2AFCAC801F601583916237093", "minzoom": 2, "maxzoom": 8 }, "properties": { "halo": 1.6, "title": "维鲁文化", "fontsize": 12, "tyid": "304002", "oid": "103:1576575169026", "color": "#0056E7" }, "geometry": { "type": "Point", "coordinates": [ -78.837891, -8.320212 ] } }
{"year": "AD534",  "type": "Feature", "tippecanoe": { "layer": "2AFCAC801F601583916237093", "minzoom": 2, "maxzoom": 8 }, "properties": { "halo": 1.6, "title": "卡哈马卡文化", "fontsize": 12, "tyid": "304002", "oid": "103:1576575169190", "color": "#0056E7" }, "geometry": { "type": "Point", "coordinates": [ -78.750000, -6.227934 ] } }
{"year": "AD534",  "type": "Feature", "tippecanoe": { "layer": "2AFCAC801F601583916237093", "minzoom": 2, "maxzoom": 8 }, "properties": { "halo": 1.6, "title": "巴托文化", "fontsize": 12, "tyid": "304002", "oid": "103:1576575168987", "color": "#0056E7" }, "geometry": { "type": "Point", "coordinates": [ -71.367188, -33.211116 ] } }
{"year": "AD534",  "type": "Feature", "tippecanoe": { "layer": "2AFCAC801F601583916237093", "minzoom": 2, "maxzoom": 8 }, "properties": { "halo": 1.6, "title": "塔夫文化", "fontsize": 12, "tyid": "304002", "oid": "103:1576575169320", "color": "#0056E7" }, "geometry": { "type": "Point", "coordinates": [ -65.654297, -26.980829 ] } }
{"year": "AD534",  "type": "Feature", "tippecanoe": { "layer": "2AFCAC801F601583916237093", "minzoom": 2, "maxzoom": 8 }, "properties": { "halo": 1.6, "title": "豪什人", "fontsize": 12, "tyid": "304001", "oid": "103:1576575169378", "color": "#0056E7" }, "geometry": { "type": "Point", "coordinates": [ -65.917969, -54.724620 ] } }
{"year": "AD534",  "type": "Feature", "tippecanoe": { "layer": "2AFCAC801F601583916237093", "minzoom": 2, "maxzoom": 8 }, "properties": { "halo": 1.6, "title": "哥得兰人", "fontsize": 12, "tyid": "304001", "oid": "103:1576575169391", "color": "#0056E7" }, "geometry": { "type": "Point", "coordinates": [ 18.457031, 57.515823 ] } }
{"year": "AD534",  "type": "Feature", "tippecanoe": { "layer": "2AFCAC801F601583916237093", "minzoom": 2, "maxzoom": 8 }, "properties": { "halo": 1.8, "title": "埃塞克斯王国", "fontsize": 12, "tyid": "304000", "oid": "103:1576575169102", "color": "#0056E7" }, "geometry": { "type": "Point", "coordinates": [ 0.087891, 51.781436 ] } }
{"year": "AD534",  "type": "Feature", "tippecanoe": { "layer": "2AFCAC801F601583916237093", "minzoom": 2, "maxzoom": 8 }, "properties": { "halo": 1.8, "title": "东盎格利亚王国", "fontsize": 12, "tyid": "304000", "oid": "103:1576575168994", "color": "#0056E7" }, "geometry": { "type": "Point", "coordinates": [ 0.966797, 52.482780 ] } }
{"year": "AD534",  "type": "Feature", "tippecanoe": { "layer": "2AFCAC801F601583916237093", "minzoom": 2, "maxzoom": 8 }, "properties": { "halo": 1.8, "title": "肯特王国", "fontsize": 12, "tyid": "304000", "oid": "103:1576575169383", "color": "#0056E7" }, "geometry": { "type": "Point", "coordinates": [ 0.615234, 51.234407 ] } }
{"year": "AD534",  "type": "Feature", "tippecanoe": { "layer": "2AFCAC801F601583916237093", "minzoom": 2, "maxzoom": 8 }, "properties": { "halo": 1.6, "title": "西加林迪亚人", "fontsize": 12, "tyid": "304001", "oid": "103:1576575169297", "color": "#0056E7" }, "geometry": { "type": "Point", "coordinates": [ 20.654297, 53.067627 ] } }
{"year": "AD534",  "type": "Feature", "tippecanoe": { "layer": "2AFCAC801F601583916237093", "minzoom": 2, "maxzoom": 8 }, "properties": { "halo": 1.6, "title": "鲁基人", "fontsize": 12, "tyid": "304001", "oid": "103:1576575168982", "color": "#0056E7" }, "geometry": { "type": "Point", "coordinates": [ 14.501953, 48.690960 ] } }
{"year": "AD534",  "type": "Feature", "tippecanoe": { "layer": "2AFCAC801F601583916237093", "minzoom": 2, "maxzoom": 8 }, "properties": { "halo": 1.6, "title": "圣马力诺共和国", "fontsize": 12, "tyid": "304001", "oid": "103:1576575169349", "color": "#0056E7" }, "geometry": { "type": "Point", "coordinates": [ 12.392578, 43.961191 ] } }
{"year": "AD534",  "type": "Feature", "tippecanoe": { "layer": "2AFCAC801F601583916237093", "minzoom": 2, "maxzoom": 8 }, "properties": { "halo": 1.6, "title": "奥耶塞利人", "fontsize": 12, "tyid": "304001", "oid": "103:1576575169269", "color": "#0056E7" }, "geometry": { "type": "Point", "coordinates": [ 22.500000, 58.447733 ] } }
{"year": "AD534",  "type": "Feature", "tippecanoe": { "layer": "2AFCAC801F601583916237093", "minzoom": 2, "maxzoom": 8 }, "properties": { "halo": 1.6, "title": "塞米加利亚人", "fontsize": 12, "tyid": "304001", "oid": "103:1576575169373", "color": "#0056E7" }, "geometry": { "type": "Point", "coordinates": [ 23.642578, 56.559482 ] } }
{"year": "AD534",  "type": "Feature", "tippecanoe": { "layer": "2AFCAC801F601583916237093", "minzoom": 2, "maxzoom": 8 }, "properties": { "halo": 1.6, "title": "瑟罗尼亚人", "fontsize": 12, "tyid": "304001", "oid": "103:1576575169063", "color": "#0056E7" }, "geometry": { "type": "Point", "coordinates": [ 25.312500, 56.121060 ] } }
{"year": "AD534",  "type": "Feature", "tippecanoe": { "layer": "2AFCAC801F601583916237093", "minzoom": 2, "maxzoom": 8 }, "properties": { "halo": 1.6, "title": "科尔基斯山中诸部", "fontsize": 12, "tyid": "304002", "oid": "103:1576575169165", "color": "#0056E7" }, "geometry": { "type": "Point", "coordinates": [ 40.429688, 43.389082 ] } }
{"year": "AD534",  "type": "Feature", "tippecanoe": { "layer": "2AFCAC801F601583916237093", "minzoom": 2, "maxzoom": 8 }, "properties": { "halo": 1.6, "title": "古莱什部落", "fontsize": 12, "tyid": "304001", "oid": "103:1576575169022", "color": "#0056E7" }, "geometry": { "type": "Point", "coordinates": [ 39.990234, 21.616579 ] } }
{"year": "AD534",  "type": "Feature", "tippecanoe": { "layer": "2AFCAC801F601583916237093", "minzoom": 2, "maxzoom": 8 }, "properties": { "halo": 1.8, "title": "石国", "fontsize": 12, "tyid": "304000", "oid": "103:1576575169218", "color": "#0056E7" }, "geometry": { "type": "Point", "coordinates": [ 69.345703, 41.442726 ] } }
{"year": "AD534",  "type": "Feature", "tippecanoe": { "layer": "2AFCAC801F601583916237093", "minzoom": 2, "maxzoom": 8 }, "properties": { "halo": 1.8, "title": "安国", "fontsize": 12, "tyid": "304000", "oid": "103:1576575169219", "color": "#0056E7" }, "geometry": { "type": "Point", "coordinates": [ 64.511719, 39.842286 ] } }
{"year": "AD534",  "type": "Feature", "tippecanoe": { "layer": "2AFCAC801F601583916237093", "minzoom": 2, "maxzoom": 8 }, "properties": { "halo": 1.8, "title": "何国", "fontsize": 12, "tyid": "304000", "oid": "103:1576575169215", "color": "#0056E7" }, "geometry": { "type": "Point", "coordinates": [ 65.742188, 39.977120 ] } }
{"year": "AD534",  "type": "Feature", "tippecanoe": { "layer": "2AFCAC801F601583916237093", "minzoom": 2, "maxzoom": 8 }, "properties": { "halo": 1.8, "title": "史国", "fontsize": 12, "tyid": "304000", "oid": "103:1576575169220", "color": "#0056E7" }, "geometry": { "type": "Point", "coordinates": [ 66.621094, 39.027719 ] } }
{"year": "AD534",  "type": "Feature", "tippecanoe": { "layer": "2AFCAC801F601583916237093", "minzoom": 2, "maxzoom": 8 }, "properties": { "halo": 1.8, "title": "康国", "fontsize": 12, "tyid": "304000", "oid": "103:1576575169221", "color": "#0056E7" }, "geometry": { "type": "Point", "coordinates": [ 66.972656, 39.707187 ] } }
{"year": "AD534",  "type": "Feature", "tippecanoe": { "layer": "2AFCAC801F601583916237093", "minzoom": 2, "maxzoom": 8 }, "properties": { "halo": 1.8, "title": "曹国", "fontsize": 12, "tyid": "304000", "oid": "103:1576575169409", "color": "#0056E7" }, "geometry": { "type": "Point", "coordinates": [ 68.027344, 40.044438 ] } }
{"year": "AD534",  "type": "Feature", "tippecanoe": { "layer": "2AFCAC801F601583916237093", "minzoom": 2, "maxzoom": 8 }, "properties": { "halo": 1.8, "title": "米国", "fontsize": 12, "tyid": "304000", "oid": "103:1576575169217", "color": "#0056E7" }, "geometry": { "type": "Point", "coordinates": [ 67.851562, 39.504041 ] } }
{"year": "AD534",  "type": "Feature", "tippecanoe": { "layer": "2AFCAC801F601583916237093", "minzoom": 2, "maxzoom": 8 }, "properties": { "halo": 1.8, "title": "竭盘陀国", "fontsize": 12, "tyid": "304000", "oid": "103:1576575169400", "color": "#0056E7" }, "geometry": { "type": "Point", "coordinates": [ 75.234375, 37.996163 ] } }
{"year": "AD534",  "type": "Feature", "tippecanoe": { "layer": "2AFCAC801F601583916237093", "minzoom": 2, "maxzoom": 8 }, "properties": { "halo": 1.8, "title": "罗昂", "fontsize": 12, "tyid": "304000", "oid": "103:1576575169242", "color": "#0056E7" }, "geometry": { "type": "Point", "coordinates": [ 89.208984, 29.152161 ] } }
{"year": "AD534",  "type": "Feature", "tippecanoe": { "layer": "2AFCAC801F601583916237093", "minzoom": 2, "maxzoom": 8 }, "properties": { "halo": 1.8, "title": "藏", "fontsize": 12, "tyid": "304000", "oid": "103:1576575169245", "color": "#0056E7" }, "geometry": { "type": "Point", "coordinates": [ 89.736328, 28.844674 ] } }
{"year": "AD534",  "type": "Feature", "tippecanoe": { "layer": "2AFCAC801F601583916237093", "minzoom": 2, "maxzoom": 8 }, "properties": { "halo": 1.8, "title": "卓木南木松", "fontsize": 12, "tyid": "304000", "oid": "103:1576575169248", "color": "#0056E7" }, "geometry": { "type": "Point", "coordinates": [ 88.945312, 27.839076 ] } }
{"year": "AD534",  "type": "Feature", "tippecanoe": { "layer": "2AFCAC801F601583916237093", "minzoom": 2, "maxzoom": 8 }, "properties": { "halo": 1.8, "title": "阿拉帕王朝", "fontsize": 12, "tyid": "304000", "oid": "103:1576575169228", "color": "#0056E7" }, "geometry": { "type": "Point", "coordinates": [ 75.322266, 12.811801 ] } }
{"year": "AD534",  "type": "Feature", "tippecanoe": { "layer": "2AFCAC801F601583916237093", "minzoom": 2, "maxzoom": 8 }, "properties": { "halo": 1.8, "title": "西恒伽王朝", "fontsize": 12, "tyid": "304000", "oid": "103:1576575169223", "color": "#0056E7" }, "geometry": { "type": "Point", "coordinates": [ 76.464844, 12.125264 ] } }
{"year": "AD534",  "type": "Feature", "tippecanoe": { "layer": "2AFCAC801F601583916237093", "minzoom": 2, "maxzoom": 8 }, "properties": { "halo": 1.8, "title": "吉", "fontsize": 12, "tyid": "304000", "oid": "103:1576575169243", "color": "#0056E7" }, "geometry": { "type": "Point", "coordinates": [ 91.406250, 29.764377 ] } }
{"year": "AD534",  "type": "Feature", "tippecanoe": { "layer": "2AFCAC801F601583916237093", "minzoom": 2, "maxzoom": 8 }, "properties": { "halo": 1.8, "title": "琛", "fontsize": 12, "tyid": "304000", "oid": "103:1576575169477", "color": "#0056E7" }, "geometry": { "type": "Point", "coordinates": [ 91.230469, 29.382175 ] } }
{"year": "AD534",  "type": "Feature", "tippecanoe": { "layer": "2AFCAC801F601583916237093", "minzoom": 2, "maxzoom": 8 }, "properties": { "halo": 1.8, "title": "悉补野", "fontsize": 12, "tyid": "304000", "oid": "103:1576575169246", "color": "#0056E7" }, "geometry": { "type": "Point", "coordinates": [ 91.845703, 29.152161 ] } }
{"year": "AD534",  "type": "Feature", "tippecanoe": { "layer": "2AFCAC801F601583916237093", "minzoom": 2, "maxzoom": 8 }, "properties": { "halo": 1.8, "title": "俄玉邦噶", "fontsize": 12, "tyid": "304000", "oid": "103:1576575169241", "color": "#0056E7" }, "geometry": { "type": "Point", "coordinates": [ 92.548828, 29.152161 ] } }
{"year": "AD534",  "type": "Feature", "tippecanoe": { "layer": "2AFCAC801F601583916237093", "minzoom": 2, "maxzoom": 8 }, "properties": { "halo": 1.8, "title": "娘", "fontsize": 12, "tyid": "304000", "oid": "103:1576575169237", "color": "#0056E7" }, "geometry": { "type": "Point", "coordinates": [ 93.339844, 29.916852 ] } }
{"year": "AD534",  "type": "Feature", "tippecanoe": { "layer": "2AFCAC801F601583916237093", "minzoom": 2, "maxzoom": 8 }, "properties": { "halo": 1.8, "title": "贡", "fontsize": 12, "tyid": "304000", "oid": "103:1576575169239", "color": "#0056E7" }, "geometry": { "type": "Point", "coordinates": [ 94.482422, 29.688053 ] } }
{"year": "AD534",  "type": "Feature", "tippecanoe": { "layer": "2AFCAC801F601583916237093", "minzoom": 2, "maxzoom": 8 }, "properties": { "halo": 1.8, "title": "达", "fontsize": 12, "tyid": "304000", "oid": "103:1576575169235", "color": "#0056E7" }, "geometry": { "type": "Point", "coordinates": [ 93.603516, 29.152161 ] } }
{"year": "AD534",  "type": "Feature", "tippecanoe": { "layer": "2AFCAC801F601583916237093", "minzoom": 2, "maxzoom": 8 }, "properties": { "halo": 1.8, "title": "宕昌国", "fontsize": 12, "tyid": "304000", "oid": "103:1576575169421", "color": "#0056E7" }, "geometry": { "type": "Point", "coordinates": [ 104.238281, 33.943360 ] } }
{"year": "AD534",  "type": "Feature", "tippecanoe": { "layer": "2AFCAC801F601583916237093", "minzoom": 2, "maxzoom": 8 }, "properties": { "halo": 1.8, "title": "邓至国", "fontsize": 12, "tyid": "304000", "oid": "103:1576575169207", "color": "#0056E7" }, "geometry": { "type": "Point", "coordinates": [ 104.062500, 33.137551 ] } }
{"year": "AD534",  "type": "Feature", "tippecanoe": { "layer": "2AFCAC801F601583916237093", "minzoom": 2, "maxzoom": 8 }, "properties": { "halo": 1.8, "title": "迦托诃国", "fontsize": 12, "tyid": "304000", "oid": "103:1576575169224", "color": "#0056E7" }, "geometry": { "type": "Point", "coordinates": [ 100.283203, 6.315299 ] } }
{"year": "AD534",  "type": "Feature", "tippecanoe": { "layer": "2AFCAC801F601583916237093", "minzoom": 2, "maxzoom": 8 }, "properties": { "halo": 1.8, "title": "狼牙脩国", "fontsize": 12, "tyid": "304000", "oid": "103:1576575169230", "color": "#0056E7" }, "geometry": { "type": "Point", "coordinates": [ 100.898438, 6.053161 ] } }
{"year": "AD534",  "type": "Feature", "tippecanoe": { "layer": "2AFCAC801F601583916237093", "minzoom": 2, "maxzoom": 8 }, "properties": { "halo": 1.8, "title": "刚迦王国", "fontsize": 12, "tyid": "304000", "oid": "103:1576575169398", "color": "#0056E7" }, "geometry": { "type": "Point", "coordinates": [ 101.074219, 4.828260 ] } }
{"year": "AD534",  "type": "Feature", "tippecanoe": { "layer": "2AFCAC801F601583916237093", "minzoom": 2, "maxzoom": 8 }, "properties": { "halo": 1.8, "title": "丹丹国", "fontsize": 12, "tyid": "304000", "oid": "103:1576575169420", "color": "#0056E7" }, "geometry": { "type": "Point", "coordinates": [ 103.359375, 2.108899 ] } }
{"year": "AD534",  "type": "Feature", "tippecanoe": { "layer": "2AFCAC801F601583916237093", "minzoom": 2, "maxzoom": 8 }, "properties": { "halo": 1.6, "title": "番仔园文化", "fontsize": 12, "tyid": "304002", "oid": "103:1576575169232", "color": "#0056E7" }, "geometry": { "type": "Point", "coordinates": [ 120.673828, 24.287027 ] } }
{"year": "AD534",  "type": "Feature", "tippecanoe": { "layer": "2AFCAC801F601583916237093", "minzoom": 2, "maxzoom": 8 }, "properties": { "halo": 1.6, "title": "茑松文化", "fontsize": 12, "tyid": "304002", "oid": "103:1576575169394", "color": "#0056E7" }, "geometry": { "type": "Point", "coordinates": [ 120.322266, 23.079732 ] } }
{"year": "AD534",  "type": "Feature", "tippecanoe": { "layer": "2AFCAC801F601583916237093", "minzoom": 2, "maxzoom": 8 }, "properties": { "halo": 1.6, "title": "龟山文化", "fontsize": 12, "tyid": "304002", "oid": "103:1576575169203", "color": "#0056E7" }, "geometry": { "type": "Point", "coordinates": [ 120.673828, 22.512557 ] } }
{"year": "AD534",  "type": "Feature", "tippecanoe": { "layer": "2AFCAC801F601583916237093", "minzoom": 2, "maxzoom": 8 }, "properties": { "halo": 1.6, "title": "十三行文化", "fontsize": 12, "tyid": "304002", "oid": "103:1576575169426", "color": "#0056E7" }, "geometry": { "type": "Point", "coordinates": [ 121.376953, 24.846565 ] } }
{"year": "AD534",  "type": "Feature", "tippecanoe": { "layer": "2AFCAC801F601583916237093", "minzoom": 2, "maxzoom": 8 }, "properties": { "halo": 1.6, "title": "静浦文化", "fontsize": 12, "tyid": "304002", "oid": "103:1576575169395", "color": "#0056E7" }, "geometry": { "type": "Point", "coordinates": [ 121.025391, 22.917923 ] } }
{"year": "AD534",  "type": "Feature", "tippecanoe": { "layer": "2AFCAC801F601583916237093", "minzoom": 2, "maxzoom": 8 }, "properties": { "halo": 1.6, "title": "雅美文化", "fontsize": 12, "tyid": "304002", "oid": "103:1576575169205", "color": "#0056E7" }, "geometry": { "type": "Point", "coordinates": [ 121.464844, 22.105999 ] } }
{"year": "AD534",  "type": "Feature", "tippecanoe": { "layer": "2AFCAC801F601583916237093", "minzoom": 2, "maxzoom": 8 }, "properties": { "halo": 1.8, "title": "耽罗国", "fontsize": 12, "tyid": "304000", "oid": "103:1576575169480", "color": "#0056E7" }, "geometry": { "type": "Point", "coordinates": [ 126.474609, 33.431441 ] } }
{"year": "AD534",  "type": "Feature", "tippecanoe": { "layer": "2AFCAC801F601583916237093", "minzoom": 2, "maxzoom": 8 }, "properties": { "halo": 1.8, "title": "伽倻", "fontsize": 12, "tyid": "304000", "oid": "103:1576575169202", "color": "#0056E7" }, "geometry": { "type": "Point", "coordinates": [ 127.880859, 35.532226 ] } }
{"year": "AD534",  "type": "Feature", "tippecanoe": { "layer": "2AFCAC801F601583916237093", "minzoom": 2, "maxzoom": 8 }, "properties": { "halo": 1.8, "title": "任那", "fontsize": 12, "tyid": "304000", "oid": "103:1576575169259", "color": "#0056E7" }, "geometry": { "type": "Point", "coordinates": [ 128.056641, 35.101934 ] } }
{"year": "AD534",  "type": "Feature", "tippecanoe": { "layer": "2AFCAC801F601583916237093", "minzoom": 2, "maxzoom": 8 }, "properties": { "halo": 1.6, "title": "隼人", "fontsize": 12, "tyid": "304001", "oid": "103:1576575169213", "color": "#0056E7" }, "geometry": { "type": "Point", "coordinates": [ 130.869141, 32.026706 ] } }
{"year": "AD534",  "type": "Feature", "tippecanoe": { "layer": "2AFCAC801F601583916237093", "minzoom": 2, "maxzoom": 8 }, "properties": { "halo": 1.6, "title": "尼格利陀人", "fontsize": 12, "tyid": "304001", "oid": "103:1576575169264", "color": "#0056E7" }, "geometry": { "type": "Point", "coordinates": [ 122.431641, 11.264612 ] } }
{"year": "AD534",  "type": "Feature", "tippecanoe": { "layer": "2AFCAC801F601583916237093", "minzoom": 2, "maxzoom": 8 }, "properties": { "halo": 1.8, "title": "渤泥国", "fontsize": 12, "tyid": "304000", "oid": "103:1576575169204", "color": "#0056E7" }, "geometry": { "type": "Point", "coordinates": [ 114.785156, 4.302591 ] } }
{"year": "AD534",  "type": "Feature", "tippecanoe": { "layer": "2AFCAC801F601583916237093", "minzoom": 2, "maxzoom": 8 }, "properties": { "halo": 1.8, "title": "塔卢马王国", "fontsize": 12, "tyid": "304000", "oid": "103:1576575169263", "color": "#0056E7" }, "geometry": { "type": "Point", "coordinates": [ 106.787109, -6.402648 ] } }
{"year": "AD534",  "type": "Feature", "tippecanoe": { "layer": "2AFCAC801F601583916237093", "minzoom": 2, "maxzoom": 8 }, "properties": { "halo": 1.6, "title": "托雷斯海峡岛民", "fontsize": 12, "tyid": "304001", "oid": "103:1576575169266", "color": "#0056E7" }, "geometry": { "type": "Point", "coordinates": [ 142.382812, -11.264612 ] } }
{"year": "AD534",  "type": "Feature", "tippecanoe": { "layer": "2AFCAC8B86681583916237075", "minzoom": 2, "maxzoom": 8 }, "properties": { "halo": 0.8, "title": "圣路易斯雷伊文化", "fontsize": 12, "tyid": "304002", "oid": "103:1576575168967", "color": "#262626" }, "geometry": { "type": "Point", "coordinates": [ -118.916016, 34.597042 ] } }
{"year": "AD534",  "type": "Feature", "tippecanoe": { "layer": "2AFCAC8B86681583916237075", "minzoom": 2, "maxzoom": 8 }, "properties": { "halo": 0.8, "title": "维珍阿纳萨齐人", "fontsize": 12, "tyid": "304001", "oid": "103:1576575169336", "color": "#262626" }, "geometry": { "type": "Point", "coordinates": [ -113.818359, 36.879621 ] } }
{"year": "AD534",  "type": "Feature", "tippecanoe": { "layer": "2AFCAC8B86681583916237075", "minzoom": 2, "maxzoom": 8 }, "properties": { "halo": 0.8, "title": "霍霍卡姆文化", "fontsize": 12, "tyid": "304002", "oid": "103:1576575169122", "color": "#262626" }, "geometry": { "type": "Point", "coordinates": [ -112.851562, 32.768800 ] } }
{"year": "AD534",  "type": "Feature", "tippecanoe": { "layer": "2AFCAC8B86681583916237075", "minzoom": 2, "maxzoom": 8 }, "properties": { "halo": 0.8, "title": "科蒙德文化", "fontsize": 12, "tyid": "304002", "oid": "103:1576575169376", "color": "#262626" }, "geometry": { "type": "Point", "coordinates": [ -114.169922, 28.921631 ] } }
{"year": "AD534",  "type": "Feature", "tippecanoe": { "layer": "2AFCAC8B86681583916237075", "minzoom": 2, "maxzoom": 8 }, "properties": { "halo": 0.8, "title": "弗里蒙特文化", "fontsize": 12, "tyid": "304002", "oid": "103:1576575169328", "color": "#262626" }, "geometry": { "type": "Point", "coordinates": [ -111.533203, 38.134557 ] } }
{"year": "AD534",  "type": "Feature", "tippecanoe": { "layer": "2AFCAC8B86681583916237075", "minzoom": 2, "maxzoom": 8 }, "properties": { "halo": 0.8, "title": "斯内瓜文化", "fontsize": 12, "tyid": "304002", "oid": "103:1576575169178", "color": "#262626" }, "geometry": { "type": "Point", "coordinates": [ -111.357422, 34.379713 ] } }
{"year": "AD534",  "type": "Feature", "tippecanoe": { "layer": "2AFCAC8B86681583916237075", "minzoom": 2, "maxzoom": 8 }, "properties": { "halo": 0.8, "title": "莫戈隆文化", "fontsize": 12, "tyid": "304002", "oid": "103:1576575169130", "color": "#262626" }, "geometry": { "type": "Point", "coordinates": [ -108.808594, 31.802893 ] } }
{"year": "AD534",  "type": "Feature", "tippecanoe": { "layer": "2AFCAC8B86681583916237075", "minzoom": 2, "maxzoom": 8 }, "properties": { "halo": 0.8, "title": "瓜伊库拉人", "fontsize": 12, "tyid": "304001", "oid": "103:1576575169033", "color": "#262626" }, "geometry": { "type": "Point", "coordinates": [ -111.621094, 25.165173 ] } }
{"year": "AD534",  "type": "Feature", "tippecanoe": { "layer": "2AFCAC8B86681583916237075", "minzoom": 2, "maxzoom": 8 }, "properties": { "halo": 0.8, "title": "堪萨斯城霍普韦尔文化", "fontsize": 12, "tyid": "304002", "oid": "103:1576575168995", "color": "#262626" }, "geometry": { "type": "Point", "coordinates": [ -93.427734, 38.685510 ] } }
{"year": "AD534",  "type": "Feature", "tippecanoe": { "layer": "2AFCAC8B86681583916237075", "minzoom": 2, "maxzoom": 8 }, "properties": { "halo": 0.8, "title": "福切马里尼文化", "fontsize": 12, "tyid": "304002", "oid": "103:1576575169140", "color": "#262626" }, "geometry": { "type": "Point", "coordinates": [ -94.042969, 33.358062 ] } }
{"year": "AD534",  "type": "Feature", "tippecanoe": { "layer": "2AFCAC8B86681583916237075", "minzoom": 2, "maxzoom": 8 }, "properties": { "halo": 0.8, "title": "喀多语密西西比文化", "fontsize": 12, "tyid": "304002", "oid": "103:1576575169118", "color": "#262626" }, "geometry": { "type": "Point", "coordinates": [ -92.812500, 35.960223 ] } }
{"year": "AD534",  "type": "Feature", "tippecanoe": { "layer": "2AFCAC8B86681583916237075", "minzoom": 2, "maxzoom": 8 }, "properties": { "halo": 0.8, "title": "贝敦文化", "fontsize": 12, "tyid": "304002", "oid": "103:1576575169301", "color": "#262626" }, "geometry": { "type": "Point", "coordinates": [ -90.703125, 34.379713 ] } }
{"year": "AD534",  "type": "Feature", "tippecanoe": { "layer": "2AFCAC8B86681583916237075", "minzoom": 2, "maxzoom": 8 }, "properties": { "halo": 0.8, "title": "华斯塔克文明", "fontsize": 12, "tyid": "304002", "oid": "103:1576575168977", "color": "#262626" }, "geometry": { "type": "Point", "coordinates": [ -98.613281, 22.105999 ] } }
{"year": "AD534",  "type": "Feature", "tippecanoe": { "layer": "2AFCAC8B86681583916237075", "minzoom": 2, "maxzoom": 8 }, "properties": { "halo": 0.8, "title": "奇蒂玛察人", "fontsize": 12, "tyid": "304001", "oid": "103:1576575168975", "color": "#262626" }, "geometry": { "type": "Point", "coordinates": [ -91.582031, 30.448674 ] } }
{"year": "AD534",  "type": "Feature", "tippecanoe": { "layer": "2AFCAC8B86681583916237075", "minzoom": 2, "maxzoom": 8 }, "properties": { "halo": 0.8, "title": "萨波特克文明", "fontsize": 12, "tyid": "304002", "oid": "103:1576575169359", "color": "#262626" }, "geometry": { "type": "Point", "coordinates": [ -96.064453, 16.888660 ] } }
{"year": "AD534",  "type": "Feature", "tippecanoe": { "layer": "2AFCAC8B86681583916237075", "minzoom": 2, "maxzoom": 8 }, "properties": { "halo": 0.8, "title": "贝奥图克人", "fontsize": 12, "tyid": "304001", "oid": "103:1576575168920", "color": "#262626" }, "geometry": { "type": "Point", "coordinates": [ -56.074219, 48.748945 ] } }
{"year": "AD534",  "type": "Feature", "tippecanoe": { "layer": "2AFCAC8B86681583916237075", "minzoom": 2, "maxzoom": 8 }, "properties": { "halo": 0.8, "title": "米勒文化", "fontsize": 12, "tyid": "304002", "oid": "103:1576575169019", "color": "#262626" }, "geometry": { "type": "Point", "coordinates": [ -87.802734, 34.379713 ] } }
{"year": "AD534",  "type": "Feature", "tippecanoe": { "layer": "2AFCAC8B86681583916237075", "minzoom": 2, "maxzoom": 8 }, "properties": { "halo": 0.8, "title": "特洛伊维尔文化", "fontsize": 12, "tyid": "304002", "oid": "103:1576575169007", "color": "#262626" }, "geometry": { "type": "Point", "coordinates": [ -89.912109, 32.101190 ] } }
{"year": "AD534",  "type": "Feature", "tippecanoe": { "layer": "2AFCAC8B86681583916237075", "minzoom": 2, "maxzoom": 8 }, "properties": { "halo": 0.8, "title": "斯威夫特溪文化", "fontsize": 12, "tyid": "304002", "oid": "103:1576575169367", "color": "#262626" }, "geometry": { "type": "Point", "coordinates": [ -84.814453, 32.175612 ] } }
{"year": "AD534",  "type": "Feature", "tippecanoe": { "layer": "2AFCAC8B86681583916237075", "minzoom": 2, "maxzoom": 8 }, "properties": { "halo": 0.8, "title": "丹河文化", "fontsize": 12, "tyid": "304002", "oid": "103:1576575169112", "color": "#262626" }, "geometry": { "type": "Point", "coordinates": [ -81.914062, 37.509726 ] } }
{"year": "AD534",  "type": "Feature", "tippecanoe": { "layer": "2AFCAC8B86681583916237075", "minzoom": 2, "maxzoom": 8 }, "properties": { "halo": 0.8, "title": "德普特福德文化", "fontsize": 12, "tyid": "304002", "oid": "103:1576575169142", "color": "#262626" }, "geometry": { "type": "Point", "coordinates": [ -79.628906, 33.431441 ] } }
{"year": "AD534",  "type": "Feature", "tippecanoe": { "layer": "2AFCAC8B86681583916237075", "minzoom": 2, "maxzoom": 8 }, "properties": { "halo": 0.8, "title": "圣罗莎-斯威夫特溪文化", "fontsize": 12, "tyid": "304002", "oid": "103:1576575169015", "color": "#262626" }, "geometry": { "type": "Point", "coordinates": [ -86.748047, 30.977609 ] } }
{"year": "AD534",  "type": "Feature", "tippecanoe": { "layer": "2AFCAC8B86681583916237075", "minzoom": 2, "maxzoom": 8 }, "properties": { "halo": 0.8, "title": "维登岛文化", "fontsize": 12, "tyid": "304002", "oid": "103:1576575169028", "color": "#262626" }, "geometry": { "type": "Point", "coordinates": [ -84.902344, 30.524413 ] } }
{"year": "AD534",  "type": "Feature", "tippecanoe": { "layer": "2AFCAC8B86681583916237075", "minzoom": 2, "maxzoom": 8 }, "properties": { "halo": 0.8, "title": "泰诺人", "fontsize": 12, "tyid": "304001", "oid": "103:1576575168921", "color": "#262626" }, "geometry": { "type": "Point", "coordinates": [ -79.628906, 22.105999 ] } }
{"year": "AD534",  "type": "Feature", "tippecanoe": { "layer": "2AFCAC8B86681583916237075", "minzoom": 2, "maxzoom": 8 }, "properties": { "halo": 0.8, "title": "佩奇人", "fontsize": 12, "tyid": "304001", "oid": "103:1576575169324", "color": "#262626" }, "geometry": { "type": "Point", "coordinates": [ -84.814453, 15.368950 ] } }
{"year": "AD534",  "type": "Feature", "tippecanoe": { "layer": "2AFCAC8B86681583916237075", "minzoom": 2, "maxzoom": 8 }, "properties": { "halo": 0.8, "title": "兹努文化", "fontsize": 12, "tyid": "304002", "oid": "103:1576575169327", "color": "#262626" }, "geometry": { "type": "Point", "coordinates": [ -75.585938, 8.581021 ] } }
{"year": "AD534",  "type": "Feature", "tippecanoe": { "layer": "2AFCAC8B86681583916237075", "minzoom": 2, "maxzoom": 8 }, "properties": { "halo": 0.8, "title": "埃雷拉时期", "fontsize": 12, "tyid": "304002", "oid": "103:1576575168931", "color": "#262626" }, "geometry": { "type": "Point", "coordinates": [ -73.037109, 5.965754 ] } }
{"year": "AD534",  "type": "Feature", "tippecanoe": { "layer": "2AFCAC8B86681583916237075", "minzoom": 2, "maxzoom": 8 }, "properties": { "halo": 0.8, "title": "伊奈里人", "fontsize": 12, "tyid": "304001", "oid": "103:1576575169017", "color": "#262626" }, "geometry": { "type": "Point", "coordinates": [ -61.787109, 8.754795 ] } }
{"year": "AD534",  "type": "Feature", "tippecanoe": { "layer": "2AFCAC8B86681583916237075", "minzoom": 2, "maxzoom": 8 }, "properties": { "halo": 0.8, "title": "达尔里阿达王国", "fontsize": 12, "tyid": "304000", "oid": "103:1576575169046", "color": "#202020" }, "geometry": { "type": "Point", "coordinates": [ -5.009766, 56.072035 ] } }
{"year": "AD534",  "type": "Feature", "tippecanoe": { "layer": "2AFCAC8B86681583916237075", "minzoom": 2, "maxzoom": 8 }, "properties": { "halo": 0.8, "title": "皮克特诸王国", "fontsize": 12, "tyid": "304000", "oid": "103:1576575169059", "color": "#202020" }, "geometry": { "type": "Point", "coordinates": [ -3.691406, 57.040730 ] } }
{"year": "AD534",  "type": "Feature", "tippecanoe": { "layer": "2AFCAC8B86681583916237075", "minzoom": 2, "maxzoom": 8 }, "properties": { "halo": 0.8, "title": "康诺特诸王国", "fontsize": 12, "tyid": "304000", "oid": "103:1576575169311", "color": "#202020" }, "geometry": { "type": "Point", "coordinates": [ -8.876953, 53.800651 ] } }
{"year": "AD534",  "type": "Feature", "tippecanoe": { "layer": "2AFCAC8B86681583916237075", "minzoom": 2, "maxzoom": 8 }, "properties": { "halo": 0.8, "title": "盖尔人", "fontsize": 12, "tyid": "304001", "oid": "103:1576575169116", "color": "#262626" }, "geometry": { "type": "Point", "coordinates": [ -6.943359, 53.173119 ] } }
{"year": "AD534",  "type": "Feature", "tippecanoe": { "layer": "2AFCAC8B86681583916237075", "minzoom": 2, "maxzoom": 8 }, "properties": { "halo": 0.8, "title": "明斯特王国", "fontsize": 12, "tyid": "304000", "oid": "103:1576575169307", "color": "#202020" }, "geometry": { "type": "Point", "coordinates": [ -8.701172, 52.375599 ] } }
{"year": "AD534",  "type": "Feature", "tippecanoe": { "layer": "2AFCAC8B86681583916237075", "minzoom": 2, "maxzoom": 8 }, "properties": { "halo": 0.8, "title": "凯尔特布立吞人", "fontsize": 12, "tyid": "304001", "oid": "103:1576575169450", "color": "#262626" }, "geometry": { "type": "Point", "coordinates": [ -2.548828, 53.120405 ] } }
{"year": "AD534",  "type": "Feature", "tippecanoe": { "layer": "2AFCAC8B86681583916237075", "minzoom": 2, "maxzoom": 8 }, "properties": { "halo": 0.8, "title": "盎格鲁-撒克逊人", "fontsize": 12, "tyid": "304001", "oid": "103:1576575169002", "color": "#262626" }, "geometry": { "type": "Point", "coordinates": [ -0.263672, 51.399206 ] } }
{"year": "AD534",  "type": "Feature", "tippecanoe": { "layer": "2AFCAC8B86681583916237075", "minzoom": 2, "maxzoom": 8 }, "properties": { "halo": 0.8, "title": "苏维汇王国", "fontsize": 12, "tyid": "304000", "oid": "103:1576575169166", "color": "#202020" }, "geometry": { "type": "Point", "coordinates": [ -7.646484, 41.640078 ] } }
{"year": "AD534",  "type": "Feature", "tippecanoe": { "layer": "2AFCAC8B86681583916237075", "minzoom": 2, "maxzoom": 8 }, "properties": { "halo": 0.8, "title": "毛里人", "fontsize": 12, "tyid": "304002", "oid": "103:1576575169290", "color": "#262626" }, "geometry": { "type": "Point", "coordinates": [ -3.603516, 34.307144 ] } }
{"year": "AD534",  "type": "Feature", "tippecanoe": { "layer": "2AFCAC8B86681583916237075", "minzoom": 2, "maxzoom": 8 }, "properties": { "halo": 0.8, "title": "杰内-杰诺文化三期", "fontsize": 12, "tyid": "304002", "oid": "103:1576575169150", "color": "#262626" }, "geometry": { "type": "Point", "coordinates": [ -3.955078, 14.093957 ] } }
{"year": "AD534",  "type": "Feature", "tippecanoe": { "layer": "2AFCAC8B86681583916237075", "minzoom": 2, "maxzoom": 8 }, "properties": { "halo": 0.8, "title": "米拉格罗-克韦多文化", "fontsize": 12, "tyid": "304002", "oid": "103:1576575169144", "color": "#262626" }, "geometry": { "type": "Point", "coordinates": [ -79.980469, -1.669686 ] } }
{"year": "AD534",  "type": "Feature", "tippecanoe": { "layer": "2AFCAC8B86681583916237075", "minzoom": 2, "maxzoom": 8 }, "properties": { "halo": 0.8, "title": "基图文化", "fontsize": 12, "tyid": "304002", "oid": "103:1576575169175", "color": "#262626" }, "geometry": { "type": "Point", "coordinates": [ -78.222656, -0.966751 ] } }
{"year": "AD534",  "type": "Feature", "tippecanoe": { "layer": "2AFCAC8B86681583916237075", "minzoom": 2, "maxzoom": 8 }, "properties": { "halo": 0.8, "title": "楚真文化", "fontsize": 12, "tyid": "304002", "oid": "103:1576575169159", "color": "#262626" }, "geometry": { "type": "Point", "coordinates": [ -70.576172, -16.299051 ] } }
{"year": "AD534",  "type": "Feature", "tippecanoe": { "layer": "2AFCAC8B86681583916237075", "minzoom": 2, "maxzoom": 8 }, "properties": { "halo": 0.8, "title": "艾马拉人", "fontsize": 12, "tyid": "304001", "oid": "103:1576575168947", "color": "#262626" }, "geometry": { "type": "Point", "coordinates": [ -68.291016, -17.224758 ] } }
{"year": "AD534",  "type": "Feature", "tippecanoe": { "layer": "2AFCAC8B86681583916237075", "minzoom": 2, "maxzoom": 8 }, "properties": { "halo": 0.8, "title": "昌戈人", "fontsize": 12, "tyid": "304001", "oid": "103:1576575169188", "color": "#262626" }, "geometry": { "type": "Point", "coordinates": [ -69.873047, -23.563987 ] } }
{"year": "AD534",  "type": "Feature", "tippecanoe": { "layer": "2AFCAC8B86681583916237075", "minzoom": 2, "maxzoom": 8 }, "properties": { "halo": 0.8, "title": "阿塔卡马人", "fontsize": 12, "tyid": "304001", "oid": "103:1576575169179", "color": "#262626" }, "geometry": { "type": "Point", "coordinates": [ -69.082031, -24.846565 ] } }
{"year": "AD534",  "type": "Feature", "tippecanoe": { "layer": "2AFCAC8B86681583916237075", "minzoom": 2, "maxzoom": 8 }, "properties": { "halo": 0.8, "title": "阿拉米托文化", "fontsize": 12, "tyid": "304002", "oid": "103:1576575169369", "color": "#262626" }, "geometry": { "type": "Point", "coordinates": [ -67.851562, -26.588527 ] } }
{"year": "AD534",  "type": "Feature", "tippecanoe": { "layer": "2AFCAC8B86681583916237075", "minzoom": 2, "maxzoom": 8 }, "properties": { "halo": 0.8, "title": "埃尔莫尔文化", "fontsize": 12, "tyid": "304002", "oid": "103:1576575169148", "color": "#262626" }, "geometry": { "type": "Point", "coordinates": [ -70.927734, -30.675715 ] } }
{"year": "AD534",  "type": "Feature", "tippecanoe": { "layer": "2AFCAC8B86681583916237075", "minzoom": 2, "maxzoom": 8 }, "properties": { "halo": 0.8, "title": "洛勒洛文化", "fontsize": 12, "tyid": "304002", "oid": "103:1576575169325", "color": "#262626" }, "geometry": { "type": "Point", "coordinates": [ -70.664062, -33.724340 ] } }
{"year": "AD534",  "type": "Feature", "tippecanoe": { "layer": "2AFCAC8B86681583916237075", "minzoom": 2, "maxzoom": 8 }, "properties": { "halo": 0.8, "title": "马普切人", "fontsize": 12, "tyid": "304001", "oid": "103:1576575169127", "color": "#262626" }, "geometry": { "type": "Point", "coordinates": [ -71.455078, -38.959409 ] } }
{"year": "AD534",  "type": "Feature", "tippecanoe": { "layer": "2AFCAC8B86681583916237075", "minzoom": 2, "maxzoom": 8 }, "properties": { "halo": 0.8, "title": "希德拉里卡文化", "fontsize": 12, "tyid": "304002", "oid": "103:1576575169377", "color": "#262626" }, "geometry": { "type": "Point", "coordinates": [ -66.005859, -12.297068 ] } }
{"year": "AD534",  "type": "Feature", "tippecanoe": { "layer": "2AFCAC8B86681583916237075", "minzoom": 2, "maxzoom": 8 }, "properties": { "halo": 0.8, "title": "摩克索人", "fontsize": 12, "tyid": "304001", "oid": "103:1576575169282", "color": "#262626" }, "geometry": { "type": "Point", "coordinates": [ -65.830078, -13.923404 ] } }
{"year": "AD534",  "type": "Feature", "tippecanoe": { "layer": "2AFCAC8B86681583916237075", "minzoom": 2, "maxzoom": 8 }, "properties": { "halo": 0.8, "title": "马拉约文化", "fontsize": 12, "tyid": "304002", "oid": "103:1576575169035", "color": "#262626" }, "geometry": { "type": "Point", "coordinates": [ -50.712891, -2.723583 ] } }
{"year": "AD534",  "type": "Feature", "tippecanoe": { "layer": "2AFCAC8B86681583916237075", "minzoom": 2, "maxzoom": 8 }, "properties": { "halo": 0.8, "title": "拉坎德拉里亚文化", "fontsize": 12, "tyid": "304002", "oid": "103:1576575169343", "color": "#262626" }, "geometry": { "type": "Point", "coordinates": [ -65.390625, -25.720735 ] } }
{"year": "AD534",  "type": "Feature", "tippecanoe": { "layer": "2AFCAC8B86681583916237075", "minzoom": 2, "maxzoom": 8 }, "properties": { "halo": 0.8, "title": "康多拉瓦西文化", "fontsize": 12, "tyid": "304002", "oid": "103:1576575169270", "color": "#262626" }, "geometry": { "type": "Point", "coordinates": [ -66.708984, -27.293689 ] } }
{"year": "AD534",  "type": "Feature", "tippecanoe": { "layer": "2AFCAC8B86681583916237075", "minzoom": 2, "maxzoom": 8 }, "properties": { "halo": 0.8, "title": "拉斯梅塞德斯文化", "fontsize": 12, "tyid": "304002", "oid": "103:1576575169160", "color": "#262626" }, "geometry": { "type": "Point", "coordinates": [ -63.808594, -27.605671 ] } }
{"year": "AD534",  "type": "Feature", "tippecanoe": { "layer": "2AFCAC8B86681583916237075", "minzoom": 2, "maxzoom": 8 }, "properties": { "halo": 0.8, "title": "特胡尔切人", "fontsize": 12, "tyid": "304001", "oid": "103:1576575168938", "color": "#262626" }, "geometry": { "type": "Point", "coordinates": [ -70.751953, -50.176898 ] } }
{"year": "AD534",  "type": "Feature", "tippecanoe": { "layer": "2AFCAC8B86681583916237075", "minzoom": 2, "maxzoom": 8 }, "properties": { "halo": 0.8, "title": "塞尔克南人", "fontsize": 12, "tyid": "304001", "oid": "103:1576575168928", "color": "#262626" }, "geometry": { "type": "Point", "coordinates": [ -68.378906, -53.696706 ] } }
{"year": "AD534",  "type": "Feature", "tippecanoe": { "layer": "2AFCAC8B86681583916237075", "minzoom": 2, "maxzoom": 8 }, "properties": { "halo": 0.8, "title": "雅干人", "fontsize": 12, "tyid": "304001", "oid": "103:1576575168927", "color": "#262626" }, "geometry": { "type": "Point", "coordinates": [ -68.554688, -54.521081 ] } }
{"year": "AD534",  "type": "Feature", "tippecanoe": { "layer": "2AFCAC8B86681583916237075", "minzoom": 2, "maxzoom": 8 }, "properties": { "halo": 0.8, "title": "朱特人", "fontsize": 12, "tyid": "304001", "oid": "103:1576575169287", "color": "#262626" }, "geometry": { "type": "Point", "coordinates": [ 9.316406, 56.267761 ] } }
{"year": "AD534",  "type": "Feature", "tippecanoe": { "layer": "2AFCAC8B86681583916237075", "minzoom": 2, "maxzoom": 8 }, "properties": { "halo": 0.8, "title": "耶阿特人", "fontsize": 12, "tyid": "304001", "oid": "103:1576575169043", "color": "#262626" }, "geometry": { "type": "Point", "coordinates": [ 13.710938, 57.657158 ] } }
{"year": "AD534",  "type": "Feature", "tippecanoe": { "layer": "2AFCAC8B86681583916237075", "minzoom": 2, "maxzoom": 8 }, "properties": { "halo": 0.8, "title": "赫鲁利人", "fontsize": 12, "tyid": "304001", "oid": "103:1576575168930", "color": "#262626" }, "geometry": { "type": "Point", "coordinates": [ 13.447266, 55.875311 ] } }
{"year": "AD534",  "type": "Feature", "tippecanoe": { "layer": "2AFCAC8B86681583916237075", "minzoom": 2, "maxzoom": 8 }, "properties": { "halo": 0.8, "title": "库洛尼亚人", "fontsize": 12, "tyid": "304001", "oid": "103:1576575169372", "color": "#262626" }, "geometry": { "type": "Point", "coordinates": [ 21.972656, 56.607885 ] } }
{"year": "AD534",  "type": "Feature", "tippecanoe": { "layer": "2AFCAC8B86681583916237075", "minzoom": 2, "maxzoom": 8 }, "properties": { "halo": 0.8, "title": "巴黎王国", "fontsize": 12, "tyid": "304000", "oid": "103:1576575169078", "color": "#202020" }, "geometry": { "type": "Point", "coordinates": [ 0.439453, 48.980217 ] } }
{"year": "AD534",  "type": "Feature", "tippecanoe": { "layer": "2AFCAC8B86681583916237075", "minzoom": 2, "maxzoom": 8 }, "properties": { "halo": 0.8, "title": "苏瓦松王国[克洛泰尔一世]", "fontsize": 12, "tyid": "304000", "oid": "103:1576575169071", "color": "#202020" }, "geometry": { "type": "Point", "coordinates": [ 5.185547, 50.736455 ] } }
{"year": "AD534",  "type": "Feature", "tippecanoe": { "layer": "2AFCAC8B86681583916237075", "minzoom": 2, "maxzoom": 8 }, "properties": { "halo": 0.8, "title": "弗里西人", "fontsize": 12, "tyid": "304001", "oid": "103:1576575169341", "color": "#262626" }, "geometry": { "type": "Point", "coordinates": [ 6.416016, 53.014783 ] } }
{"year": "AD534",  "type": "Feature", "tippecanoe": { "layer": "2AFCAC8B86681583916237075", "minzoom": 2, "maxzoom": 8 }, "properties": { "halo": 0.8, "title": "盎格鲁人", "fontsize": 12, "tyid": "304001", "oid": "103:1576575169298", "color": "#262626" }, "geometry": { "type": "Point", "coordinates": [ 9.755859, 54.162434 ] } }
{"year": "AD534",  "type": "Feature", "tippecanoe": { "layer": "2AFCAC8B86681583916237075", "minzoom": 2, "maxzoom": 8 }, "properties": { "halo": 0.8, "title": "萨克森人", "fontsize": 12, "tyid": "304001", "oid": "103:1576575169350", "color": "#262626" }, "geometry": { "type": "Point", "coordinates": [ 8.613281, 52.589701 ] } }
{"year": "AD534",  "type": "Feature", "tippecanoe": { "layer": "2AFCAC8B86681583916237075", "minzoom": 2, "maxzoom": 8 }, "properties": { "halo": 0.8, "title": "图林根人", "fontsize": 12, "tyid": "304001", "oid": "103:1576575169339", "color": "#262626" }, "geometry": { "type": "Point", "coordinates": [ 10.546875, 52.106505 ] } }
{"year": "AD534",  "type": "Feature", "tippecanoe": { "layer": "2AFCAC8B86681583916237075", "minzoom": 2, "maxzoom": 8 }, "properties": { "halo": 0.8, "title": "奥尔良王国", "fontsize": 12, "tyid": "304000", "oid": "103:1576575169066", "color": "#202020" }, "geometry": { "type": "Point", "coordinates": [ 0.615234, 46.980252 ] } }
{"year": "AD534",  "type": "Feature", "tippecanoe": { "layer": "2AFCAC8B86681583916237075", "minzoom": 2, "maxzoom": 8 }, "properties": { "halo": 0.8, "title": "东哥特王国", "fontsize": 12, "tyid": "304000", "oid": "103:1576575169351", "color": "#202020" }, "geometry": { "type": "Point", "coordinates": [ 9.404297, 45.583290 ] } }
{"year": "AD534",  "type": "Feature", "tippecanoe": { "layer": "2AFCAC8B86681583916237075", "minzoom": 2, "maxzoom": 8 }, "properties": { "halo": 0.8, "title": "白塞尔维亚人", "fontsize": 12, "tyid": "304001", "oid": "103:1576575169057", "color": "#262626" }, "geometry": { "type": "Point", "coordinates": [ 14.677734, 51.454007 ] } }
{"year": "AD534",  "type": "Feature", "tippecanoe": { "layer": "2AFCAC8B86681583916237075", "minzoom": 2, "maxzoom": 8 }, "properties": { "halo": 0.8, "title": "波西米亚人", "fontsize": 12, "tyid": "304001", "oid": "103:1576575168992", "color": "#262626" }, "geometry": { "type": "Point", "coordinates": [ 15.205078, 49.724479 ] } }
{"year": "AD534",  "type": "Feature", "tippecanoe": { "layer": "2AFCAC8B86681583916237075", "minzoom": 2, "maxzoom": 8 }, "properties": { "halo": 0.8, "title": "古普鲁士人", "fontsize": 12, "tyid": "304001", "oid": "103:1576575169070", "color": "#262626" }, "geometry": { "type": "Point", "coordinates": [ 20.390625, 54.110943 ] } }
{"year": "AD534",  "type": "Feature", "tippecanoe": { "layer": "2AFCAC8B86681583916237075", "minzoom": 2, "maxzoom": 8 }, "properties": { "halo": 0.8, "title": "阿勒曼尼人", "fontsize": 12, "tyid": "304001", "oid": "103:1576575169346", "color": "#262626" }, "geometry": { "type": "Point", "coordinates": [ 15.029297, 47.872144 ] } }
{"year": "AD534",  "type": "Feature", "tippecanoe": { "layer": "2AFCAC8B86681583916237075", "minzoom": 2, "maxzoom": 8 }, "properties": { "halo": 0.8, "title": "伦巴第人", "fontsize": 12, "tyid": "304001", "oid": "103:1576575169024", "color": "#262626" }, "geometry": { "type": "Point", "coordinates": [ 16.083984, 47.219568 ] } }
{"year": "AD534",  "type": "Feature", "tippecanoe": { "layer": "2AFCAC8B86681583916237075", "minzoom": 2, "maxzoom": 8 }, "properties": { "halo": 0.8, "title": "斯洛伐克人", "fontsize": 12, "tyid": "304001", "oid": "103:1576575169138", "color": "#262626" }, "geometry": { "type": "Point", "coordinates": [ 19.248047, 48.806863 ] } }
{"year": "AD534",  "type": "Feature", "tippecanoe": { "layer": "2AFCAC8B86681583916237075", "minzoom": 2, "maxzoom": 8 }, "properties": { "halo": 0.8, "title": "古爱沙尼亚人", "fontsize": 12, "tyid": "304001", "oid": "103:1576575169380", "color": "#262626" }, "geometry": { "type": "Point", "coordinates": [ 25.576172, 58.995311 ] } }
{"year": "AD534",  "type": "Feature", "tippecanoe": { "layer": "2AFCAC8B86681583916237075", "minzoom": 2, "maxzoom": 8 }, "properties": { "halo": 0.8, "title": "利沃尼亚人", "fontsize": 12, "tyid": "304001", "oid": "103:1576575169064", "color": "#262626" }, "geometry": { "type": "Point", "coordinates": [ 26.191406, 58.077876 ] } }
{"year": "AD534",  "type": "Feature", "tippecanoe": { "layer": "2AFCAC8B86681583916237075", "minzoom": 2, "maxzoom": 8 }, "properties": { "halo": 0.8, "title": "拉特加莱人", "fontsize": 12, "tyid": "304001", "oid": "103:1576575169042", "color": "#262626" }, "geometry": { "type": "Point", "coordinates": [ 26.542969, 56.944974 ] } }
{"year": "AD534",  "type": "Feature", "tippecanoe": { "layer": "2AFCAC8B86681583916237075", "minzoom": 2, "maxzoom": 8 }, "properties": { "halo": 0.8, "title": "沃茨人", "fontsize": 12, "tyid": "304001", "oid": "103:1576575168960", "color": "#262626" }, "geometry": { "type": "Point", "coordinates": [ 29.794922, 59.040555 ] } }
{"year": "AD534",  "type": "Feature", "tippecanoe": { "layer": "2AFCAC8B86681583916237075", "minzoom": 2, "maxzoom": 8 }, "properties": { "halo": 0.8, "title": "萨莫吉希亚人", "fontsize": 12, "tyid": "304001", "oid": "103:1576575169134", "color": "#262626" }, "geometry": { "type": "Point", "coordinates": [ 23.203125, 55.578345 ] } }
{"year": "AD534",  "type": "Feature", "tippecanoe": { "layer": "2AFCAC8B86681583916237075", "minzoom": 2, "maxzoom": 8 }, "properties": { "halo": 0.8, "title": "古立陶宛人", "fontsize": 12, "tyid": "304001", "oid": "103:1576575169044", "color": "#262626" }, "geometry": { "type": "Point", "coordinates": [ 25.224609, 54.265224 ] } }
{"year": "AD534",  "type": "Feature", "tippecanoe": { "layer": "2AFCAC8B86681583916237075", "minzoom": 2, "maxzoom": 8 }, "properties": { "halo": 0.8, "title": "约特文基人", "fontsize": 12, "tyid": "304001", "oid": "103:1576575169300", "color": "#262626" }, "geometry": { "type": "Point", "coordinates": [ 23.027344, 53.956086 ] } }
{"year": "AD534",  "type": "Feature", "tippecanoe": { "layer": "2AFCAC8B86681583916237075", "minzoom": 2, "maxzoom": 8 }, "properties": { "halo": 0.8, "title": "奥克施泰提亚人", "fontsize": 12, "tyid": "304001", "oid": "103:1576575169062", "color": "#262626" }, "geometry": { "type": "Point", "coordinates": [ 27.070312, 55.078367 ] } }
{"year": "AD534",  "type": "Feature", "tippecanoe": { "layer": "2AFCAC8B86681583916237075", "minzoom": 2, "maxzoom": 8 }, "properties": { "halo": 0.8, "title": "斯科拉维尼人", "fontsize": 12, "tyid": "304001", "oid": "103:1576575169115", "color": "#262626" }, "geometry": { "type": "Point", "coordinates": [ 27.333984, 46.437857 ] } }
{"year": "AD534",  "type": "Feature", "tippecanoe": { "layer": "2AFCAC8B86681583916237075", "minzoom": 2, "maxzoom": 8 }, "properties": { "halo": 0.8, "title": "东加林迪亚人", "fontsize": 12, "tyid": "304001", "oid": "103:1576575169105", "color": "#262626" }, "geometry": { "type": "Point", "coordinates": [ 34.980469, 55.329144 ] } }
{"year": "AD534",  "type": "Feature", "tippecanoe": { "layer": "2AFCAC8B86681583916237075", "minzoom": 2, "maxzoom": 8 }, "properties": { "halo": 0.8, "title": "保加尔人", "fontsize": 12, "tyid": "304001", "oid": "103:1576575169061", "color": "#262626" }, "geometry": { "type": "Point", "coordinates": [ 42.978516, 51.124213 ] } }
{"year": "AD534",  "type": "Feature", "tippecanoe": { "layer": "2AFCAC8B86681583916237075", "minzoom": 2, "maxzoom": 8 }, "properties": { "halo": 0.8, "title": "克里米亚哥特人", "fontsize": 12, "tyid": "304001", "oid": "103:1576575169323", "color": "#262626" }, "geometry": { "type": "Point", "coordinates": [ 34.189453, 46.073231 ] } }
{"year": "AD534",  "type": "Feature", "tippecanoe": { "layer": "2AFCAC8B86681583916237075", "minzoom": 2, "maxzoom": 8 }, "properties": { "halo": 0.8, "title": "库特里格斯人", "fontsize": 12, "tyid": "304001", "oid": "103:1576575169319", "color": "#262626" }, "geometry": { "type": "Point", "coordinates": [ 39.111328, 48.341646 ] } }
{"year": "AD534",  "type": "Feature", "tippecanoe": { "layer": "2AFCAC8B86681583916237075", "minzoom": 2, "maxzoom": 8 }, "properties": { "halo": 0.8, "title": "乌提格尔人", "fontsize": 12, "tyid": "304001", "oid": "103:1576575169185", "color": "#262626" }, "geometry": { "type": "Point", "coordinates": [ 41.572266, 46.619261 ] } }
{"year": "AD534",  "type": "Feature", "tippecanoe": { "layer": "2AFCAC8B86681583916237075", "minzoom": 2, "maxzoom": 8 }, "properties": { "halo": 0.8, "title": "切尔克斯人", "fontsize": 12, "tyid": "304001", "oid": "103:1576575169085", "color": "#262626" }, "geometry": { "type": "Point", "coordinates": [ 40.781250, 44.276671 ] } }
{"year": "AD534",  "type": "Feature", "tippecanoe": { "layer": "2AFCAC8B86681583916237075", "minzoom": 2, "maxzoom": 8 }, "properties": { "halo": 0.8, "title": "萨拉格尔人", "fontsize": 12, "tyid": "304001", "oid": "103:1576575169182", "color": "#262626" }, "geometry": { "type": "Point", "coordinates": [ 44.912109, 44.590467 ] } }
{"year": "AD534",  "type": "Feature", "tippecanoe": { "layer": "2AFCAC8B86681583916237075", "minzoom": 2, "maxzoom": 8 }, "properties": { "halo": 0.8, "title": "阿兰人", "fontsize": 12, "tyid": "304001", "oid": "103:1576575169089", "color": "#262626" }, "geometry": { "type": "Point", "coordinates": [ 44.824219, 43.133061 ] } }
{"year": "AD534",  "type": "Feature", "tippecanoe": { "layer": "2AFCAC8B86681583916237075", "minzoom": 2, "maxzoom": 8 }, "properties": { "halo": 0.8, "title": "拉基卡王国", "fontsize": 12, "tyid": "304000", "oid": "103:1576575169170", "color": "#202020" }, "geometry": { "type": "Point", "coordinates": [ 42.275391, 42.553080 ] } }
{"year": "AD534",  "type": "Feature", "tippecanoe": { "layer": "2AFCAC8B86681583916237075", "minzoom": 2, "maxzoom": 8 }, "properties": { "halo": 0.8, "title": "萨珊伊比利亚", "fontsize": 12, "tyid": "304000", "oid": "103:1576575169075", "color": "#202020" }, "geometry": { "type": "Point", "coordinates": [ 44.121094, 41.771312 ] } }
{"year": "AD534",  "type": "Feature", "tippecanoe": { "layer": "2AFCAC8B86681583916237075", "minzoom": 2, "maxzoom": 8 }, "properties": { "halo": 0.8, "title": "马乌鲁-罗马王国", "fontsize": 12, "tyid": "304000", "oid": "103:1576575169278", "color": "#202020" }, "geometry": { "type": "Point", "coordinates": [ 1.318359, 35.317366 ] } }
{"year": "AD534",  "type": "Feature", "tippecanoe": { "layer": "2AFCAC8B86681583916237075", "minzoom": 2, "maxzoom": 8 }, "properties": { "halo": 0.8, "title": "盖图里人", "fontsize": 12, "tyid": "304001", "oid": "103:1576575169388", "color": "#262626" }, "geometry": { "type": "Point", "coordinates": [ 3.251953, 33.870416 ] } }
{"year": "AD534",  "type": "Feature", "tippecanoe": { "layer": "2AFCAC8B86681583916237075", "minzoom": 2, "maxzoom": 8 }, "properties": { "halo": 0.8, "title": "奥拉王国", "fontsize": 12, "tyid": "304000", "oid": "103:1576575169293", "color": "#202020" }, "geometry": { "type": "Point", "coordinates": [ 6.328125, 34.957995 ] } }
{"year": "AD534",  "type": "Feature", "tippecanoe": { "layer": "2AFCAC8B86681583916237075", "minzoom": 2, "maxzoom": 8 }, "properties": { "halo": 0.8, "title": "拉古阿坦部落联盟", "fontsize": 12, "tyid": "304001", "oid": "103:1576575169291", "color": "#262626" }, "geometry": { "type": "Point", "coordinates": [ 21.357422, 32.026706 ] } }
{"year": "AD534",  "type": "Feature", "tippecanoe": { "layer": "2AFCAC8B86681583916237075", "minzoom": 2, "maxzoom": 8 }, "properties": { "halo": 0.8, "title": "加拉曼特王国", "fontsize": 12, "tyid": "304000", "oid": "103:1576575169375", "color": "#202020" }, "geometry": { "type": "Point", "coordinates": [ 13.886719, 26.902477 ] } }
{"year": "AD534",  "type": "Feature", "tippecanoe": { "layer": "2AFCAC8B86681583916237075", "minzoom": 2, "maxzoom": 8 }, "properties": { "halo": 0.8, "title": "布拉-阿辛达-西卡文化", "fontsize": 12, "tyid": "304002", "oid": "103:1576575168963", "color": "#262626" }, "geometry": { "type": "Point", "coordinates": [ 1.757812, 12.983148 ] } }
{"year": "AD534",  "type": "Feature", "tippecanoe": { "layer": "2AFCAC8B86681583916237075", "minzoom": 2, "maxzoom": 8 }, "properties": { "halo": 0.8, "title": "约鲁巴人", "fontsize": 12, "tyid": "304001", "oid": "103:1576575168973", "color": "#262626" }, "geometry": { "type": "Point", "coordinates": [ 3.779297, 7.885147 ] } }
{"year": "AD534",  "type": "Feature", "tippecanoe": { "layer": "2AFCAC8B86681583916237075", "minzoom": 2, "maxzoom": 8 }, "properties": { "halo": 0.8, "title": "伊博人", "fontsize": 12, "tyid": "304001", "oid": "103:1576575168951", "color": "#262626" }, "geometry": { "type": "Point", "coordinates": [ 9.492188, 5.878332 ] } }
{"year": "AD534",  "type": "Feature", "tippecanoe": { "layer": "2AFCAC8B86681583916237075", "minzoom": 2, "maxzoom": 8 }, "properties": { "halo": 0.8, "title": "奥邦奥孔伊塔王国", "fontsize": 12, "tyid": "304000", "oid": "103:1576575168965", "color": "#202020" }, "geometry": { "type": "Point", "coordinates": [ 7.558594, 5.441022 ] } }
{"year": "AD534",  "type": "Feature", "tippecanoe": { "layer": "2AFCAC8B86681583916237075", "minzoom": 2, "maxzoom": 8 }, "properties": { "halo": 0.8, "title": "萨珊亚美尼亚", "fontsize": 12, "tyid": "304000", "oid": "103:1576575169091", "color": "#202020" }, "geometry": { "type": "Point", "coordinates": [ 43.505859, 39.639538 ] } }
{"year": "AD534",  "type": "Feature", "tippecanoe": { "layer": "2AFCAC8B86681583916237075", "minzoom": 2, "maxzoom": 8 }, "properties": { "halo": 0.8, "title": "赫多凡部落", "fontsize": 12, "tyid": "304001", "oid": "103:1576575169023", "color": "#262626" }, "geometry": { "type": "Point", "coordinates": [ 41.396484, 26.509905 ] } }
{"year": "AD534",  "type": "Feature", "tippecanoe": { "layer": "2AFCAC8B86681583916237075", "minzoom": 2, "maxzoom": 8 }, "properties": { "halo": 0.8, "title": "富尔人", "fontsize": 12, "tyid": "304001", "oid": "103:1576575168954", "color": "#262626" }, "geometry": { "type": "Point", "coordinates": [ 26.015625, 14.519780 ] } }
{"year": "AD534",  "type": "Feature", "tippecanoe": { "layer": "2AFCAC8B86681583916237075", "minzoom": 2, "maxzoom": 8 }, "properties": { "halo": 0.8, "title": "努贝舍王国", "fontsize": 12, "tyid": "304000", "oid": "103:1576575168956", "color": "#202020" }, "geometry": { "type": "Point", "coordinates": [ 31.992188, 21.861499 ] } }
{"year": "AD534",  "type": "Feature", "tippecanoe": { "layer": "2AFCAC8B86681583916237075", "minzoom": 2, "maxzoom": 8 }, "properties": { "halo": 0.8, "title": "马库里亚王国", "fontsize": 12, "tyid": "304000", "oid": "103:1576575169081", "color": "#202020" }, "geometry": { "type": "Point", "coordinates": [ 32.167969, 19.145168 ] } }
{"year": "AD534",  "type": "Feature", "tippecanoe": { "layer": "2AFCAC8B86681583916237075", "minzoom": 2, "maxzoom": 8 }, "properties": { "halo": 0.8, "title": "努比亚人", "fontsize": 12, "tyid": "304001", "oid": "103:1576575168942", "color": "#262626" }, "geometry": { "type": "Point", "coordinates": [ 31.816406, 16.045813 ] } }
{"year": "AD534",  "type": "Feature", "tippecanoe": { "layer": "2AFCAC8B86681583916237075", "minzoom": 2, "maxzoom": 8 }, "properties": { "halo": 0.8, "title": "贝扎人", "fontsize": 12, "tyid": "304001", "oid": "103:1576575169157", "color": "#262626" }, "geometry": { "type": "Point", "coordinates": [ 35.419922, 21.371244 ] } }
{"year": "AD534",  "type": "Feature", "tippecanoe": { "layer": "2AFCAC8B86681583916237075", "minzoom": 2, "maxzoom": 8 }, "properties": { "halo": 0.8, "title": "伊曼科夫文化", "fontsize": 12, "tyid": "304002", "oid": "103:1576575169453", "color": "#262626" }, "geometry": { "type": "Point", "coordinates": [ 47.548828, 54.977614 ] } }
{"year": "AD534",  "type": "Feature", "tippecanoe": { "layer": "2AFCAC8B86681583916237075", "minzoom": 2, "maxzoom": 8 }, "properties": { "halo": 0.8, "title": "布尔塔斯人", "fontsize": 12, "tyid": "304001", "oid": "103:1576575169173", "color": "#262626" }, "geometry": { "type": "Point", "coordinates": [ 47.812500, 53.173119 ] } }
{"year": "AD534",  "type": "Feature", "tippecanoe": { "layer": "2AFCAC8B86681583916237075", "minzoom": 2, "maxzoom": 8 }, "properties": { "halo": 0.8, "title": "马扎尔人", "fontsize": 12, "tyid": "304001", "oid": "103:1576575169309", "color": "#262626" }, "geometry": { "type": "Point", "coordinates": [ 54.931641, 50.233152 ] } }
{"year": "AD534",  "type": "Feature", "tippecanoe": { "layer": "2AFCAC8B86681583916237075", "minzoom": 2, "maxzoom": 8 }, "properties": { "halo": 0.8, "title": "乌古尔人", "fontsize": 12, "tyid": "304001", "oid": "103:1576575169110", "color": "#262626" }, "geometry": { "type": "Point", "coordinates": [ 46.054688, 46.679594 ] } }
{"year": "AD534",  "type": "Feature", "tippecanoe": { "layer": "2AFCAC8B86681583916237075", "minzoom": 2, "maxzoom": 8 }, "properties": { "halo": 0.8, "title": "萨里尔王国", "fontsize": 12, "tyid": "304000", "oid": "103:1576575169083", "color": "#202020" }, "geometry": { "type": "Point", "coordinates": [ 47.109375, 42.228517 ] } }
{"year": "AD534",  "type": "Feature", "tippecanoe": { "layer": "2AFCAC8B86681583916237075", "minzoom": 2, "maxzoom": 8 }, "properties": { "halo": 0.8, "title": "塞迦人", "fontsize": 12, "tyid": "304001", "oid": "103:1576575169208", "color": "#262626" }, "geometry": { "type": "Point", "coordinates": [ 54.667969, 43.068888 ] } }
{"year": "AD534",  "type": "Feature", "tippecanoe": { "layer": "2AFCAC8B86681583916237075", "minzoom": 2, "maxzoom": 8 }, "properties": { "halo": 0.8, "title": "图巴斯利文化", "fontsize": 12, "tyid": "304001", "oid": "103:1576575169030", "color": "#262626" }, "geometry": { "type": "Point", "coordinates": [ 56.250000, 55.528631 ] } }
{"year": "AD534",  "type": "Feature", "tippecanoe": { "layer": "2AFCAC8B86681583916237075", "minzoom": 2, "maxzoom": 8 }, "properties": { "halo": 0.8, "title": "阿夫里格王朝", "fontsize": 12, "tyid": "304000", "oid": "103:1576575168988", "color": "#202020" }, "geometry": { "type": "Point", "coordinates": [ 60.029297, 42.617791 ] } }
{"year": "AD534",  "type": "Feature", "tippecanoe": { "layer": "2AFCAC8B86681583916237075", "minzoom": 2, "maxzoom": 8 }, "properties": { "halo": 0.8, "title": "焉耆国", "fontsize": 12, "tyid": "304000", "oid": "103:1576575169199", "color": "#202020" }, "geometry": { "type": "Point", "coordinates": [ 86.308594, 41.836828 ] } }
{"year": "AD534",  "type": "Feature", "tippecanoe": { "layer": "2AFCAC8B86681583916237075", "minzoom": 2, "maxzoom": 8 }, "properties": { "halo": 0.8, "title": "麴氏高昌国", "fontsize": 12, "tyid": "304000", "oid": "103:1576575169437", "color": "#202020" }, "geometry": { "type": "Point", "coordinates": [ 89.648438, 42.747012 ] } }
{"year": "AD534",  "type": "Feature", "tippecanoe": { "layer": "2AFCAC8B86681583916237075", "minzoom": 2, "maxzoom": 8 }, "properties": { "halo": 0.8, "title": "高加索阿尔巴尼亚王国", "fontsize": 12, "tyid": "304000", "oid": "103:1576575169092", "color": "#202020" }, "geometry": { "type": "Point", "coordinates": [ 46.845703, 40.647304 ] } }
{"year": "AD534",  "type": "Feature", "tippecanoe": { "layer": "2AFCAC8B86681583916237075", "minzoom": 2, "maxzoom": 8 }, "properties": { "halo": 0.8, "title": "阿兹达巴部落", "fontsize": 12, "tyid": "304001", "oid": "103:1576575168971", "color": "#262626" }, "geometry": { "type": "Point", "coordinates": [ 58.798828, 22.268764 ] } }
{"year": "AD534",  "type": "Feature", "tippecanoe": { "layer": "2AFCAC8B86681583916237075", "minzoom": 2, "maxzoom": 8 }, "properties": { "halo": 0.8, "title": "内扎克匈奴", "fontsize": 12, "tyid": "304000", "oid": "103:1576575169448", "color": "#202020" }, "geometry": { "type": "Point", "coordinates": [ 67.500000, 32.916485 ] } }
{"year": "AD534",  "type": "Feature", "tippecanoe": { "layer": "2AFCAC8B86681583916237075", "minzoom": 2, "maxzoom": 8 }, "properties": { "halo": 0.8, "title": "疏勒国", "fontsize": 12, "tyid": "304000", "oid": "103:1576575169198", "color": "#202020" }, "geometry": { "type": "Point", "coordinates": [ 75.410156, 39.368279 ] } }
{"year": "AD534",  "type": "Feature", "tippecanoe": { "layer": "2AFCAC8B86681583916237075", "minzoom": 2, "maxzoom": 8 }, "properties": { "halo": 0.8, "title": "勃律国", "fontsize": 12, "tyid": "304000", "oid": "103:1576575169260", "color": "#202020" }, "geometry": { "type": "Point", "coordinates": [ 74.794922, 35.603719 ] } }
{"year": "AD534",  "type": "Feature", "tippecanoe": { "layer": "2AFCAC8B86681583916237075", "minzoom": 2, "maxzoom": 8 }, "properties": { "halo": 0.8, "title": "普西亚布蒂王朝", "fontsize": 12, "tyid": "304000", "oid": "103:1576575169447", "color": "#202020" }, "geometry": { "type": "Point", "coordinates": [ 77.519531, 29.382175 ] } }
{"year": "AD534",  "type": "Feature", "tippecanoe": { "layer": "2AFCAC8B86681583916237075", "minzoom": 2, "maxzoom": 8 }, "properties": { "halo": 0.8, "title": "梅特拉卡王朝", "fontsize": 12, "tyid": "304000", "oid": "103:1576575169411", "color": "#202020" }, "geometry": { "type": "Point", "coordinates": [ 74.794922, 22.917923 ] } }
{"year": "AD534",  "type": "Feature", "tippecanoe": { "layer": "2AFCAC8B86681583916237075", "minzoom": 2, "maxzoom": 8 }, "properties": { "halo": 0.8, "title": "龟兹国", "fontsize": 12, "tyid": "304000", "oid": "103:1576575169481", "color": "#202020" }, "geometry": { "type": "Point", "coordinates": [ 81.035156, 40.913513 ] } }
{"year": "AD534",  "type": "Feature", "tippecanoe": { "layer": "2AFCAC8B86681583916237075", "minzoom": 2, "maxzoom": 8 }, "properties": { "halo": 0.8, "title": "女国", "fontsize": 12, "tyid": "304000", "oid": "103:1576575169433", "color": "#202020" }, "geometry": { "type": "Point", "coordinates": [ 80.244141, 34.885931 ] } }
{"year": "AD534",  "type": "Feature", "tippecanoe": { "layer": "2AFCAC8B86681583916237075", "minzoom": 2, "maxzoom": 8 }, "properties": { "halo": 0.8, "title": "尼波罗国", "fontsize": 12, "tyid": "304000", "oid": "103:1576575169464", "color": "#202020" }, "geometry": { "type": "Point", "coordinates": [ 84.199219, 28.071980 ] } }
{"year": "AD534",  "type": "Feature", "tippecanoe": { "layer": "2AFCAC8B86681583916237075", "minzoom": 2, "maxzoom": 8 }, "properties": { "halo": 0.8, "title": "耽摩栗底国", "fontsize": 12, "tyid": "304000", "oid": "103:1576575169483", "color": "#202020" }, "geometry": { "type": "Point", "coordinates": [ 88.593750, 22.593726 ] } }
{"year": "AD534",  "type": "Feature", "tippecanoe": { "layer": "2AFCAC8B86681583916237075", "minzoom": 2, "maxzoom": 8 }, "properties": { "halo": 0.8, "title": "卡拉波拉王朝", "fontsize": 12, "tyid": "304000", "oid": "103:1576575169227", "color": "#202020" }, "geometry": { "type": "Point", "coordinates": [ 77.783203, 10.833306 ] } }
{"year": "AD534",  "type": "Feature", "tippecanoe": { "layer": "2AFCAC8B86681583916237075", "minzoom": 2, "maxzoom": 8 }, "properties": { "halo": 0.8, "title": "韦湿奴甘地那王朝", "fontsize": 12, "tyid": "304000", "oid": "103:1576575169435", "color": "#202020" }, "geometry": { "type": "Point", "coordinates": [ 80.332031, 17.056785 ] } }
{"year": "AD534",  "type": "Feature", "tippecanoe": { "layer": "2AFCAC8B86681583916237075", "minzoom": 2, "maxzoom": 8 }, "properties": { "halo": 0.8, "title": "梅卡拉潘都瓦湿王朝", "fontsize": 12, "tyid": "304000", "oid": "103:1576575169432", "color": "#202020" }, "geometry": { "type": "Point", "coordinates": [ 82.177734, 21.698265 ] } }
{"year": "AD534",  "type": "Feature", "tippecanoe": { "layer": "2AFCAC8B86681583916237075", "minzoom": 2, "maxzoom": 8 }, "properties": { "halo": 0.8, "title": "帕拉瓦王朝", "fontsize": 12, "tyid": "304000", "oid": "103:1576575169401", "color": "#202020" }, "geometry": { "type": "Point", "coordinates": [ 79.189453, 14.519780 ] } }
{"year": "AD534",  "type": "Feature", "tippecanoe": { "layer": "2AFCAC8B86681583916237075", "minzoom": 2, "maxzoom": 8 }, "properties": { "halo": 0.8, "title": "皮特布哈卡王朝", "fontsize": 12, "tyid": "304000", "oid": "103:1576575169446", "color": "#202020" }, "geometry": { "type": "Point", "coordinates": [ 84.375000, 19.725342 ] } }
{"year": "AD534",  "type": "Feature", "tippecanoe": { "layer": "2AFCAC8B86681583916237075", "minzoom": 2, "maxzoom": 8 }, "properties": { "halo": 0.8, "title": "阿努拉德普勒王国", "fontsize": 12, "tyid": "304000", "oid": "103:1576575169249", "color": "#202020" }, "geometry": { "type": "Point", "coordinates": [ 80.683594, 7.623887 ] } }
{"year": "AD534",  "type": "Feature", "tippecanoe": { "layer": "2AFCAC8B86681583916237075", "minzoom": 2, "maxzoom": 8 }, "properties": { "halo": 0.8, "title": "地豆于", "fontsize": 12, "tyid": "304001", "oid": "103:1576575169445", "color": "#262626" }, "geometry": { "type": "Point", "coordinates": [ 117.421875, 45.583290 ] } }
{"year": "AD534",  "type": "Feature", "tippecanoe": { "layer": "2AFCAC8B86681583916237075", "minzoom": 2, "maxzoom": 8 }, "properties": { "halo": 0.8, "title": "库莫奚", "fontsize": 12, "tyid": "304001", "oid": "103:1576575169412", "color": "#262626" }, "geometry": { "type": "Point", "coordinates": [ 118.828125, 42.940339 ] } }
{"year": "AD534",  "type": "Feature", "tippecanoe": { "layer": "2AFCAC8B86681583916237075", "minzoom": 2, "maxzoom": 8 }, "properties": { "halo": 0.8, "title": "契丹", "fontsize": 12, "tyid": "304001", "oid": "103:1576575169417", "color": "#262626" }, "geometry": { "type": "Point", "coordinates": [ 122.343750, 43.771094 ] } }
{"year": "AD534",  "type": "Feature", "tippecanoe": { "layer": "2AFCAC8B86681583916237075", "minzoom": 2, "maxzoom": 8 }, "properties": { "halo": 0.8, "title": "瓦曼王朝", "fontsize": 12, "tyid": "304000", "oid": "103:1576575169212", "color": "#202020" }, "geometry": { "type": "Point", "coordinates": [ 90.439453, 25.482951 ] } }
{"year": "AD534",  "type": "Feature", "tippecanoe": { "layer": "2AFCAC8B86681583916237075", "minzoom": 2, "maxzoom": 8 }, "properties": { "halo": 0.8, "title": "三摩呾吒国", "fontsize": 12, "tyid": "304000", "oid": "103:1576575169479", "color": "#202020" }, "geometry": { "type": "Point", "coordinates": [ 90.791016, 23.322080 ] } }
{"year": "AD534",  "type": "Feature", "tippecanoe": { "layer": "2AFCAC8B86681583916237075", "minzoom": 2, "maxzoom": 8 }, "properties": { "halo": 0.8, "title": "古曼尼普尔王国", "fontsize": 12, "tyid": "304000", "oid": "103:1576575169231", "color": "#202020" }, "geometry": { "type": "Point", "coordinates": [ 93.867188, 24.766785 ] } }
{"year": "AD534",  "type": "Feature", "tippecanoe": { "layer": "2AFCAC8B86681583916237075", "minzoom": 2, "maxzoom": 8 }, "properties": { "halo": 0.8, "title": "达瓦卡王国", "fontsize": 12, "tyid": "304000", "oid": "103:1576575169262", "color": "#202020" }, "geometry": { "type": "Point", "coordinates": [ 94.482422, 26.509905 ] } }
{"year": "AD534",  "type": "Feature", "tippecanoe": { "layer": "2AFCAC8B86681583916237075", "minzoom": 2, "maxzoom": 8 }, "properties": { "halo": 0.8, "title": "附国", "fontsize": 12, "tyid": "304001", "oid": "103:1576575169403", "color": "#262626" }, "geometry": { "type": "Point", "coordinates": [ 100.371094, 31.728167 ] } }
{"year": "AD534",  "type": "Feature", "tippecanoe": { "layer": "2AFCAC8B86681583916237075", "minzoom": 2, "maxzoom": 8 }, "properties": { "halo": 0.8, "title": "谢氏", "fontsize": 12, "tyid": "304002", "oid": "103:1576575169405", "color": "#262626" }, "geometry": { "type": "Point", "coordinates": [ 107.226562, 26.273714 ] } }
{"year": "AD534",  "type": "Feature", "tippecanoe": { "layer": "2AFCAC8B86681583916237075", "minzoom": 2, "maxzoom": 8 }, "properties": { "halo": 0.8, "title": "达雅瓦底王国", "fontsize": 12, "tyid": "304000", "oid": "103:1576575169257", "color": "#202020" }, "geometry": { "type": "Point", "coordinates": [ 93.339844, 20.550509 ] } }
{"year": "AD534",  "type": "Feature", "tippecanoe": { "layer": "2AFCAC8B86681583916237075", "minzoom": 2, "maxzoom": 8 }, "properties": { "halo": 0.8, "title": "直通王国", "fontsize": 12, "tyid": "304000", "oid": "103:1576575168908", "color": "#202020" }, "geometry": { "type": "Point", "coordinates": [ 95.185547, 17.056785 ] } }
{"year": "AD534",  "type": "Feature", "tippecanoe": { "layer": "2AFCAC8B86681583916237075", "minzoom": 2, "maxzoom": 8 }, "properties": { "halo": 0.8, "title": "骠国", "fontsize": 12, "tyid": "304000", "oid": "103:1576575168912", "color": "#202020" }, "geometry": { "type": "Point", "coordinates": [ 95.888672, 21.125498 ] } }
{"year": "AD534",  "type": "Feature", "tippecanoe": { "layer": "2AFCAC8B86681583916237075", "minzoom": 2, "maxzoom": 8 }, "properties": { "halo": 0.8, "title": "罗涡国", "fontsize": 12, "tyid": "304000", "oid": "103:1576575168910", "color": "#202020" }, "geometry": { "type": "Point", "coordinates": [ 100.019531, 15.961329 ] } }
{"year": "AD534",  "type": "Feature", "tippecanoe": { "layer": "2AFCAC8B86681583916237075", "minzoom": 2, "maxzoom": 8 }, "properties": { "halo": 0.8, "title": "盘盘国", "fontsize": 12, "tyid": "304000", "oid": "103:1576575169226", "color": "#202020" }, "geometry": { "type": "Point", "coordinates": [ 99.404297, 8.581021 ] } }
{"year": "AD534",  "type": "Feature", "tippecanoe": { "layer": "2AFCAC8B86681583916237075", "minzoom": 2, "maxzoom": 8 }, "properties": { "halo": 0.8, "title": "真腊王国", "fontsize": 12, "tyid": "304000", "oid": "103:1576575169465", "color": "#202020" }, "geometry": { "type": "Point", "coordinates": [ 106.259766, 13.923404 ] } }
{"year": "AD534",  "type": "Feature", "tippecanoe": { "layer": "2AFCAC8B86681583916237075", "minzoom": 2, "maxzoom": 8 }, "properties": { "halo": 0.8, "title": "林邑国", "fontsize": 12, "tyid": "304000", "oid": "103:1576575169229", "color": "#202020" }, "geometry": { "type": "Point", "coordinates": [ 108.632812, 14.264383 ] } }
{"year": "AD534",  "type": "Feature", "tippecanoe": { "layer": "2AFCAC8B86681583916237075", "minzoom": 2, "maxzoom": 8 }, "properties": { "halo": 0.8, "title": "赤土国", "fontsize": 12, "tyid": "304000", "oid": "103:1576575169399", "color": "#202020" }, "geometry": { "type": "Point", "coordinates": [ 102.304688, 5.353521 ] } }
{"year": "AD534",  "type": "Feature", "tippecanoe": { "layer": "2AFCAC8B86681583916237075", "minzoom": 2, "maxzoom": 8 }, "properties": { "halo": 0.8, "title": "婆皇国", "fontsize": 12, "tyid": "304000", "oid": "103:1576575169423", "color": "#202020" }, "geometry": { "type": "Point", "coordinates": [ 102.480469, 3.776559 ] } }
{"year": "AD534",  "type": "Feature", "tippecanoe": { "layer": "2AFCAC8B86681583916237075", "minzoom": 2, "maxzoom": 8 }, "properties": { "halo": 0.8, "title": "百济", "fontsize": 12, "tyid": "304000", "oid": "103:1576575169233", "color": "#202020" }, "geometry": { "type": "Point", "coordinates": [ 127.529297, 36.527295 ] } }
{"year": "AD534",  "type": "Feature", "tippecanoe": { "layer": "2AFCAC8B86681583916237075", "minzoom": 2, "maxzoom": 8 }, "properties": { "halo": 0.8, "title": "新罗", "fontsize": 12, "tyid": "304000", "oid": "103:1576575169197", "color": "#202020" }, "geometry": { "type": "Point", "coordinates": [ 128.759766, 36.315125 ] } }
{"year": "AD534",  "type": "Feature", "tippecanoe": { "layer": "2AFCAC8B86681583916237075", "minzoom": 2, "maxzoom": 8 }, "properties": { "halo": 0.8, "title": "尼夫赫人", "fontsize": 12, "tyid": "304001", "oid": "103:1576575169255", "color": "#262626" }, "geometry": { "type": "Point", "coordinates": [ 142.646484, 50.345460 ] } }
{"year": "AD534",  "type": "Feature", "tippecanoe": { "layer": "2AFCAC8B86681583916237075", "minzoom": 2, "maxzoom": 8 }, "properties": { "halo": 0.8, "title": "绳文人", "fontsize": 12, "tyid": "304001", "oid": "103:1576575169459", "color": "#262626" }, "geometry": { "type": "Point", "coordinates": [ 142.558594, 43.389082 ] } }
{"year": "AD534",  "type": "Feature", "tippecanoe": { "layer": "2AFCAC8B86681583916237075", "minzoom": 2, "maxzoom": 8 }, "properties": { "halo": 0.8, "title": "日高见国", "fontsize": 12, "tyid": "304000", "oid": "103:1576575169211", "color": "#202020" }, "geometry": { "type": "Point", "coordinates": [ 140.712891, 39.504041 ] } }
{"year": "AD534",  "type": "Feature", "tippecanoe": { "layer": "2AFCAC8B86681583916237075", "minzoom": 2, "maxzoom": 8 }, "properties": { "halo": 0.8, "title": "乌莱维文明", "fontsize": 12, "tyid": "304002", "oid": "103:1576575169322", "color": "#262626" }, "geometry": { "type": "Point", "coordinates": [ 29.882812, -2.547988 ] } }
{"year": "AD534",  "type": "Feature", "tippecanoe": { "layer": "2AFCAC8B86681583916237075", "minzoom": 2, "maxzoom": 8 }, "properties": { "halo": 0.8, "title": "艾布兰文化五期", "fontsize": 12, "tyid": "304002", "oid": "103:1576575168968", "color": "#262626" }, "geometry": { "type": "Point", "coordinates": [ 36.474609, -0.175781 ] } }
{"year": "AD534",  "type": "Feature", "tippecanoe": { "layer": "2AFCAC8B86681583916237075", "minzoom": 2, "maxzoom": 8 }, "properties": { "halo": 0.8, "title": "斯瓦西里人", "fontsize": 12, "tyid": "304001", "oid": "103:1576575168955", "color": "#262626" }, "geometry": { "type": "Point", "coordinates": [ 39.726562, -10.746969 ] } }
{"year": "AD534",  "type": "Feature", "tippecanoe": { "layer": "2AFCAC8B86681583916237075", "minzoom": 2, "maxzoom": 8 }, "properties": { "halo": 0.8, "title": "末罗瑜王国", "fontsize": 12, "tyid": "304000", "oid": "103:1576575169225", "color": "#202020" }, "geometry": { "type": "Point", "coordinates": [ 103.623047, -2.460181 ] } }
{"year": "AD534",  "type": "Feature", "tippecanoe": { "layer": "2AFCAC8B86681583916237075", "minzoom": 2, "maxzoom": 8 }, "properties": { "halo": 0.8, "title": "库泰王国", "fontsize": 12, "tyid": "304000", "oid": "103:1576575169214", "color": "#202020" }, "geometry": { "type": "Point", "coordinates": [ 116.191406, 0.000000 ] } }
{"year": "AD534",  "type": "Feature", "tippecanoe": { "layer": "2AFCAC8B86681583916237075", "minzoom": 2, "maxzoom": 8 }, "properties": { "halo": 0.8, "title": "巴拉瓦人", "fontsize": 12, "tyid": "304001", "oid": "103:1576575169265", "color": "#262626" }, "geometry": { "type": "Point", "coordinates": [ 146.513672, -41.967659 ] } }
{"year": "AD534",  "type": "Feature", "tippecanoe": { "layer": "2AFCAC8B8AC81583916237077", "minzoom": 2, "maxzoom": 8 }, "properties": { "halo": 0.8, "title": "古白令海文化", "fontsize": 12, "tyid": "304002", "oid": "103:1576575169031", "color": "#262626" }, "geometry": { "type": "Point", "coordinates": [ -170.332031, 63.470145 ] } }
{"year": "AD534",  "type": "Feature", "tippecanoe": { "layer": "2AFCAC8B8AC81583916237077", "minzoom": 2, "maxzoom": 8 }, "properties": { "halo": 0.8, "title": "梅奥人", "fontsize": 12, "tyid": "304001", "oid": "103:1576575169268", "color": "#262626" }, "geometry": { "type": "Point", "coordinates": [ -109.160156, 26.667096 ] } }
{"year": "AD534",  "type": "Feature", "tippecanoe": { "layer": "2AFCAC8B8AC81583916237077", "minzoom": 2, "maxzoom": 8 }, "properties": { "halo": 0.8, "title": "查尔奇维特斯文化", "fontsize": 12, "tyid": "304002", "oid": "103:1576575169452", "color": "#262626" }, "geometry": { "type": "Point", "coordinates": [ -103.974609, 23.483401 ] } }
{"year": "AD534",  "type": "Feature", "tippecanoe": { "layer": "2AFCAC8B8AC81583916237077", "minzoom": 2, "maxzoom": 8 }, "properties": { "halo": 0.8, "title": "巴希奥文化", "fontsize": 12, "tyid": "304002", "oid": "103:1576575169103", "color": "#262626" }, "geometry": { "type": "Point", "coordinates": [ -99.931641, 20.961440 ] } }
{"year": "AD534",  "type": "Feature", "tippecanoe": { "layer": "2AFCAC8B8AC81583916237077", "minzoom": 2, "maxzoom": 8 }, "properties": { "halo": 0.8, "title": "特奥蒂瓦坎", "fontsize": 12, "tyid": "304002", "oid": "103:1576575168959", "color": "#262626" }, "geometry": { "type": "Point", "coordinates": [ -99.404297, 19.808054 ] } }
{"year": "AD534",  "type": "Feature", "tippecanoe": { "layer": "2AFCAC8B8AC81583916237077", "minzoom": 2, "maxzoom": 8 }, "properties": { "halo": 0.8, "title": "圣米格尔伊克帕坦文化", "fontsize": 12, "tyid": "304002", "oid": "103:1576575169100", "color": "#262626" }, "geometry": { "type": "Point", "coordinates": [ -100.019531, 19.062118 ] } }
{"year": "AD534",  "type": "Feature", "tippecanoe": { "layer": "2AFCAC8B8AC81583916237077", "minzoom": 2, "maxzoom": 8 }, "properties": { "halo": 0.8, "title": "科韦克卡-琼塔尔文化", "fontsize": 12, "tyid": "304002", "oid": "103:1576575169315", "color": "#262626" }, "geometry": { "type": "Point", "coordinates": [ -99.667969, 18.062312 ] } }
{"year": "AD534",  "type": "Feature", "tippecanoe": { "layer": "2AFCAC8B8AC81583916237077", "minzoom": 2, "maxzoom": 8 }, "properties": { "halo": 0.8, "title": "托托纳克人", "fontsize": 12, "tyid": "304001", "oid": "103:1576575169006", "color": "#262626" }, "geometry": { "type": "Point", "coordinates": [ -98.349609, 20.220966 ] } }
{"year": "AD534",  "type": "Feature", "tippecanoe": { "layer": "2AFCAC8B8AC81583916237077", "minzoom": 2, "maxzoom": 8 }, "properties": { "halo": 0.8, "title": "古韦拉克鲁斯文化", "fontsize": 12, "tyid": "304002", "oid": "103:1576575169365", "color": "#262626" }, "geometry": { "type": "Point", "coordinates": [ -96.767578, 19.642588 ] } }
{"year": "AD534",  "type": "Feature", "tippecanoe": { "layer": "2AFCAC8B8AC81583916237077", "minzoom": 2, "maxzoom": 8 }, "properties": { "halo": 0.8, "title": "米斯特克人", "fontsize": 12, "tyid": "304001", "oid": "103:1576575169154", "color": "#262626" }, "geometry": { "type": "Point", "coordinates": [ -98.349609, 17.224758 ] } }
{"year": "AD534",  "type": "Feature", "tippecanoe": { "layer": "2AFCAC8B8AC81583916237077", "minzoom": 2, "maxzoom": 8 }, "properties": { "halo": 0.8, "title": "特里克人", "fontsize": 12, "tyid": "304001", "oid": "103:1576575169027", "color": "#262626" }, "geometry": { "type": "Point", "coordinates": [ -97.382812, 17.811456 ] } }
{"year": "AD534",  "type": "Feature", "tippecanoe": { "layer": "2AFCAC8B8AC81583916237077", "minzoom": 2, "maxzoom": 8 }, "properties": { "halo": 0.8, "title": "洛瓦贾达斯文化", "fontsize": 12, "tyid": "304002", "oid": "103:1576575169124", "color": "#262626" }, "geometry": { "type": "Point", "coordinates": [ -96.416016, 19.145168 ] } }
{"year": "AD534",  "type": "Feature", "tippecanoe": { "layer": "2AFCAC8B8AC81583916237077", "minzoom": 2, "maxzoom": 8 }, "properties": { "halo": 0.8, "title": "麦克斯人", "fontsize": 12, "tyid": "304001", "oid": "103:1576575168925", "color": "#262626" }, "geometry": { "type": "Point", "coordinates": [ -96.503906, 18.312811 ] } }
{"year": "AD534",  "type": "Feature", "tippecanoe": { "layer": "2AFCAC8B8AC81583916237077", "minzoom": 2, "maxzoom": 8 }, "properties": { "halo": 0.8, "title": "佐齐尔人", "fontsize": 12, "tyid": "304001", "oid": "103:1576575169371", "color": "#262626" }, "geometry": { "type": "Point", "coordinates": [ -93.339844, 16.551962 ] } }
{"year": "AD534",  "type": "Feature", "tippecanoe": { "layer": "2AFCAC8B8AC81583916237077", "minzoom": 2, "maxzoom": 8 }, "properties": { "halo": 0.8, "title": "祖赫人", "fontsize": 12, "tyid": "304001", "oid": "103:1576575169344", "color": "#262626" }, "geometry": { "type": "Point", "coordinates": [ -92.109375, 16.045813 ] } }
{"year": "AD534",  "type": "Feature", "tippecanoe": { "layer": "2AFCAC8B8AC81583916237077", "minzoom": 2, "maxzoom": 8 }, "properties": { "halo": 0.8, "title": "基切人", "fontsize": 12, "tyid": "304001", "oid": "103:1576575168958", "color": "#262626" }, "geometry": { "type": "Point", "coordinates": [ -90.966797, 15.029686 ] } }
{"year": "AD534",  "type": "Feature", "tippecanoe": { "layer": "2AFCAC8B8AC81583916237077", "minzoom": 2, "maxzoom": 8 }, "properties": { "halo": 0.8, "title": "怒溪文化", "fontsize": 12, "tyid": "304002", "oid": "103:1576575168981", "color": "#262626" }, "geometry": { "type": "Point", "coordinates": [ -72.421875, 41.574361 ] } }
{"year": "AD534",  "type": "Feature", "tippecanoe": { "layer": "2AFCAC8B8AC81583916237077", "minzoom": 2, "maxzoom": 8 }, "properties": { "halo": 0.8, "title": "埃里森-拉莫特文化", "fontsize": 12, "tyid": "304002", "oid": "103:1576575169195", "color": "#262626" }, "geometry": { "type": "Point", "coordinates": [ -87.626953, 39.095963 ] } }
{"year": "AD534",  "type": "Feature", "tippecanoe": { "layer": "2AFCAC8B8AC81583916237077", "minzoom": 2, "maxzoom": 8 }, "properties": { "halo": 0.8, "title": "凯兹池塘文化", "fontsize": 12, "tyid": "304002", "oid": "103:1576575169389", "color": "#262626" }, "geometry": { "type": "Point", "coordinates": [ -82.265625, 29.535230 ] } }
{"year": "AD534",  "type": "Feature", "tippecanoe": { "layer": "2AFCAC8B8AC81583916237077", "minzoom": 2, "maxzoom": 8 }, "properties": { "halo": 0.8, "title": "玛纳索塔文化", "fontsize": 12, "tyid": "304002", "oid": "103:1576575169361", "color": "#262626" }, "geometry": { "type": "Point", "coordinates": [ -82.441406, 27.683528 ] } }
{"year": "AD534",  "type": "Feature", "tippecanoe": { "layer": "2AFCAC8B8AC81583916237077", "minzoom": 2, "maxzoom": 8 }, "properties": { "halo": 0.8, "title": "卡卢萨哈契文化", "fontsize": 12, "tyid": "304002", "oid": "103:1576575168985", "color": "#262626" }, "geometry": { "type": "Point", "coordinates": [ -81.650391, 27.137368 ] } }
{"year": "AD534",  "type": "Feature", "tippecanoe": { "layer": "2AFCAC8B8AC81583916237077", "minzoom": 2, "maxzoom": 8 }, "properties": { "halo": 0.8, "title": "圣约翰文化", "fontsize": 12, "tyid": "304002", "oid": "103:1576575169020", "color": "#262626" }, "geometry": { "type": "Point", "coordinates": [ -81.474609, 29.382175 ] } }
{"year": "AD534",  "type": "Feature", "tippecanoe": { "layer": "2AFCAC8B8AC81583916237077", "minzoom": 2, "maxzoom": 8 }, "properties": { "halo": 0.8, "title": "贝尔格莱德文化", "fontsize": 12, "tyid": "304002", "oid": "103:1576575169013", "color": "#262626" }, "geometry": { "type": "Point", "coordinates": [ -80.859375, 27.527758 ] } }
{"year": "AD534",  "type": "Feature", "tippecanoe": { "layer": "2AFCAC8B8AC81583916237077", "minzoom": 2, "maxzoom": 8 }, "properties": { "halo": 0.8, "title": "格莱兹文化", "fontsize": 12, "tyid": "304002", "oid": "103:1576575169012", "color": "#262626" }, "geometry": { "type": "Point", "coordinates": [ -80.859375, 26.037042 ] } }
{"year": "AD534",  "type": "Feature", "tippecanoe": { "layer": "2AFCAC8B8AC81583916237077", "minzoom": 2, "maxzoom": 8 }, "properties": { "halo": 0.8, "title": "德贵斯塔族", "fontsize": 12, "tyid": "304001", "oid": "103:1576575169272", "color": "#262626" }, "geometry": { "type": "Point", "coordinates": [ -80.419922, 25.641526 ] } }
{"year": "AD534",  "type": "Feature", "tippecanoe": { "layer": "2AFCAC8B8AC81583916237077", "minzoom": 2, "maxzoom": 8 },