{ "type": "Feature", "tippecanoe": { "layer": "2AFCABED61D01583916171218", "minzoom": 2, "maxzoom": 8 }, "properties": { "halo": 0.8, "title": "圣路易斯雷伊文化", "fontsize": 12, "tyid": "304002", "oid": "103:1576575175229", "color": "#262626" }, "geometry": { "type": "Point", "coordinates": [ -118.916016, 34.597042 ] } }
{ "type": "Feature", "tippecanoe": { "layer": "2AFCABED61D01583916171218", "minzoom": 2, "maxzoom": 8 }, "properties": { "halo": 0.8, "title": "维珍阿纳萨齐人", "fontsize": 12, "tyid": "304001", "oid": "103:1576575175595", "color": "#262626" }, "geometry": { "type": "Point", "coordinates": [ -113.818359, 36.879621 ] } }
{ "type": "Feature", "tippecanoe": { "layer": "2AFCABED61D01583916171218", "minzoom": 2, "maxzoom": 8 }, "properties": { "halo": 0.8, "title": "霍霍卡姆文化", "fontsize": 12, "tyid": "304002", "oid": "103:1576575175384", "color": "#262626" }, "geometry": { "type": "Point", "coordinates": [ -112.851562, 32.768800 ] } }
{ "type": "Feature", "tippecanoe": { "layer": "2AFCABED61D01583916171218", "minzoom": 2, "maxzoom": 8 }, "properties": { "halo": 0.8, "title": "科蒙德文化", "fontsize": 12, "tyid": "304002", "oid": "103:1576575175634", "color": "#262626" }, "geometry": { "type": "Point", "coordinates": [ -114.169922, 28.921631 ] } }
{ "type": "Feature", "tippecanoe": { "layer": "2AFCABED61D01583916171218", "minzoom": 2, "maxzoom": 8 }, "properties": { "halo": 0.8, "title": "弗里蒙特文化", "fontsize": 12, "tyid": "304002", "oid": "103:1576575175588", "color": "#262626" }, "geometry": { "type": "Point", "coordinates": [ -111.533203, 38.134557 ] } }
{ "type": "Feature", "tippecanoe": { "layer": "2AFCABED61D01583916171218", "minzoom": 2, "maxzoom": 8 }, "properties": { "halo": 0.8, "title": "斯内瓜文化", "fontsize": 12, "tyid": "304002", "oid": "103:1576575175437", "color": "#262626" }, "geometry": { "type": "Point", "coordinates": [ -111.357422, 34.379713 ] } }
{ "type": "Feature", "tippecanoe": { "layer": "2AFCABED61D01583916171218", "minzoom": 2, "maxzoom": 8 }, "properties": { "halo": 0.8, "title": "莫戈隆文化", "fontsize": 12, "tyid": "304002", "oid": "103:1576575175392", "color": "#262626" }, "geometry": { "type": "Point", "coordinates": [ -108.808594, 31.802893 ] } }
{ "type": "Feature", "tippecanoe": { "layer": "2AFCABED61D01583916171218", "minzoom": 2, "maxzoom": 8 }, "properties": { "halo": 0.8, "title": "瓜伊库拉人", "fontsize": 12, "tyid": "304001", "oid": "103:1576575175295", "color": "#262626" }, "geometry": { "type": "Point", "coordinates": [ -111.621094, 25.165173 ] } }
{ "type": "Feature", "tippecanoe": { "layer": "2AFCABED61D01583916171218", "minzoom": 2, "maxzoom": 8 }, "properties": { "halo": 0.8, "title": "堪萨斯城霍普韦尔文化", "fontsize": 12, "tyid": "304002", "oid": "103:1576575175257", "color": "#262626" }, "geometry": { "type": "Point", "coordinates": [ -93.427734, 38.685510 ] } }
{ "type": "Feature", "tippecanoe": { "layer": "2AFCABED61D01583916171218", "minzoom": 2, "maxzoom": 8 }, "properties": { "halo": 0.8, "title": "福切马里尼文化", "fontsize": 12, "tyid": "304002", "oid": "103:1576575175400", "color": "#262626" }, "geometry": { "type": "Point", "coordinates": [ -94.042969, 33.358062 ] } }
{ "type": "Feature", "tippecanoe": { "layer": "2AFCABED61D01583916171218", "minzoom": 2, "maxzoom": 8 }, "properties": { "halo": 0.8, "title": "喀多语密西西比文化", "fontsize": 12, "tyid": "304002", "oid": "103:1576575175380", "color": "#262626" }, "geometry": { "type": "Point", "coordinates": [ -92.812500, 35.960223 ] } }
{ "type": "Feature", "tippecanoe": { "layer": "2AFCABED61D01583916171218", "minzoom": 2, "maxzoom": 8 }, "properties": { "halo": 0.8, "title": "贝敦文化", "fontsize": 12, "tyid": "304002", "oid": "103:1576575175561", "color": "#262626" }, "geometry": { "type": "Point", "coordinates": [ -90.703125, 34.379713 ] } }
{ "type": "Feature", "tippecanoe": { "layer": "2AFCABED61D01583916171218", "minzoom": 2, "maxzoom": 8 }, "properties": { "halo": 0.8, "title": "华斯塔克文明", "fontsize": 12, "tyid": "304002", "oid": "103:1576575175239", "color": "#262626" }, "geometry": { "type": "Point", "coordinates": [ -98.613281, 22.105999 ] } }
{ "type": "Feature", "tippecanoe": { "layer": "2AFCABED61D01583916171218", "minzoom": 2, "maxzoom": 8 }, "properties": { "halo": 0.8, "title": "奇蒂玛察人", "fontsize": 12, "tyid": "304001", "oid": "103:1576575175237", "color": "#262626" }, "geometry": { "type": "Point", "coordinates": [ -91.582031, 30.448674 ] } }
{ "type": "Feature", "tippecanoe": { "layer": "2AFCABED61D01583916171218", "minzoom": 2, "maxzoom": 8 }, "properties": { "halo": 0.8, "title": "萨波特克文明", "fontsize": 12, "tyid": "304002", "oid": "103:1576575175617", "color": "#262626" }, "geometry": { "type": "Point", "coordinates": [ -96.064453, 16.888660 ] } }
{ "type": "Feature", "tippecanoe": { "layer": "2AFCABED61D01583916171218", "minzoom": 2, "maxzoom": 8 }, "properties": { "halo": 0.8, "title": "贝奥图克人", "fontsize": 12, "tyid": "304001", "oid": "103:1576575175182", "color": "#262626" }, "geometry": { "type": "Point", "coordinates": [ -56.074219, 48.748945 ] } }
{ "type": "Feature", "tippecanoe": { "layer": "2AFCABED61D01583916171218", "minzoom": 2, "maxzoom": 8 }, "properties": { "halo": 0.8, "title": "米勒文化", "fontsize": 12, "tyid": "304002", "oid": "103:1576575175281", "color": "#262626" }, "geometry": { "type": "Point", "coordinates": [ -87.802734, 34.379713 ] } }
{ "type": "Feature", "tippecanoe": { "layer": "2AFCABED61D01583916171218", "minzoom": 2, "maxzoom": 8 }, "properties": { "halo": 0.8, "title": "特洛伊维尔文化", "fontsize": 12, "tyid": "304002", "oid": "103:1576575175269", "color": "#262626" }, "geometry": { "type": "Point", "coordinates": [ -89.912109, 32.101190 ] } }
{ "type": "Feature", "tippecanoe": { "layer": "2AFCABED61D01583916171218", "minzoom": 2, "maxzoom": 8 }, "properties": { "halo": 0.8, "title": "斯威夫特溪文化", "fontsize": 12, "tyid": "304002", "oid": "103:1576575175625", "color": "#262626" }, "geometry": { "type": "Point", "coordinates": [ -84.814453, 32.175612 ] } }
{ "type": "Feature", "tippecanoe": { "layer": "2AFCABED61D01583916171218", "minzoom": 2, "maxzoom": 8 }, "properties": { "halo": 0.8, "title": "丹河文化", "fontsize": 12, "tyid": "304002", "oid": "103:1576575175374", "color": "#262626" }, "geometry": { "type": "Point", "coordinates": [ -81.914062, 37.509726 ] } }
{ "type": "Feature", "tippecanoe": { "layer": "2AFCABED61D01583916171218", "minzoom": 2, "maxzoom": 8 }, "properties": { "halo": 0.8, "title": "德普特福德文化", "fontsize": 12, "tyid": "304002", "oid": "103:1576575175402", "color": "#262626" }, "geometry": { "type": "Point", "coordinates": [ -79.628906, 33.431441 ] } }
{ "type": "Feature", "tippecanoe": { "layer": "2AFCABED61D01583916171218", "minzoom": 2, "maxzoom": 8 }, "properties": { "halo": 0.8, "title": "圣罗莎-斯威夫特溪文化", "fontsize": 12, "tyid": "304002", "oid": "103:1576575175277", "color": "#262626" }, "geometry": { "type": "Point", "coordinates": [ -86.748047, 30.977609 ] } }
{ "type": "Feature", "tippecanoe": { "layer": "2AFCABED61D01583916171218", "minzoom": 2, "maxzoom": 8 }, "properties": { "halo": 0.8, "title": "维登岛文化", "fontsize": 12, "tyid": "304002", "oid": "103:1576575175290", "color": "#262626" }, "geometry": { "type": "Point", "coordinates": [ -84.902344, 30.524413 ] } }
{ "type": "Feature", "tippecanoe": { "layer": "2AFCABED61D01583916171218", "minzoom": 2, "maxzoom": 8 }, "properties": { "halo": 0.8, "title": "泰诺人", "fontsize": 12, "tyid": "304001", "oid": "103:1576575175184", "color": "#262626" }, "geometry": { "type": "Point", "coordinates": [ -79.628906, 22.105999 ] } }
{ "type": "Feature", "tippecanoe": { "layer": "2AFCABED61D01583916171218", "minzoom": 2, "maxzoom": 8 }, "properties": { "halo": 0.8, "title": "佩奇人", "fontsize": 12, "tyid": "304001", "oid": "103:1576575175584", "color": "#262626" }, "geometry": { "type": "Point", "coordinates": [ -84.814453, 15.368950 ] } }
{ "type": "Feature", "tippecanoe": { "layer": "2AFCABED61D01583916171218", "minzoom": 2, "maxzoom": 8 }, "properties": { "halo": 0.8, "title": "兹努文化", "fontsize": 12, "tyid": "304002", "oid": "103:1576575175586", "color": "#262626" }, "geometry": { "type": "Point", "coordinates": [ -75.585938, 8.581021 ] } }
{ "type": "Feature", "tippecanoe": { "layer": "2AFCABED61D01583916171218", "minzoom": 2, "maxzoom": 8 }, "properties": { "halo": 0.8, "title": "埃雷拉时期", "fontsize": 12, "tyid": "304002", "oid": "103:1576575175192", "color": "#262626" }, "geometry": { "type": "Point", "coordinates": [ -73.037109, 5.965754 ] } }
{ "type": "Feature", "tippecanoe": { "layer": "2AFCABED61D01583916171218", "minzoom": 2, "maxzoom": 8 }, "properties": { "halo": 0.8, "title": "伊奈里人", "fontsize": 12, "tyid": "304001", "oid": "103:1576575175279", "color": "#262626" }, "geometry": { "type": "Point", "coordinates": [ -61.787109, 8.754795 ] } }
{ "type": "Feature", "tippecanoe": { "layer": "2AFCABED61D01583916171218", "minzoom": 2, "maxzoom": 8 }, "properties": { "halo": 0.8, "title": "达尔里阿达王国", "fontsize": 12, "tyid": "304000", "oid": "103:1576575175308", "color": "#202020" }, "geometry": { "type": "Point", "coordinates": [ -5.009766, 56.072035 ] } }
{ "type": "Feature", "tippecanoe": { "layer": "2AFCABED61D01583916171218", "minzoom": 2, "maxzoom": 8 }, "properties": { "halo": 0.8, "title": "皮克特诸王国", "fontsize": 12, "tyid": "304000", "oid": "103:1576575175321", "color": "#202020" }, "geometry": { "type": "Point", "coordinates": [ -3.691406, 57.040730 ] } }
{ "type": "Feature", "tippecanoe": { "layer": "2AFCABED61D01583916171218", "minzoom": 2, "maxzoom": 8 }, "properties": { "halo": 0.8, "title": "康诺特诸王国", "fontsize": 12, "tyid": "304000", "oid": "103:1576575175571", "color": "#202020" }, "geometry": { "type": "Point", "coordinates": [ -8.876953, 53.800651 ] } }
{ "type": "Feature", "tippecanoe": { "layer": "2AFCABED61D01583916171218", "minzoom": 2, "maxzoom": 8 }, "properties": { "halo": 0.8, "title": "盖尔人", "fontsize": 12, "tyid": "304001", "oid": "103:1576575175379", "color": "#262626" }, "geometry": { "type": "Point", "coordinates": [ -6.943359, 53.173119 ] } }
{ "type": "Feature", "tippecanoe": { "layer": "2AFCABED61D01583916171218", "minzoom": 2, "maxzoom": 8 }, "properties": { "halo": 0.8, "title": "明斯特王国", "fontsize": 12, "tyid": "304000", "oid": "103:1576575175567", "color": "#202020" }, "geometry": { "type": "Point", "coordinates": [ -8.701172, 52.375599 ] } }
{ "type": "Feature", "tippecanoe": { "layer": "2AFCABED61D01583916171218", "minzoom": 2, "maxzoom": 8 }, "properties": { "halo": 0.8, "title": "凯尔特布立吞人", "fontsize": 12, "tyid": "304001", "oid": "103:1576575175709", "color": "#262626" }, "geometry": { "type": "Point", "coordinates": [ -2.548828, 53.120405 ] } }
{ "type": "Feature", "tippecanoe": { "layer": "2AFCABED61D01583916171218", "minzoom": 2, "maxzoom": 8 }, "properties": { "halo": 0.8, "title": "盎格鲁-撒克逊人", "fontsize": 12, "tyid": "304001", "oid": "103:1576575175265", "color": "#262626" }, "geometry": { "type": "Point", "coordinates": [ -0.263672, 51.399206 ] } }
{ "type": "Feature", "tippecanoe": { "layer": "2AFCABED61D01583916171218", "minzoom": 2, "maxzoom": 8 }, "properties": { "halo": 0.8, "title": "苏维汇王国", "fontsize": 12, "tyid": "304000", "oid": "103:1576575175426", "color": "#202020" }, "geometry": { "type": "Point", "coordinates": [ -7.646484, 41.640078 ] } }
{ "type": "Feature", "tippecanoe": { "layer": "2AFCABED61D01583916171218", "minzoom": 2, "maxzoom": 8 }, "properties": { "halo": 0.8, "title": "毛里人", "fontsize": 12, "tyid": "304002", "oid": "103:1576575175550", "color": "#262626" }, "geometry": { "type": "Point", "coordinates": [ -3.603516, 34.307144 ] } }
{ "type": "Feature", "tippecanoe": { "layer": "2AFCABED61D01583916171218", "minzoom": 2, "maxzoom": 8 }, "properties": { "halo": 0.8, "title": "杰内-杰诺文化三期", "fontsize": 12, "tyid": "304002", "oid": "103:1576575175409", "color": "#262626" }, "geometry": { "type": "Point", "coordinates": [ -3.955078, 14.093957 ] } }
{ "type": "Feature", "tippecanoe": { "layer": "2AFCABED61D01583916171218", "minzoom": 2, "maxzoom": 8 }, "properties": { "halo": 0.8, "title": "米拉格罗-克韦多文化", "fontsize": 12, "tyid": "304002", "oid": "103:1576575175404", "color": "#262626" }, "geometry": { "type": "Point", "coordinates": [ -79.980469, -1.669686 ] } }
{ "type": "Feature", "tippecanoe": { "layer": "2AFCABED61D01583916171218", "minzoom": 2, "maxzoom": 8 }, "properties": { "halo": 0.8, "title": "基图文化", "fontsize": 12, "tyid": "304002", "oid": "103:1576575175435", "color": "#262626" }, "geometry": { "type": "Point", "coordinates": [ -78.222656, -0.966751 ] } }
{ "type": "Feature", "tippecanoe": { "layer": "2AFCABED61D01583916171218", "minzoom": 2, "maxzoom": 8 }, "properties": { "halo": 0.8, "title": "楚真文化", "fontsize": 12, "tyid": "304002", "oid": "103:1576575175418", "color": "#262626" }, "geometry": { "type": "Point", "coordinates": [ -70.576172, -16.299051 ] } }
{ "type": "Feature", "tippecanoe": { "layer": "2AFCABED61D01583916171218", "minzoom": 2, "maxzoom": 8 }, "properties": { "halo": 0.8, "title": "艾马拉人", "fontsize": 12, "tyid": "304001", "oid": "103:1576575175209", "color": "#262626" }, "geometry": { "type": "Point", "coordinates": [ -68.291016, -17.224758 ] } }
{ "type": "Feature", "tippecanoe": { "layer": "2AFCABED61D01583916171218", "minzoom": 2, "maxzoom": 8 }, "properties": { "halo": 0.8, "title": "昌戈人", "fontsize": 12, "tyid": "304001", "oid": "103:1576575175448", "color": "#262626" }, "geometry": { "type": "Point", "coordinates": [ -69.873047, -23.563987 ] } }
{ "type": "Feature", "tippecanoe": { "layer": "2AFCABED61D01583916171218", "minzoom": 2, "maxzoom": 8 }, "properties": { "halo": 0.8, "title": "阿塔卡马人", "fontsize": 12, "tyid": "304001", "oid": "103:1576575175439", "color": "#262626" }, "geometry": { "type": "Point", "coordinates": [ -69.082031, -24.846565 ] } }
{ "type": "Feature", "tippecanoe": { "layer": "2AFCABED61D01583916171218", "minzoom": 2, "maxzoom": 8 }, "properties": { "halo": 0.8, "title": "阿拉米托文化", "fontsize": 12, "tyid": "304002", "oid": "103:1576575175628", "color": "#262626" }, "geometry": { "type": "Point", "coordinates": [ -67.851562, -26.588527 ] } }
{ "type": "Feature", "tippecanoe": { "layer": "2AFCABED61D01583916171218", "minzoom": 2, "maxzoom": 8 }, "properties": { "halo": 0.8, "title": "埃尔莫尔文化", "fontsize": 12, "tyid": "304002", "oid": "103:1576575175408", "color": "#262626" }, "geometry": { "type": "Point", "coordinates": [ -70.927734, -30.675715 ] } }
{ "type": "Feature", "tippecanoe": { "layer": "2AFCABED61D01583916171218", "minzoom": 2, "maxzoom": 8 }, "properties": { "halo": 0.8, "title": "洛勒洛文化", "fontsize": 12, "tyid": "304002", "oid": "103:1576575175585", "color": "#262626" }, "geometry": { "type": "Point", "coordinates": [ -70.664062, -33.724340 ] } }
{ "type": "Feature", "tippecanoe": { "layer": "2AFCABED61D01583916171218", "minzoom": 2, "maxzoom": 8 }, "properties": { "halo": 0.8, "title": "马普切人", "fontsize": 12, "tyid": "304001", "oid": "103:1576575175389", "color": "#262626" }, "geometry": { "type": "Point", "coordinates": [ -71.455078, -38.959409 ] } }
{ "type": "Feature", "tippecanoe": { "layer": "2AFCABED61D01583916171218", "minzoom": 2, "maxzoom": 8 }, "properties": { "halo": 0.8, "title": "希德拉里卡文化", "fontsize": 12, "tyid": "304002", "oid": "103:1576575175635", "color": "#262626" }, "geometry": { "type": "Point", "coordinates": [ -66.005859, -12.297068 ] } }
{ "type": "Feature", "tippecanoe": { "layer": "2AFCABED61D01583916171218", "minzoom": 2, "maxzoom": 8 }, "properties": { "halo": 0.8, "title": "摩克索人", "fontsize": 12, "tyid": "304001", "oid": "103:1576575175542", "color": "#262626" }, "geometry": { "type": "Point", "coordinates": [ -65.830078, -13.923404 ] } }
{ "type": "Feature", "tippecanoe": { "layer": "2AFCABED61D01583916171218", "minzoom": 2, "maxzoom": 8 }, "properties": { "halo": 0.8, "title": "马拉约文化", "fontsize": 12, "tyid": "304002", "oid": "103:1576575175297", "color": "#262626" }, "geometry": { "type": "Point", "coordinates": [ -50.712891, -2.723583 ] } }
{ "type": "Feature", "tippecanoe": { "layer": "2AFCABED61D01583916171218", "minzoom": 2, "maxzoom": 8 }, "properties": { "halo": 0.8, "title": "拉坎德拉里亚文化", "fontsize": 12, "tyid": "304002", "oid": "103:1576575175601", "color": "#262626" }, "geometry": { "type": "Point", "coordinates": [ -65.390625, -25.720735 ] } }
{ "type": "Feature", "tippecanoe": { "layer": "2AFCABED61D01583916171218", "minzoom": 2, "maxzoom": 8 }, "properties": { "halo": 0.8, "title": "康多拉瓦西文化", "fontsize": 12, "tyid": "304002", "oid": "103:1576575175530", "color": "#262626" }, "geometry": { "type": "Point", "coordinates": [ -66.708984, -27.293689 ] } }
{ "type": "Feature", "tippecanoe": { "layer": "2AFCABED61D01583916171218", "minzoom": 2, "maxzoom": 8 }, "properties": { "halo": 0.8, "title": "拉斯梅塞德斯文化", "fontsize": 12, "tyid": "304002", "oid": "103:1576575175420", "color": "#262626" }, "geometry": { "type": "Point", "coordinates": [ -63.808594, -27.605671 ] } }
{ "type": "Feature", "tippecanoe": { "layer": "2AFCABED61D01583916171218", "minzoom": 2, "maxzoom": 8 }, "properties": { "halo": 0.8, "title": "特胡尔切人", "fontsize": 12, "tyid": "304001", "oid": "103:1576575175200", "color": "#262626" }, "geometry": { "type": "Point", "coordinates": [ -70.751953, -50.176898 ] } }
{ "type": "Feature", "tippecanoe": { "layer": "2AFCABED61D01583916171218", "minzoom": 2, "maxzoom": 8 }, "properties": { "halo": 0.8, "title": "塞尔克南人", "fontsize": 12, "tyid": "304001", "oid": "103:1576575175190", "color": "#262626" }, "geometry": { "type": "Point", "coordinates": [ -68.378906, -53.696706 ] } }
{ "type": "Feature", "tippecanoe": { "layer": "2AFCABED61D01583916171218", "minzoom": 2, "maxzoom": 8 }, "properties": { "halo": 0.8, "title": "雅干人", "fontsize": 12, "tyid": "304001", "oid": "103:1576575175189", "color": "#262626" }, "geometry": { "type": "Point", "coordinates": [ -68.554688, -54.521081 ] } }
{ "type": "Feature", "tippecanoe": { "layer": "2AFCABED61D01583916171218", "minzoom": 2, "maxzoom": 8 }, "properties": { "halo": 0.8, "title": "朱特人", "fontsize": 12, "tyid": "304001", "oid": "103:1576575175547", "color": "#262626" }, "geometry": { "type": "Point", "coordinates": [ 9.316406, 56.267761 ] } }
{ "type": "Feature", "tippecanoe": { "layer": "2AFCABED61D01583916171218", "minzoom": 2, "maxzoom": 8 }, "properties": { "halo": 0.8, "title": "耶阿特人", "fontsize": 12, "tyid": "304001", "oid": "103:1576575175305", "color": "#262626" }, "geometry": { "type": "Point", "coordinates": [ 13.710938, 57.657158 ] } }
{ "type": "Feature", "tippecanoe": { "layer": "2AFCABED61D01583916171218", "minzoom": 2, "maxzoom": 8 }, "properties": { "halo": 0.8, "title": "库洛尼亚人", "fontsize": 12, "tyid": "304001", "oid": "103:1576575175630", "color": "#262626" }, "geometry": { "type": "Point", "coordinates": [ 21.972656, 56.607885 ] } }
{ "type": "Feature", "tippecanoe": { "layer": "2AFCABED61D01583916171218", "minzoom": 2, "maxzoom": 8 }, "properties": { "halo": 0.8, "title": "巴黎王国", "fontsize": 12, "tyid": "304000", "oid": "103:1576575175340", "color": "#202020" }, "geometry": { "type": "Point", "coordinates": [ 0.439453, 48.980217 ] } }
{ "type": "Feature", "tippecanoe": { "layer": "2AFCABED61D01583916171218", "minzoom": 2, "maxzoom": 8 }, "properties": { "halo": 0.8, "title": "苏瓦松王国[克洛泰尔一世]", "fontsize": 12, "tyid": "304000", "oid": "103:1576575175333", "color": "#202020" }, "geometry": { "type": "Point", "coordinates": [ 5.185547, 50.736455 ] } }
{ "type": "Feature", "tippecanoe": { "layer": "2AFCABED61D01583916171218", "minzoom": 2, "maxzoom": 8 }, "properties": { "halo": 0.8, "title": "盎格鲁人", "fontsize": 12, "tyid": "304001", "oid": "103:1576575175558", "color": "#262626" }, "geometry": { "type": "Point", "coordinates": [ 9.755859, 54.162434 ] } }
{ "type": "Feature", "tippecanoe": { "layer": "2AFCABED61D01583916171218", "minzoom": 2, "maxzoom": 8 }, "properties": { "halo": 0.8, "title": "萨克森人", "fontsize": 12, "tyid": "304001", "oid": "103:1576575175608", "color": "#262626" }, "geometry": { "type": "Point", "coordinates": [ 8.613281, 52.589701 ] } }
{ "type": "Feature", "tippecanoe": { "layer": "2AFCABED61D01583916171218", "minzoom": 2, "maxzoom": 8 }, "properties": { "halo": 0.8, "title": "图林根人", "fontsize": 12, "tyid": "304001", "oid": "103:1576575175598", "color": "#262626" }, "geometry": { "type": "Point", "coordinates": [ 10.546875, 52.106505 ] } }
{ "type": "Feature", "tippecanoe": { "layer": "2AFCABED61D01583916171218", "minzoom": 2, "maxzoom": 8 }, "properties": { "halo": 0.8, "title": "奥尔良王国", "fontsize": 12, "tyid": "304000", "oid": "103:1576575175328", "color": "#202020" }, "geometry": { "type": "Point", "coordinates": [ 0.615234, 46.980252 ] } }
{ "type": "Feature", "tippecanoe": { "layer": "2AFCABED61D01583916171218", "minzoom": 2, "maxzoom": 8 }, "properties": { "halo": 0.8, "title": "东哥特王国", "fontsize": 12, "tyid": "304000", "oid": "103:1576575175609", "color": "#202020" }, "geometry": { "type": "Point", "coordinates": [ 9.404297, 45.583290 ] } }
{ "type": "Feature", "tippecanoe": { "layer": "2AFCABED61D01583916171218", "minzoom": 2, "maxzoom": 8 }, "properties": { "halo": 0.8, "title": "白塞尔维亚人", "fontsize": 12, "tyid": "304001", "oid": "103:1576575175319", "color": "#262626" }, "geometry": { "type": "Point", "coordinates": [ 14.677734, 51.454007 ] } }
{ "type": "Feature", "tippecanoe": { "layer": "2AFCABED61D01583916171218", "minzoom": 2, "maxzoom": 8 }, "properties": { "halo": 0.8, "title": "波西米亚人", "fontsize": 12, "tyid": "304001", "oid": "103:1576575175254", "color": "#262626" }, "geometry": { "type": "Point", "coordinates": [ 15.205078, 49.724479 ] } }
{ "type": "Feature", "tippecanoe": { "layer": "2AFCABED61D01583916171218", "minzoom": 2, "maxzoom": 8 }, "properties": { "halo": 0.8, "title": "古普鲁士人", "fontsize": 12, "tyid": "304001", "oid": "103:1576575175332", "color": "#262626" }, "geometry": { "type": "Point", "coordinates": [ 20.390625, 54.110943 ] } }
{ "type": "Feature", "tippecanoe": { "layer": "2AFCABED61D01583916171218", "minzoom": 2, "maxzoom": 8 }, "properties": { "halo": 0.8, "title": "阿勒曼尼人", "fontsize": 12, "tyid": "304001", "oid": "103:1576575175605", "color": "#262626" }, "geometry": { "type": "Point", "coordinates": [ 15.029297, 47.872144 ] } }
{ "type": "Feature", "tippecanoe": { "layer": "2AFCABED61D01583916171218", "minzoom": 2, "maxzoom": 8 }, "properties": { "halo": 0.8, "title": "伦巴第人", "fontsize": 12, "tyid": "304001", "oid": "103:1576575175286", "color": "#262626" }, "geometry": { "type": "Point", "coordinates": [ 16.083984, 47.219568 ] } }
{ "type": "Feature", "tippecanoe": { "layer": "2AFCABED61D01583916171218", "minzoom": 2, "maxzoom": 8 }, "properties": { "halo": 0.8, "title": "斯洛伐克人", "fontsize": 12, "tyid": "304001", "oid": "103:1576575175397", "color": "#262626" }, "geometry": { "type": "Point", "coordinates": [ 19.248047, 48.806863 ] } }
{ "type": "Feature", "tippecanoe": { "layer": "2AFCABED61D01583916171218", "minzoom": 2, "maxzoom": 8 }, "properties": { "halo": 0.8, "title": "古爱沙尼亚人", "fontsize": 12, "tyid": "304001", "oid": "103:1576575175638", "color": "#262626" }, "geometry": { "type": "Point", "coordinates": [ 25.576172, 58.995311 ] } }
{ "type": "Feature", "tippecanoe": { "layer": "2AFCABED61D01583916171218", "minzoom": 2, "maxzoom": 8 }, "properties": { "halo": 0.8, "title": "利沃尼亚人", "fontsize": 12, "tyid": "304001", "oid": "103:1576575175326", "color": "#262626" }, "geometry": { "type": "Point", "coordinates": [ 26.191406, 58.077876 ] } }
{ "type": "Feature", "tippecanoe": { "layer": "2AFCABED61D01583916171218", "minzoom": 2, "maxzoom": 8 }, "properties": { "halo": 0.8, "title": "拉特加莱人", "fontsize": 12, "tyid": "304001", "oid": "103:1576575175304", "color": "#262626" }, "geometry": { "type": "Point", "coordinates": [ 26.542969, 56.944974 ] } }
{ "type": "Feature", "tippecanoe": { "layer": "2AFCABED61D01583916171218", "minzoom": 2, "maxzoom": 8 }, "properties": { "halo": 0.8, "title": "沃茨人", "fontsize": 12, "tyid": "304001", "oid": "103:1576575175222", "color": "#262626" }, "geometry": { "type": "Point", "coordinates": [ 29.794922, 59.040555 ] } }
{ "type": "Feature", "tippecanoe": { "layer": "2AFCABED61D01583916171218", "minzoom": 2, "maxzoom": 8 }, "properties": { "halo": 0.8, "title": "萨莫吉希亚人", "fontsize": 12, "tyid": "304001", "oid": "103:1576575175396", "color": "#262626" }, "geometry": { "type": "Point", "coordinates": [ 23.203125, 55.578345 ] } }
{ "type": "Feature", "tippecanoe": { "layer": "2AFCABED61D01583916171218", "minzoom": 2, "maxzoom": 8 }, "properties": { "halo": 0.8, "title": "古立陶宛人", "fontsize": 12, "tyid": "304001", "oid": "103:1576575175307", "color": "#262626" }, "geometry": { "type": "Point", "coordinates": [ 25.224609, 54.265224 ] } }
{ "type": "Feature", "tippecanoe": { "layer": "2AFCABED61D01583916171218", "minzoom": 2, "maxzoom": 8 }, "properties": { "halo": 0.8, "title": "约特文基人", "fontsize": 12, "tyid": "304001", "oid": "103:1576575175560", "color": "#262626" }, "geometry": { "type": "Point", "coordinates": [ 23.027344, 53.956086 ] } }
{ "type": "Feature", "tippecanoe": { "layer": "2AFCABED61D01583916171218", "minzoom": 2, "maxzoom": 8 }, "properties": { "halo": 0.8, "title": "奥克施泰提亚人", "fontsize": 12, "tyid": "304001", "oid": "103:1576575175324", "color": "#262626" }, "geometry": { "type": "Point", "coordinates": [ 27.070312, 55.078367 ] } }
{ "type": "Feature", "tippecanoe": { "layer": "2AFCABED61D01583916171218", "minzoom": 2, "maxzoom": 8 }, "properties": { "halo": 0.8, "title": "斯科拉维尼人", "fontsize": 12, "tyid": "304001", "oid": "103:1576575175377", "color": "#262626" }, "geometry": { "type": "Point", "coordinates": [ 27.333984, 46.437857 ] } }
{ "type": "Feature", "tippecanoe": { "layer": "2AFCABED61D01583916171218", "minzoom": 2, "maxzoom": 8 }, "properties": { "halo": 0.8, "title": "东加林迪亚人", "fontsize": 12, "tyid": "304001", "oid": "103:1576575175367", "color": "#262626" }, "geometry": { "type": "Point", "coordinates": [ 34.980469, 55.329144 ] } }
{ "type": "Feature", "tippecanoe": { "layer": "2AFCABED61D01583916171218", "minzoom": 2, "maxzoom": 8 }, "properties": { "halo": 0.8, "title": "保加尔人", "fontsize": 12, "tyid": "304001", "oid": "103:1576575175323", "color": "#262626" }, "geometry": { "type": "Point", "coordinates": [ 42.978516, 51.124213 ] } }
{ "type": "Feature", "tippecanoe": { "layer": "2AFCABED61D01583916171218", "minzoom": 2, "maxzoom": 8 }, "properties": { "halo": 0.8, "title": "克里米亚哥特人", "fontsize": 12, "tyid": "304001", "oid": "103:1576575175582", "color": "#262626" }, "geometry": { "type": "Point", "coordinates": [ 34.189453, 46.073231 ] } }
{ "type": "Feature", "tippecanoe": { "layer": "2AFCABED61D01583916171218", "minzoom": 2, "maxzoom": 8 }, "properties": { "halo": 0.8, "title": "库特里格斯人", "fontsize": 12, "tyid": "304001", "oid": "103:1576575175579", "color": "#262626" }, "geometry": { "type": "Point", "coordinates": [ 39.111328, 48.341646 ] } }
{ "type": "Feature", "tippecanoe": { "layer": "2AFCABED61D01583916171218", "minzoom": 2, "maxzoom": 8 }, "properties": { "halo": 0.8, "title": "乌提格尔人", "fontsize": 12, "tyid": "304001", "oid": "103:1576575175445", "color": "#262626" }, "geometry": { "type": "Point", "coordinates": [ 41.572266, 46.619261 ] } }
{ "type": "Feature", "tippecanoe": { "layer": "2AFCABED61D01583916171218", "minzoom": 2, "maxzoom": 8 }, "properties": { "halo": 0.8, "title": "切尔克斯人", "fontsize": 12, "tyid": "304001", "oid": "103:1576575175347", "color": "#262626" }, "geometry": { "type": "Point", "coordinates": [ 40.781250, 44.276671 ] } }
{ "type": "Feature", "tippecanoe": { "layer": "2AFCABED61D01583916171218", "minzoom": 2, "maxzoom": 8 }, "properties": { "halo": 0.8, "title": "萨拉格尔人", "fontsize": 12, "tyid": "304001", "oid": "103:1576575175442", "color": "#262626" }, "geometry": { "type": "Point", "coordinates": [ 44.912109, 44.590467 ] } }
{ "type": "Feature", "tippecanoe": { "layer": "2AFCABED61D01583916171218", "minzoom": 2, "maxzoom": 8 }, "properties": { "halo": 0.8, "title": "阿兰人", "fontsize": 12, "tyid": "304001", "oid": "103:1576575175351", "color": "#262626" }, "geometry": { "type": "Point", "coordinates": [ 44.824219, 43.133061 ] } }
{ "type": "Feature", "tippecanoe": { "layer": "2AFCABED61D01583916171218", "minzoom": 2, "maxzoom": 8 }, "properties": { "halo": 0.8, "title": "拉基卡王国", "fontsize": 12, "tyid": "304000", "oid": "103:1576575175429", "color": "#202020" }, "geometry": { "type": "Point", "coordinates": [ 42.275391, 42.553080 ] } }
{ "type": "Feature", "tippecanoe": { "layer": "2AFCABED61D01583916171218", "minzoom": 2, "maxzoom": 8 }, "properties": { "halo": 0.8, "title": "萨珊伊比利亚", "fontsize": 12, "tyid": "304000", "oid": "103:1576575175337", "color": "#202020" }, "geometry": { "type": "Point", "coordinates": [ 44.121094, 41.771312 ] } }
{ "type": "Feature", "tippecanoe": { "layer": "2AFCABED61D01583916171218", "minzoom": 2, "maxzoom": 8 }, "properties": { "halo": 0.8, "title": "马乌鲁-罗马王国", "fontsize": 12, "tyid": "304000", "oid": "103:1576575175538", "color": "#202020" }, "geometry": { "type": "Point", "coordinates": [ 1.318359, 35.317366 ] } }
{ "type": "Feature", "tippecanoe": { "layer": "2AFCABED61D01583916171218", "minzoom": 2, "maxzoom": 8 }, "properties": { "halo": 0.8, "title": "盖图里人", "fontsize": 12, "tyid": "304001", "oid": "103:1576575175646", "color": "#262626" }, "geometry": { "type": "Point", "coordinates": [ 3.251953, 33.870416 ] } }
{ "type": "Feature", "tippecanoe": { "layer": "2AFCABED61D01583916171218", "minzoom": 2, "maxzoom": 8 }, "properties": { "halo": 0.8, "title": "奥拉王国", "fontsize": 12, "tyid": "304000", "oid": "103:1576575175553", "color": "#202020" }, "geometry": { "type": "Point", "coordinates": [ 6.328125, 34.957995 ] } }
{ "type": "Feature", "tippecanoe": { "layer": "2AFCABED61D01583916171218", "minzoom": 2, "maxzoom": 8 }, "properties": { "halo": 0.8, "title": "拉古阿坦部落联盟", "fontsize": 12, "tyid": "304001", "oid": "103:1576575175551", "color": "#262626" }, "geometry": { "type": "Point", "coordinates": [ 21.357422, 32.026706 ] } }
{ "type": "Feature", "tippecanoe": { "layer": "2AFCABED61D01583916171218", "minzoom": 2, "maxzoom": 8 }, "properties": { "halo": 0.8, "title": "加拉曼特王国", "fontsize": 12, "tyid": "304000", "oid": "103:1576575175633", "color": "#202020" }, "geometry": { "type": "Point", "coordinates": [ 13.886719, 26.902477 ] } }
{ "type": "Feature", "tippecanoe": { "layer": "2AFCABED61D01583916171218", "minzoom": 2, "maxzoom": 8 }, "properties": { "halo": 0.8, "title": "布拉-阿辛达-西卡文化", "fontsize": 12, "tyid": "304002", "oid": "103:1576575175224", "color": "#262626" }, "geometry": { "type": "Point", "coordinates": [ 1.757812, 12.983148 ] } }
{ "type": "Feature", "tippecanoe": { "layer": "2AFCABED61D01583916171218", "minzoom": 2, "maxzoom": 8 }, "properties": { "halo": 0.8, "title": "约鲁巴人", "fontsize": 12, "tyid": "304001", "oid": "103:1576575175235", "color": "#262626" }, "geometry": { "type": "Point", "coordinates": [ 3.779297, 7.885147 ] } }
{ "type": "Feature", "tippecanoe": { "layer": "2AFCABED61D01583916171218", "minzoom": 2, "maxzoom": 8 }, "properties": { "halo": 0.8, "title": "伊博人", "fontsize": 12, "tyid": "304001", "oid": "103:1576575175213", "color": "#262626" }, "geometry": { "type": "Point", "coordinates": [ 9.492188, 5.878332 ] } }
{ "type": "Feature", "tippecanoe": { "layer": "2AFCABED61D01583916171218", "minzoom": 2, "maxzoom": 8 }, "properties": { "halo": 0.8, "title": "奥邦奥孔伊塔王国", "fontsize": 12, "tyid": "304000", "oid": "103:1576575175227", "color": "#202020" }, "geometry": { "type": "Point", "coordinates": [ 7.558594, 5.441022 ] } }
{ "type": "Feature", "tippecanoe": { "layer": "2AFCABED61D01583916171218", "minzoom": 2, "maxzoom": 8 }, "properties": { "halo": 0.8, "title": "萨珊亚美尼亚", "fontsize": 12, "tyid": "304000", "oid": "103:1576575175353", "color": "#202020" }, "geometry": { "type": "Point", "coordinates": [ 43.505859, 39.639538 ] } }
{ "type": "Feature", "tippecanoe": { "layer": "2AFCABED61D01583916171218", "minzoom": 2, "maxzoom": 8 }, "properties": { "halo": 0.8, "title": "赫多凡部落", "fontsize": 12, "tyid": "304001", "oid": "103:1576575175285", "color": "#262626" }, "geometry": { "type": "Point", "coordinates": [ 41.396484, 26.509905 ] } }
{ "type": "Feature", "tippecanoe": { "layer": "2AFCABED61D01583916171218", "minzoom": 2, "maxzoom": 8 }, "properties": { "halo": 0.8, "title": "瓦努哈瓦兹", "fontsize": 12, "tyid": "304001", "oid": "103:1576575175197", "color": "#262626" }, "geometry": { "type": "Point", "coordinates": [ 40.781250, 23.322080 ] } }
{ "type": "Feature", "tippecanoe": { "layer": "2AFCABED61D01583916171218", "minzoom": 2, "maxzoom": 8 }, "properties": { "halo": 0.8, "title": "富尔人", "fontsize": 12, "tyid": "304001", "oid": "103:1576575175216", "color": "#262626" }, "geometry": { "type": "Point", "coordinates": [ 26.015625, 14.519780 ] } }
{ "type": "Feature", "tippecanoe": { "layer": "2AFCABED61D01583916171218", "minzoom": 2, "maxzoom": 8 }, "properties": { "halo": 0.8, "title": "努贝舍王国", "fontsize": 12, "tyid": "304000", "oid": "103:1576575175218", "color": "#202020" }, "geometry": { "type": "Point", "coordinates": [ 31.992188, 21.861499 ] } }
{ "type": "Feature", "tippecanoe": { "layer": "2AFCABED61D01583916171218", "minzoom": 2, "maxzoom": 8 }, "properties": { "halo": 0.8, "title": "马库里亚王国", "fontsize": 12, "tyid": "304000", "oid": "103:1576575175343", "color": "#202020" }, "geometry": { "type": "Point", "coordinates": [ 32.167969, 19.145168 ] } }
{ "type": "Feature", "tippecanoe": { "layer": "2AFCABED61D01583916171218", "minzoom": 2, "maxzoom": 8 }, "properties": { "halo": 0.8, "title": "努比亚人", "fontsize": 12, "tyid": "304001", "oid": "103:1576575175204", "color": "#262626" }, "geometry": { "type": "Point", "coordinates": [ 31.816406, 16.045813 ] } }
{ "type": "Feature", "tippecanoe": { "layer": "2AFCABED61D01583916171218", "minzoom": 2, "maxzoom": 8 }, "properties": { "halo": 0.8, "title": "贝扎人", "fontsize": 12, "tyid": "304001", "oid": "103:1576575175417", "color": "#262626" }, "geometry": { "type": "Point", "coordinates": [ 35.419922, 21.371244 ] } }
{ "type": "Feature", "tippecanoe": { "layer": "2AFCABED61D01583916171218", "minzoom": 2, "maxzoom": 8 }, "properties": { "halo": 0.8, "title": "伊曼科夫文化", "fontsize": 12, "tyid": "304002", "oid": "103:1576575175713", "color": "#262626" }, "geometry": { "type": "Point", "coordinates": [ 47.548828, 54.977614 ] } }
{ "type": "Feature", "tippecanoe": { "layer": "2AFCABED61D01583916171218", "minzoom": 2, "maxzoom": 8 }, "properties": { "halo": 0.8, "title": "布尔塔斯人", "fontsize": 12, "tyid": "304001", "oid": "103:1576575175433", "color": "#262626" }, "geometry": { "type": "Point", "coordinates": [ 47.812500, 53.173119 ] } }
{ "type": "Feature", "tippecanoe": { "layer": "2AFCABED61D01583916171218", "minzoom": 2, "maxzoom": 8 }, "properties": { "halo": 0.8, "title": "马扎尔人", "fontsize": 12, "tyid": "304001", "oid": "103:1576575175569", "color": "#262626" }, "geometry": { "type": "Point", "coordinates": [ 54.931641, 50.233152 ] } }
{ "type": "Feature", "tippecanoe": { "layer": "2AFCABED61D01583916171218", "minzoom": 2, "maxzoom": 8 }, "properties": { "halo": 0.8, "title": "乌古尔人", "fontsize": 12, "tyid": "304001", "oid": "103:1576575175373", "color": "#262626" }, "geometry": { "type": "Point", "coordinates": [ 46.054688, 46.679594 ] } }
{ "type": "Feature", "tippecanoe": { "layer": "2AFCABED61D01583916171218", "minzoom": 2, "maxzoom": 8 }, "properties": { "halo": 0.8, "title": "萨里尔王国", "fontsize": 12, "tyid": "304000", "oid": "103:1576575175345", "color": "#202020" }, "geometry": { "type": "Point", "coordinates": [ 47.109375, 42.228517 ] } }
{ "type": "Feature", "tippecanoe": { "layer": "2AFCABED61D01583916171218", "minzoom": 2, "maxzoom": 8 }, "properties": { "halo": 0.8, "title": "塞迦人", "fontsize": 12, "tyid": "304001", "oid": "103:1576575175468", "color": "#262626" }, "geometry": { "type": "Point", "coordinates": [ 54.667969, 43.068888 ] } }
{ "type": "Feature", "tippecanoe": { "layer": "2AFCABED61D01583916171218", "minzoom": 2, "maxzoom": 8 }, "properties": { "halo": 0.8, "title": "图巴斯利文化", "fontsize": 12, "tyid": "304001", "oid": "103:1576575175292", "color": "#262626" }, "geometry": { "type": "Point", "coordinates": [ 56.250000, 55.528631 ] } }
{ "type": "Feature", "tippecanoe": { "layer": "2AFCABED61D01583916171218", "minzoom": 2, "maxzoom": 8 }, "properties": { "halo": 0.8, "title": "阿夫里格王朝", "fontsize": 12, "tyid": "304000", "oid": "103:1576575175251", "color": "#202020" }, "geometry": { "type": "Point", "coordinates": [ 60.029297, 42.617791 ] } }
{ "type": "Feature", "tippecanoe": { "layer": "2AFCABED61D01583916171218", "minzoom": 2, "maxzoom": 8 }, "properties": { "halo": 0.8, "title": "焉耆国", "fontsize": 12, "tyid": "304000", "oid": "103:1576575175459", "color": "#202020" }, "geometry": { "type": "Point", "coordinates": [ 86.308594, 41.836828 ] } }
{ "type": "Feature", "tippecanoe": { "layer": "2AFCABED61D01583916171218", "minzoom": 2, "maxzoom": 8 }, "properties": { "halo": 0.8, "title": "麴氏高昌国", "fontsize": 12, "tyid": "304000", "oid": "103:1576575175693", "color": "#202020" }, "geometry": { "type": "Point", "coordinates": [ 89.648438, 42.747012 ] } }
{ "type": "Feature", "tippecanoe": { "layer": "2AFCABED61D01583916171218", "minzoom": 2, "maxzoom": 8 }, "properties": { "halo": 0.8, "title": "高加索阿尔巴尼亚王国", "fontsize": 12, "tyid": "304000", "oid": "103:1576575175354", "color": "#202020" }, "geometry": { "type": "Point", "coordinates": [ 46.845703, 40.647304 ] } }
{ "type": "Feature", "tippecanoe": { "layer": "2AFCABED61D01583916171218", "minzoom": 2, "maxzoom": 8 }, "properties": { "halo": 0.8, "title": "阿兹达巴部落", "fontsize": 12, "tyid": "304001", "oid": "103:1576575175233", "color": "#262626" }, "geometry": { "type": "Point", "coordinates": [ 58.798828, 22.268764 ] } }
{ "type": "Feature", "tippecanoe": { "layer": "2AFCABED61D01583916171218", "minzoom": 2, "maxzoom": 8 }, "properties": { "halo": 0.8, "title": "内扎克匈奴", "fontsize": 12, "tyid": "304000", "oid": "103:1576575175706", "color": "#202020" }, "geometry": { "type": "Point", "coordinates": [ 67.500000, 32.916485 ] } }
{ "type": "Feature", "tippecanoe": { "layer": "2AFCABED61D01583916171218", "minzoom": 2, "maxzoom": 8 }, "properties": { "halo": 0.8, "title": "疏勒国", "fontsize": 12, "tyid": "304000", "oid": "103:1576575175458", "color": "#202020" }, "geometry": { "type": "Point", "coordinates": [ 75.410156, 39.368279 ] } }
{ "type": "Feature", "tippecanoe": { "layer": "2AFCABED61D01583916171218", "minzoom": 2, "maxzoom": 8 }, "properties": { "halo": 0.8, "title": "勃律国", "fontsize": 12, "tyid": "304000", "oid": "103:1576575175520", "color": "#202020" }, "geometry": { "type": "Point", "coordinates": [ 74.794922, 35.603719 ] } }
{ "type": "Feature", "tippecanoe": { "layer": "2AFCABED61D01583916171218", "minzoom": 2, "maxzoom": 8 }, "properties": { "halo": 0.8, "title": "普西亚布蒂王朝", "fontsize": 12, "tyid": "304000", "oid": "103:1576575175704", "color": "#202020" }, "geometry": { "type": "Point", "coordinates": [ 77.519531, 29.382175 ] } }
{ "type": "Feature", "tippecanoe": { "layer": "2AFCABED61D01583916171218", "minzoom": 2, "maxzoom": 8 }, "properties": { "halo": 0.8, "title": "梅特拉卡王朝", "fontsize": 12, "tyid": "304000", "oid": "103:1576575175668", "color": "#202020" }, "geometry": { "type": "Point", "coordinates": [ 74.794922, 22.917923 ] } }
{ "type": "Feature", "tippecanoe": { "layer": "2AFCABED61D01583916171218", "minzoom": 2, "maxzoom": 8 }, "properties": { "halo": 0.8, "title": "龟兹国", "fontsize": 12, "tyid": "304000", "oid": "103:1576575175740", "color": "#202020" }, "geometry": { "type": "Point", "coordinates": [ 81.035156, 40.913513 ] } }
{ "type": "Feature", "tippecanoe": { "layer": "2AFCABED61D01583916171218", "minzoom": 2, "maxzoom": 8 }, "properties": { "halo": 0.8, "title": "女国", "fontsize": 12, "tyid": "304000", "oid": "103:1576575175689", "color": "#202020" }, "geometry": { "type": "Point", "coordinates": [ 80.244141, 34.885931 ] } }
{ "type": "Feature", "tippecanoe": { "layer": "2AFCABED61D01583916171218", "minzoom": 2, "maxzoom": 8 }, "properties": { "halo": 0.8, "title": "穆克里王朝", "fontsize": 12, "tyid": "304000", "oid": "103:1576575175703", "color": "#202020" }, "geometry": { "type": "Point", "coordinates": [ 80.419922, 27.371767 ] } }
{ "type": "Feature", "tippecanoe": { "layer": "2AFCABED61D01583916171218", "minzoom": 2, "maxzoom": 8 }, "properties": { "halo": 0.8, "title": "尼波罗国", "fontsize": 12, "tyid": "304000", "oid": "103:1576575175723", "color": "#202020" }, "geometry": { "type": "Point", "coordinates": [ 84.199219, 28.071980 ] } }
{ "type": "Feature", "tippecanoe": { "layer": "2AFCABED61D01583916171218", "minzoom": 2, "maxzoom": 8 }, "properties": { "halo": 0.8, "title": "耽摩栗底国", "fontsize": 12, "tyid": "304000", "oid": "103:1576575175741", "color": "#202020" }, "geometry": { "type": "Point", "coordinates": [ 88.593750, 22.593726 ] } }
{ "type": "Feature", "tippecanoe": { "layer": "2AFCABED61D01583916171218", "minzoom": 2, "maxzoom": 8 }, "properties": { "halo": 0.8, "title": "卡拉波拉王朝", "fontsize": 12, "tyid": "304000", "oid": "103:1576575175487", "color": "#202020" }, "geometry": { "type": "Point", "coordinates": [ 77.783203, 10.833306 ] } }
{ "type": "Feature", "tippecanoe": { "layer": "2AFCABED61D01583916171218", "minzoom": 2, "maxzoom": 8 }, "properties": { "halo": 0.8, "title": "韦湿奴甘地那王朝", "fontsize": 12, "tyid": "304000", "oid": "103:1576575175691", "color": "#202020" }, "geometry": { "type": "Point", "coordinates": [ 80.332031, 17.056785 ] } }
{ "type": "Feature", "tippecanoe": { "layer": "2AFCABED61D01583916171218", "minzoom": 2, "maxzoom": 8 }, "properties": { "halo": 0.8, "title": "梅卡拉潘都瓦湿王朝", "fontsize": 12, "tyid": "304000", "oid": "103:1576575175688", "color": "#202020" }, "geometry": { "type": "Point", "coordinates": [ 82.177734, 21.698265 ] } }
{ "type": "Feature", "tippecanoe": { "layer": "2AFCABED61D01583916171218", "minzoom": 2, "maxzoom": 8 }, "properties": { "halo": 0.8, "title": "帕拉瓦王朝", "fontsize": 12, "tyid": "304000", "oid": "103:1576575175659", "color": "#202020" }, "geometry": { "type": "Point", "coordinates": [ 79.189453, 14.519780 ] } }
{ "type": "Feature", "tippecanoe": { "layer": "2AFCABED61D01583916171218", "minzoom": 2, "maxzoom": 8 }, "properties": { "halo": 0.8, "title": "沙罗哈瓦王朝", "fontsize": 12, "tyid": "304000", "oid": "103:1576575175702", "color": "#202020" }, "geometry": { "type": "Point", "coordinates": [ 84.375000, 19.725342 ] } }
{ "type": "Feature", "tippecanoe": { "layer": "2AFCABED61D01583916171218", "minzoom": 2, "maxzoom": 8 }, "properties": { "halo": 0.8, "title": "阿努拉德普勒王国", "fontsize": 12, "tyid": "304000", "oid": "103:1576575175510", "color": "#202020" }, "geometry": { "type": "Point", "coordinates": [ 80.683594, 7.623887 ] } }
{ "type": "Feature", "tippecanoe": { "layer": "2AFCABED61D01583916171218", "minzoom": 2, "maxzoom": 8 }, "properties": { "halo": 0.8, "title": "地豆于", "fontsize": 12, "tyid": "304001", "oid": "103:1576575175701", "color": "#262626" }, "geometry": { "type": "Point", "coordinates": [ 117.421875, 45.583290 ] } }
{ "type": "Feature", "tippecanoe": { "layer": "2AFCABED61D01583916171218", "minzoom": 2, "maxzoom": 8 }, "properties": { "halo": 0.8, "title": "库莫奚", "fontsize": 12, "tyid": "304001", "oid": "103:1576575175669", "color": "#262626" }, "geometry": { "type": "Point", "coordinates": [ 118.828125, 42.940339 ] } }
{ "type": "Feature", "tippecanoe": { "layer": "2AFCABED61D01583916171218", "minzoom": 2, "maxzoom": 8 }, "properties": { "halo": 0.8, "title": "契丹", "fontsize": 12, "tyid": "304001", "oid": "103:1576575175673", "color": "#262626" }, "geometry": { "type": "Point", "coordinates": [ 122.343750, 43.771094 ] } }
{ "type": "Feature", "tippecanoe": { "layer": "2AFCABED61D01583916171218", "minzoom": 2, "maxzoom": 8 }, "properties": { "halo": 0.8, "title": "瓦曼王朝", "fontsize": 12, "tyid": "304000", "oid": "103:1576575175472", "color": "#202020" }, "geometry": { "type": "Point", "coordinates": [ 90.439453, 25.482951 ] } }
{ "type": "Feature", "tippecanoe": { "layer": "2AFCABED61D01583916171218", "minzoom": 2, "maxzoom": 8 }, "properties": { "halo": 0.8, "title": "三摩呾吒国", "fontsize": 12, "tyid": "304000", "oid": "103:1576575175738", "color": "#202020" }, "geometry": { "type": "Point", "coordinates": [ 90.791016, 23.322080 ] } }
{ "type": "Feature", "tippecanoe": { "layer": "2AFCABED61D01583916171218", "minzoom": 2, "maxzoom": 8 }, "properties": { "halo": 0.8, "title": "古曼尼普尔王国", "fontsize": 12, "tyid": "304000", "oid": "103:1576575175491", "color": "#202020" }, "geometry": { "type": "Point", "coordinates": [ 93.867188, 24.766785 ] } }
{ "type": "Feature", "tippecanoe": { "layer": "2AFCABED61D01583916171218", "minzoom": 2, "maxzoom": 8 }, "properties": { "halo": 0.8, "title": "附国", "fontsize": 12, "tyid": "304001", "oid": "103:1576575175660", "color": "#262626" }, "geometry": { "type": "Point", "coordinates": [ 100.371094, 31.728167 ] } }
{ "type": "Feature", "tippecanoe": { "layer": "2AFCABED61D01583916171218", "minzoom": 2, "maxzoom": 8 }, "properties": { "halo": 0.8, "title": "谢氏", "fontsize": 12, "tyid": "304002", "oid": "103:1576575175662", "color": "#262626" }, "geometry": { "type": "Point", "coordinates": [ 107.226562, 26.273714 ] } }
{ "type": "Feature", "tippecanoe": { "layer": "2AFCABED61D01583916171218", "minzoom": 2, "maxzoom": 8 }, "properties": { "halo": 0.8, "title": "达雅瓦底王国", "fontsize": 12, "tyid": "304000", "oid": "103:1576575175518", "color": "#202020" }, "geometry": { "type": "Point", "coordinates": [ 93.339844, 20.550509 ] } }
{ "type": "Feature", "tippecanoe": { "layer": "2AFCABED61D01583916171218", "minzoom": 2, "maxzoom": 8 }, "properties": { "halo": 0.8, "title": "直通王国", "fontsize": 12, "tyid": "304000", "oid": "103:1576575175169", "color": "#202020" }, "geometry": { "type": "Point", "coordinates": [ 95.185547, 17.056785 ] } }
{ "type": "Feature", "tippecanoe": { "layer": "2AFCABED61D01583916171218", "minzoom": 2, "maxzoom": 8 }, "properties": { "halo": 0.8, "title": "骠国", "fontsize": 12, "tyid": "304000", "oid": "103:1576575175172", "color": "#202020" }, "geometry": { "type": "Point", "coordinates": [ 95.888672, 21.125498 ] } }
{ "type": "Feature", "tippecanoe": { "layer": "2AFCABED61D01583916171218", "minzoom": 2, "maxzoom": 8 }, "properties": { "halo": 0.8, "title": "罗涡国", "fontsize": 12, "tyid": "304000", "oid": "103:1576575175170", "color": "#202020" }, "geometry": { "type": "Point", "coordinates": [ 100.019531, 15.961329 ] } }
{ "type": "Feature", "tippecanoe": { "layer": "2AFCABED61D01583916171218", "minzoom": 2, "maxzoom": 8 }, "properties": { "halo": 0.8, "title": "盘盘国", "fontsize": 12, "tyid": "304000", "oid": "103:1576575175486", "color": "#202020" }, "geometry": { "type": "Point", "coordinates": [ 99.404297, 8.581021 ] } }
{ "type": "Feature", "tippecanoe": { "layer": "2AFCABED61D01583916171218", "minzoom": 2, "maxzoom": 8 }, "properties": { "halo": 0.8, "title": "真腊王国", "fontsize": 12, "tyid": "304000", "oid": "103:1576575175725", "color": "#202020" }, "geometry": { "type": "Point", "coordinates": [ 106.259766, 13.923404 ] } }
{ "type": "Feature", "tippecanoe": { "layer": "2AFCABED61D01583916171218", "minzoom": 2, "maxzoom": 8 }, "properties": { "halo": 0.8, "title": "林邑国", "fontsize": 12, "tyid": "304000", "oid": "103:1576575175489", "color": "#202020" }, "geometry": { "type": "Point", "coordinates": [ 108.632812, 14.264383 ] } }
{ "type": "Feature", "tippecanoe": { "layer": "2AFCABED61D01583916171218", "minzoom": 2, "maxzoom": 8 }, "properties": { "halo": 0.8, "title": "赤土国", "fontsize": 12, "tyid": "304000", "oid": "103:1576575175657", "color": "#202020" }, "geometry": { "type": "Point", "coordinates": [ 102.304688, 5.353521 ] } }
{ "type": "Feature", "tippecanoe": { "layer": "2AFCABED61D01583916171218", "minzoom": 2, "maxzoom": 8 }, "properties": { "halo": 0.8, "title": "婆皇国", "fontsize": 12, "tyid": "304000", "oid": "103:1576575175679", "color": "#202020" }, "geometry": { "type": "Point", "coordinates": [ 102.480469, 3.776559 ] } }
{ "type": "Feature", "tippecanoe": { "layer": "2AFCABED61D01583916171218", "minzoom": 2, "maxzoom": 8 }, "properties": { "halo": 0.8, "title": "百济", "fontsize": 12, "tyid": "304000", "oid": "103:1576575175493", "color": "#202020" }, "geometry": { "type": "Point", "coordinates": [ 127.529297, 36.527295 ] } }
{ "type": "Feature", "tippecanoe": { "layer": "2AFCABED61D01583916171218", "minzoom": 2, "maxzoom": 8 }, "properties": { "halo": 0.8, "title": "新罗", "fontsize": 12, "tyid": "304000", "oid": "103:1576575175457", "color": "#202020" }, "geometry": { "type": "Point", "coordinates": [ 128.759766, 36.315125 ] } }
{ "type": "Feature", "tippecanoe": { "layer": "2AFCABED61D01583916171218", "minzoom": 2, "maxzoom": 8 }, "properties": { "halo": 0.8, "title": "尼夫赫人", "fontsize": 12, "tyid": "304001", "oid": "103:1576575175515", "color": "#262626" }, "geometry": { "type": "Point", "coordinates": [ 142.646484, 50.345460 ] } }
{ "type": "Feature", "tippecanoe": { "layer": "2AFCABED61D01583916171218", "minzoom": 2, "maxzoom": 8 }, "properties": { "halo": 0.8, "title": "绳文人", "fontsize": 12, "tyid": "304001", "oid": "103:1576575175719", "color": "#262626" }, "geometry": { "type": "Point", "coordinates": [ 142.558594, 43.389082 ] } }
{ "type": "Feature", "tippecanoe": { "layer": "2AFCABED61D01583916171218", "minzoom": 2, "maxzoom": 8 }, "properties": { "halo": 0.8, "title": "日高见国", "fontsize": 12, "tyid": "304000", "oid": "103:1576575175471", "color": "#202020" }, "geometry": { "type": "Point", "coordinates": [ 140.712891, 39.504041 ] } }
{ "type": "Feature", "tippecanoe": { "layer": "2AFCABED61D01583916171218", "minzoom": 2, "maxzoom": 8 }, "properties": { "halo": 0.8, "title": "艾布兰文化五期", "fontsize": 12, "tyid": "304002", "oid": "103:1576575175230", "color": "#262626" }, "geometry": { "type": "Point", "coordinates": [ 36.474609, -0.175781 ] } }
{ "type": "Feature", "tippecanoe": { "layer": "2AFCABED61D01583916171218", "minzoom": 2, "maxzoom": 8 }, "properties": { "halo": 0.8, "title": "斯瓦西里人", "fontsize": 12, "tyid": "304001", "oid": "103:1576575175217", "color": "#262626" }, "geometry": { "type": "Point", "coordinates": [ 39.726562, -10.746969 ] } }
{ "type": "Feature", "tippecanoe": { "layer": "2AFCABED61D01583916171218", "minzoom": 2, "maxzoom": 8 }, "properties": { "halo": 0.8, "title": "末罗瑜王国", "fontsize": 12, "tyid": "304000", "oid": "103:1576575175485", "color": "#202020" }, "geometry": { "type": "Point", "coordinates": [ 103.623047, -2.460181 ] } }
{ "type": "Feature", "tippecanoe": { "layer": "2AFCABED61D01583916171218", "minzoom": 2, "maxzoom": 8 }, "properties": { "halo": 0.8, "title": "库泰王国", "fontsize": 12, "tyid": "304000", "oid": "103:1576575175474", "color": "#202020" }, "geometry": { "type": "Point", "coordinates": [ 116.191406, 0.000000 ] } }
{ "type": "Feature", "tippecanoe": { "layer": "2AFCABED61D01583916171218", "minzoom": 2, "maxzoom": 8 }, "properties": { "halo": 0.8, "title": "巴拉瓦人", "fontsize": 12, "tyid": "304001", "oid": "103:1576575175525", "color": "#262626" }, "geometry": { "type": "Point", "coordinates": [ 146.513672, -41.967659 ] } }
{ "type": "Feature", "tippecanoe": { "layer": "2AFCABF940801583916171235", "minzoom": 2, "maxzoom": 8 }, "properties": { "halo": 1.6, "title": "古白令海文化", "fontsize": 12, "tyid": "304002", "oid": "103:1576575175294", "color": "#0056E7" }, "geometry": { "type": "Point", "coordinates": [ -170.332031, 63.470145 ] } }
{ "type": "Feature", "tippecanoe": { "layer": "2AFCABF940801583916171235", "minzoom": 2, "maxzoom": 8 }, "properties": { "halo": 1.6, "title": "梅奥人", "fontsize": 12, "tyid": "304001", "oid": "103:1576575175528", "color": "#0056E7" }, "geometry": { "type": "Point", "coordinates": [ -109.160156, 26.667096 ] } }
{ "type": "Feature", "tippecanoe": { "layer": "2AFCABF940801583916171235", "minzoom": 2, "maxzoom": 8 }, "properties": { "halo": 1.6, "title": "查尔奇维特斯文化", "fontsize": 12, "tyid": "304002", "oid": "103:1576575175711", "color": "#0056E7" }, "geometry": { "type": "Point", "coordinates": [ -103.974609, 23.483401 ] } }
{ "type": "Feature", "tippecanoe": { "layer": "2AFCABF940801583916171235", "minzoom": 2, "maxzoom": 8 }, "properties": { "halo": 1.6, "title": "巴希奥文化", "fontsize": 12, "tyid": "304002", "oid": "103:1576575175365", "color": "#0056E7" }, "geometry": { "type": "Point", "coordinates": [ -99.931641, 20.961440 ] } }
{ "type": "Feature", "tippecanoe": { "layer": "2AFCABF940801583916171235", "minzoom": 2, "maxzoom": 8 }, "properties": { "halo": 1.6, "title": "特奥蒂瓦坎", "fontsize": 12, "tyid": "304002", "oid": "103:1576575175221", "color": "#0056E7" }, "geometry": { "type": "Point", "coordinates": [ -99.404297, 19.808054 ] } }
{ "type": "Feature", "tippecanoe": { "layer": "2AFCABF940801583916171235", "minzoom": 2, "maxzoom": 8 }, "properties": { "halo": 1.6, "title": "圣米格尔伊克帕坦文化", "fontsize": 12, "tyid": "304002", "oid": "103:1576575175362", "color": "#0056E7" }, "geometry": { "type": "Point", "coordinates": [ -100.019531, 19.062118 ] } }
{ "type": "Feature", "tippecanoe": { "layer": "2AFCABF940801583916171235", "minzoom": 2, "maxzoom": 8 }, "properties": { "halo": 1.6, "title": "科韦克卡-琼塔尔文化", "fontsize": 12, "tyid": "304002", "oid": "103:1576575175575", "color": "#0056E7" }, "geometry": { "type": "Point", "coordinates": [ -99.667969, 18.062312 ] } }
{ "type": "Feature", "tippecanoe": { "layer": "2AFCABF940801583916171235", "minzoom": 2, "maxzoom": 8 }, "properties": { "halo": 1.6, "title": "托托纳克人", "fontsize": 12, "tyid": "304001", "oid": "103:1576575175268", "color": "#0056E7" }, "geometry": { "type": "Point", "coordinates": [ -98.349609, 20.220966 ] } }
{ "type": "Feature", "tippecanoe": { "layer": "2AFCABF940801583916171235", "minzoom": 2, "maxzoom": 8 }, "properties": { "halo": 1.6, "title": "古韦拉克鲁斯文化", "fontsize": 12, "tyid": "304002", "oid": "103:1576575175623", "color": "#0056E7" }, "geometry": { "type": "Point", "coordinates": [ -96.767578, 19.642588 ] } }
{ "type": "Feature", "tippecanoe": { "layer": "2AFCABF940801583916171235", "minzoom": 2, "maxzoom": 8 }, "properties": { "halo": 1.6, "title": "米斯特克人", "fontsize": 12, "tyid": "304001", "oid": "103:1576575175414", "color": "#0056E7" }, "geometry": { "type": "Point", "coordinates": [ -98.349609, 17.224758 ] } }
{ "type": "Feature", "tippecanoe": { "layer": "2AFCABF940801583916171235", "minzoom": 2, "maxzoom": 8 }, "properties": { "halo": 1.6, "title": "特里克人", "fontsize": 12, "tyid": "304001", "oid": "103:1576575175289", "color": "#0056E7" }, "geometry": { "type": "Point", "coordinates": [ -97.382812, 17.811456 ] } }
{ "type": "Feature", "tippecanoe": { "layer": "2AFCABF940801583916171235", "minzoom": 2, "maxzoom": 8 }, "properties": { "halo": 1.6, "title": "洛瓦贾达斯文化", "fontsize": 12, "tyid": "304002", "oid": "103:1576575175386", "color": "#0056E7" }, "geometry": { "type": "Point", "coordinates": [ -96.416016, 19.145168 ] } }
{ "type": "Feature", "tippecanoe": { "layer": "2AFCABF940801583916171235", "minzoom": 2, "maxzoom": 8 }, "properties": { "halo": 1.6, "title": "麦克斯人", "fontsize": 12, "tyid": "304001", "oid": "103:1576575175188", "color": "#0056E7" }, "geometry": { "type": "Point", "coordinates": [ -96.503906, 18.312811 ] } }
{ "type": "Feature", "tippecanoe": { "layer": "2AFCABF940801583916171235", "minzoom": 2, "maxzoom": 8 }, "properties": { "halo": 1.6, "title": "佐齐尔人", "fontsize": 12, "tyid": "304001", "oid": "103:1576575175629", "color": "#0056E7" }, "geometry": { "type": "Point", "coordinates": [ -93.339844, 16.551962 ] } }
{ "type": "Feature", "tippecanoe": { "layer": "2AFCABF940801583916171235", "minzoom": 2, "maxzoom": 8 }, "properties": { "halo": 1.6, "title": "祖赫人", "fontsize": 12, "tyid": "304001", "oid": "103:1576575175603", "color": "#0056E7" }, "geometry": { "type": "Point", "coordinates": [ -92.109375, 16.045813 ] } }
{ "type": "Feature", "tippecanoe": { "layer": "2AFCABF940801583916171235", "minzoom": 2, "maxzoom": 8 }, "properties": { "halo": 1.6, "title": "基切人", "fontsize": 12, "tyid": "304001", "oid": "103:1576575175220", "color": "#0056E7" }, "geometry": { "type": "Point", "coordinates": [ -90.966797, 15.029686 ] } }
{ "type": "Feature", "tippecanoe": { "layer": "2AFCABF940801583916171235", "minzoom": 2, "maxzoom": 8 }, "properties": { "halo": 1.6, "title": "怒溪文化", "fontsize": 12, "tyid": "304002", "oid": "103:1576575175243", "color": "#0056E7" }, "geometry": { "type": "Point", "coordinates": [ -72.421875, 41.574361 ] } }
{ "type": "Feature", "tippecanoe": { "layer": "2AFCABF940801583916171235", "minzoom": 2, "maxzoom": 8 }, "properties": { "halo": 1.6, "title": "埃里森-拉莫特文化", "fontsize": 12, "tyid": "304002", "oid": "103:1576575175455", "color": "#0056E7" }, "geometry": { "type": "Point", "coordinates": [ -87.626953, 39.095963 ] } }
{ "type": "Feature", "tippecanoe": { "layer": "2AFCABF940801583916171235", "minzoom": 2, "maxzoom": 8 }, "properties": { "halo": 1.6, "title": "凯兹池塘文化", "fontsize": 12, "tyid": "304002", "oid": "103:1576575175647", "color": "#0056E7" }, "geometry": { "type": "Point", "coordinates": [ -82.265625, 29.535230 ] } }
{ "type": "Feature", "tippecanoe": { "layer": "2AFCABF940801583916171235", "minzoom": 2, "maxzoom": 8 }, "properties": { "halo": 1.6, "title": "玛纳索塔文化", "fontsize": 12, "tyid": "304002", "oid": "103:1576575175619", "color": "#0056E7" }, "geometry": { "type": "Point", "coordinates": [ -82.441406, 27.683528 ] } }
{ "type": "Feature", "tippecanoe": { "layer": "2AFCABF940801583916171235", "minzoom": 2, "maxzoom": 8 }, "properties": { "halo": 1.6, "title": "卡卢萨哈契文化", "fontsize": 12, "tyid": "304002", "oid": "103:1576575175247", "color": "#0056E7" }, "geometry": { "type": "Point", "coordinates": [ -81.650391, 27.137368 ] } }
{ "type": "Feature", "tippecanoe": { "layer": "2AFCABF940801583916171235", "minzoom": 2, "maxzoom": 8 }, "properties": { "halo": 1.6, "title": "圣约翰文化", "fontsize": 12, "tyid": "304002", "oid": "103:1576575175283", "color": "#0056E7" }, "geometry": { "type": "Point", "coordinates": [ -81.474609, 29.382175 ] } }
{ "type": "Feature", "tippecanoe": { "layer": "2AFCABF940801583916171235", "minzoom": 2, "maxzoom": 8 }, "properties": { "halo": 1.6, "title": "贝尔格莱德文化", "fontsize": 12, "tyid": "304002", "oid": "103:1576575175276", "color": "#0056E7" }, "geometry": { "type": "Point", "coordinates": [ -80.859375, 27.527758 ] } }
{ "type": "Feature", "tippecanoe": { "layer": "2AFCABF940801583916171235", "minzoom": 2, "maxzoom": 8 }, "properties": { "halo": 1.6, "title": "格莱兹文化", "fontsize": 12, "tyid": "304002", "oid": "103:1576575175274", "color": "#0056E7" }, "geometry": { "type": "Point", "coordinates": [ -80.859375, 26.037042 ] } }
{ "type": "Feature", "tippecanoe": { "layer": "2AFCABF940801583916171235", "minzoom": 2, "maxzoom": 8 }, "properties": { "halo": 1.6, "title": "德贵斯塔族", "fontsize": 12, "tyid": "304001", "oid": "103:1576575175532", "color": "#0056E7" }, "geometry": { "type": "Point", "coordinates": [ -80.419922, 25.641526 ] } }
{ "type": "Feature", "tippecanoe": { "layer": "2AFCABF940801583916171235", "minzoom": 2, "maxzoom": 8 }, "properties": { "halo": 1.6, "title": "雷卡人", "fontsize": 12, "tyid": "304001", "oid": "103:1576575175263", "color": "#0056E7" }, "geometry": { "type": "Point", "coordinates": [ -87.802734, 13.923404 ] } }
{ "type": "Feature", "tippecanoe": { "layer": "2AFCABF940801583916171235", "minzoom": 2, "maxzoom": 8 }, "properties": { "halo": 1.6, "title": "迪基斯文化", "fontsize": 12, "tyid": "304002", "oid": "103:1576575175272", "color": "#0056E7" }, "geometry": { "type": "Point", "coordinates": [ -83.320312, 8.928487 ] } }
{ "type": "Feature", "tippecanoe": { "layer": "2AFCABF940801583916171235", "minzoom": 2, "maxzoom": 8 }, "properties": { "halo": 1.6, "title": "格兰科克勒文化", "fontsize": 12, "tyid": "304002", "oid": "103:1576575175201", "color": "#0056E7" }, "geometry": { "type": "Point", "coordinates": [ -80.507812, 8.581021 ] } }
{ "type": "Feature", "tippecanoe": { "layer": "2AFCABF940801583916171235", "minzoom": 2, "maxzoom": 8 }, "properties": { "halo": 1.8, "title": "泰罗纳", "fontsize": 12, "tyid": "304000", "oid": "103:1576575175600", "color": "#0056E7" }, "geometry": { "type": "Point", "coordinates": [ -73.564453, 10.833306 ] } }
{ "type": "Feature", "tippecanoe": { "layer": "2AFCABF940801583916171235", "minzoom": 2, "maxzoom": 8 }, "properties": { "halo": 1.6, "title": "约托科文化", "fontsize": 12, "tyid": "304002", "oid": "103:1576575175554", "color": "#0056E7" }, "geometry": { "type": "Point", "coordinates": [ -76.464844, 3.864255 ] } }
{ "type": "Feature", "tippecanoe": { "layer": "2AFCABF940801583916171235", "minzoom": 2, "maxzoom": 8 }, "properties": { "halo": 1.6, "title": "昆巴雅文明", "fontsize": 12, "tyid": "304002", "oid": "103:1576575175371", "color": "#0056E7" }, "geometry": { "type": "Point", "coordinates": [ -75.761719, 5.090944 ] } }
{ "type": "Feature", "tippecanoe": { "layer": "2AFCABF940801583916171235", "minzoom": 2, "maxzoom": 8 }, "properties": { "halo": 1.6, "title": "潘切人", "fontsize": 12, "tyid": "304001", "oid": "103:1576575175440", "color": "#0056E7" }, "geometry": { "type": "Point", "coordinates": [ -74.619141, 4.740675 ] } }
{ "type": "Feature", "tippecanoe": { "layer": "2AFCABF940801583916171235", "minzoom": 2, "maxzoom": 8 }, "properties": { "halo": 1.6, "title": "萨拉杜文化", "fontsize": 12, "tyid": "304002", "oid": "103:1576575175544", "color": "#0056E7" }, "geometry": { "type": "Point", "coordinates": [ -61.699219, 16.214675 ] } }
{ "type": "Feature", "tippecanoe": { "layer": "2AFCABF940801583916171235", "minzoom": 2, "maxzoom": 8 }, "properties": { "halo": 1.8, "title": "埃里克王国", "fontsize": 12, "tyid": "304000", "oid": "103:1576575175313", "color": "#0056E7" }, "geometry": { "type": "Point", "coordinates": [ -7.646484, 54.622978 ] } }
{ "type": "Feature", "tippecanoe": { "layer": "2AFCABF940801583916171235", "minzoom": 2, "maxzoom": 8 }, "properties": { "halo": 1.8, "title": "乌勒王国", "fontsize": 12, "tyid": "304000", "oid": "103:1576575175298", "color": "#0056E7" }, "geometry": { "type": "Point", "coordinates": [ -6.152344, 54.418930 ] } }
{ "type": "Feature", "tippecanoe": { "layer": "2AFCABF940801583916171235", "minzoom": 2, "maxzoom": 8 }, "properties": { "halo": 1.8, "title": "奥利尔王国", "fontsize": 12, "tyid": "304000", "oid": "103:1576575175359", "color": "#0056E7" }, "geometry": { "type": "Point", "coordinates": [ -7.031250, 54.110943 ] } }
{ "type": "Feature", "tippecanoe": { "layer": "2AFCABF940801583916171235", "minzoom": 2, "maxzoom": 8 }, "properties": { "halo": 1.8, "title": "斯特拉瑟克雷德王国", "fontsize": 12, "tyid": "304000", "oid": "103:1576575175573", "color": "#0056E7" }, "geometry": { "type": "Point", "coordinates": [ -4.218750, 55.429013 ] } }
{ "type": "Feature", "tippecanoe": { "layer": "2AFCABF940801583916171235", "minzoom": 2, "maxzoom": 8 }, "properties": { "halo": 1.8, "title": "格温内斯王国", "fontsize": 12, "tyid": "304000", "oid": "103:1576575175241", "color": "#0056E7" }, "geometry": { "type": "Point", "coordinates": [ -3.867188, 53.014783 ] } }
{ "type": "Feature", "tippecanoe": { "layer": "2AFCABF940801583916171235", "minzoom": 2, "maxzoom": 8 }, "properties": { "halo": 1.8, "title": "波威斯王国", "fontsize": 12, "tyid": "304000", "oid": "103:1576575175622", "color": "#0056E7" }, "geometry": { "type": "Point", "coordinates": [ -3.339844, 52.536273 ] } }
{ "type": "Feature", "tippecanoe": { "layer": "2AFCABF940801583916171235", "minzoom": 2, "maxzoom": 8 }, "properties": { "halo": 1.8, "title": "麦西亚王国", "fontsize": 12, "tyid": "304000", "oid": "103:1576575175368", "color": "#0056E7" }, "geometry": { "type": "Point", "coordinates": [ -1.406250, 52.749594 ] } }
{ "type": "Feature", "tippecanoe": { "layer": "2AFCABF940801583916171235", "minzoom": 2, "maxzoom": 8 }, "properties": { "halo": 1.8, "title": "锡尔迪金王国", "fontsize": 12, "tyid": "304000", "oid": "103:1576575175399", "color": "#0056E7" }, "geometry": { "type": "Point", "coordinates": [ -4.306641, 52.160455 ] } }
{ "type": "Feature", "tippecanoe": { "layer": "2AFCABF940801583916171235", "minzoom": 2, "maxzoom": 8 }, "properties": { "halo": 1.8, "title": "达费德王国", "fontsize": 12, "tyid": "304000", "oid": "103:1576575175300", "color": "#0056E7" }, "geometry": { "type": "Point", "coordinates": [ -4.042969, 51.890054 ] } }
{ "type": "Feature", "tippecanoe": { "layer": "2AFCABF940801583916171235", "minzoom": 2, "maxzoom": 8 }, "properties": { "halo": 1.8, "title": "布里奇尼奥格王国", "fontsize": 12, "tyid": "304000", "oid": "103:1576575175566", "color": "#0056E7" }, "geometry": { "type": "Point", "coordinates": [ -3.251953, 52.052490 ] } }
{ "type": "Feature", "tippecanoe": { "layer": "2AFCABF940801583916171235", "minzoom": 2, "maxzoom": 8 }, "properties": { "halo": 1.8, "title": "格利维辛王国", "fontsize": 12, "tyid": "304000", "oid": "103:1576575175316", "color": "#0056E7" }, "geometry": { "type": "Point", "coordinates": [ -3.427734, 51.672555 ] } }
{ "type": "Feature", "tippecanoe": { "layer": "2AFCABF940801583916171235", "minzoom": 2, "maxzoom": 8 }, "properties": { "halo": 1.8, "title": "格温特王国", "fontsize": 12, "tyid": "304000", "oid": "103:1576575175627", "color": "#0056E7" }, "geometry": { "type": "Point", "coordinates": [ -2.900391, 51.727028 ] } }
{ "type": "Feature", "tippecanoe": { "layer": "2AFCABF940801583916171235", "minzoom": 2, "maxzoom": 8 }, "properties": { "halo": 1.8, "title": "威塞克斯王国", "fontsize": 12, "tyid": "304000", "oid": "103:1576575175428", "color": "#0056E7" }, "geometry": { "type": "Point", "coordinates": [ -2.373047, 50.847573 ] } }
{ "type": "Feature", "tippecanoe": { "layer": "2AFCABF940801583916171235", "minzoom": 2, "maxzoom": 8 }, "properties": { "halo": 1.8, "title": "萨塞克斯王国", "fontsize": 12, "tyid": "304000", "oid": "103:1576575175454", "color": "#0056E7" }, "geometry": { "type": "Point", "coordinates": [ -0.263672, 51.013755 ] } }
{ "type": "Feature", "tippecanoe": { "layer": "2AFCABF940801583916171235", "minzoom": 2, "maxzoom": 8 }, "properties": { "halo": 1.6, "title": "阿斯图尔人", "fontsize": 12, "tyid": "304001", "oid": "103:1576575175446", "color": "#0056E7" }, "geometry": { "type": "Point", "coordinates": [ -5.537109, 42.811522 ] } }
{ "type": "Feature", "tippecanoe": { "layer": "2AFCABF940801583916171235", "minzoom": 2, "maxzoom": 8 }, "properties": { "halo": 1.6, "title": "坎塔布里人", "fontsize": 12, "tyid": "304001", "oid": "103:1576575175540", "color": "#0056E7" }, "geometry": { "type": "Point", "coordinates": [ -4.394531, 43.068888 ] } }
{ "type": "Feature", "tippecanoe": { "layer": "2AFCABF940801583916171235", "minzoom": 2, "maxzoom": 8 }, "properties": { "halo": 1.6, "title": "奥特里冈人", "fontsize": 12, "tyid": "304001", "oid": "103:1576575175715", "color": "#0056E7" }, "geometry": { "type": "Point", "coordinates": [ -3.339844, 43.004647 ] } }
{ "type": "Feature", "tippecanoe": { "layer": "2AFCABF940801583916171235", "minzoom": 2, "maxzoom": 8 }, "properties": { "halo": 1.6, "title": "卡斯蒂利人", "fontsize": 12, "tyid": "304001", "oid": "103:1576575175317", "color": "#0056E7" }, "geometry": { "type": "Point", "coordinates": [ -2.812500, 43.068888 ] } }
{ "type": "Feature", "tippecanoe": { "layer": "2AFCABF940801583916171235", "minzoom": 2, "maxzoom": 8 }, "properties": { "halo": 1.6, "title": "瓦杜里人", "fontsize": 12, "tyid": "304001", "oid": "103:1576575175312", "color": "#0056E7" }, "geometry": { "type": "Point", "coordinates": [ -2.285156, 42.940339 ] } }
{ "type": "Feature", "tippecanoe": { "layer": "2AFCABF940801583916171235", "minzoom": 2, "maxzoom": 8 }, "properties": { "halo": 1.6, "title": "巴斯克人", "fontsize": 12, "tyid": "304001", "oid": "103:1576575175310", "color": "#0056E7" }, "geometry": { "type": "Point", "coordinates": [ -1.494141, 42.811522 ] } }
{ "type": "Feature", "tippecanoe": { "layer": "2AFCABF940801583916171235", "minzoom": 2, "maxzoom": 8 }, "properties": { "halo": 1.6, "title": "关切人", "fontsize": 12, "tyid": "304001", "oid": "103:1576575175410", "color": "#0056E7" }, "geometry": { "type": "Point", "coordinates": [ -16.611328, 28.304381 ] } }
{ "type": "Feature", "tippecanoe": { "layer": "2AFCABF940801583916171235", "minzoom": 2, "maxzoom": 8 }, "properties": { "halo": 1.6, "title": "卡纳里人", "fontsize": 12, "tyid": "304001", "oid": "103:1576575175436", "color": "#0056E7" }, "geometry": { "type": "Point", "coordinates": [ -79.189453, -2.811371 ] } }
{ "type": "Feature", "tippecanoe": { "layer": "2AFCABF940801583916171235", "minzoom": 2, "maxzoom": 8 }, "properties": { "halo": 1.6, "title": "莫切文明", "fontsize": 12, "tyid": "304002", "oid": "103:1576575175589", "color": "#0056E7" }, "geometry": { "type": "Point", "coordinates": [ -79.013672, -7.623887 ] } }
{ "type": "Feature", "tippecanoe": { "layer": "2AFCABF940801583916171235", "minzoom": 2, "maxzoom": 8 }, "properties": { "halo": 1.6, "title": "维鲁文化", "fontsize": 12, "tyid": "304002", "oid": "103:1576575175288", "color": "#0056E7" }, "geometry": { "type": "Point", "coordinates": [ -78.837891, -8.320212 ] } }
{ "type": "Feature", "tippecanoe": { "layer": "2AFCABF940801583916171235", "minzoom": 2, "maxzoom": 8 }, "properties": { "halo": 1.6, "title": "卡哈马卡文化", "fontsize": 12, "tyid": "304002", "oid": "103:1576575175449", "color": "#0056E7" }, "geometry": { "type": "Point", "coordinates": [ -78.750000, -6.227934 ] } }
{ "type": "Feature", "tippecanoe": { "layer": "2AFCABF940801583916171235", "minzoom": 2, "maxzoom": 8 }, "properties": { "halo": 1.6, "title": "巴托文化", "fontsize": 12, "tyid": "304002", "oid": "103:1576575175249", "color": "#0056E7" }, "geometry": { "type": "Point", "coordinates": [ -71.367188, -33.211116 ] } }
{ "type": "Feature", "tippecanoe": { "layer": "2AFCABF940801583916171235", "minzoom": 2, "maxzoom": 8 }, "properties": { "halo": 1.6, "title": "塔夫文化", "fontsize": 12, "tyid": "304002", "oid": "103:1576575175580", "color": "#0056E7" }, "geometry": { "type": "Point", "coordinates": [ -65.654297, -26.980829 ] } }
{ "type": "Feature", "tippecanoe": { "layer": "2AFCABF940801583916171235", "minzoom": 2, "maxzoom": 8 }, "properties": { "halo": 1.6, "title": "豪什人", "fontsize": 12, "tyid": "304001", "oid": "103:1576575175637", "color": "#0056E7" }, "geometry": { "type": "Point", "coordinates": [ -65.917969, -54.724620 ] } }
{ "type": "Feature", "tippecanoe": { "layer": "2AFCABF940801583916171235", "minzoom": 2, "maxzoom": 8 }, "properties": { "halo": 1.6, "title": "哥得兰人", "fontsize": 12, "tyid": "304001", "oid": "103:1576575175649", "color": "#0056E7" }, "geometry": { "type": "Point", "coordinates": [ 18.457031, 57.515823 ] } }
{ "type": "Feature", "tippecanoe": { "layer": "2AFCABF940801583916171235", "minzoom": 2, "maxzoom": 8 }, "properties": { "halo": 1.8, "title": "埃塞克斯王国", "fontsize": 12, "tyid": "304000", "oid": "103:1576575175364", "color": "#0056E7" }, "geometry": { "type": "Point", "coordinates": [ 0.087891, 51.781436 ] } }
{ "type": "Feature", "tippecanoe": { "layer": "2AFCABF940801583916171235", "minzoom": 2, "maxzoom": 8 }, "properties": { "halo": 1.8, "title": "东盎格利亚王国", "fontsize": 12, "tyid": "304000", "oid": "103:1576575175256", "color": "#0056E7" }, "geometry": { "type": "Point", "coordinates": [ 0.966797, 52.482780 ] } }
{ "type": "Feature", "tippecanoe": { "layer": "2AFCABF940801583916171235", "minzoom": 2, "maxzoom": 8 }, "properties": { "halo": 1.8, "title": "肯特王国", "fontsize": 12, "tyid": "304000", "oid": "103:1576575175642", "color": "#0056E7" }, "geometry": { "type": "Point", "coordinates": [ 0.615234, 51.234407 ] } }
{ "type": "Feature", "tippecanoe": { "layer": "2AFCABF940801583916171235", "minzoom": 2, "maxzoom": 8 }, "properties": { "halo": 1.6, "title": "西加林迪亚人", "fontsize": 12, "tyid": "304001", "oid": "103:1576575175557", "color": "#0056E7" }, "geometry": { "type": "Point", "coordinates": [ 20.654297, 53.067627 ] } }
{ "type": "Feature", "tippecanoe": { "layer": "2AFCABF940801583916171235", "minzoom": 2, "maxzoom": 8 }, "properties": { "halo": 1.6, "title": "鲁基人", "fontsize": 12, "tyid": "304001", "oid": "103:1576575175244", "color": "#0056E7" }, "geometry": { "type": "Point", "coordinates": [ 14.501953, 48.690960 ] } }
{ "type": "Feature", "tippecanoe": { "layer": "2AFCABF940801583916171235", "minzoom": 2, "maxzoom": 8 }, "properties": { "halo": 1.6, "title": "圣马力诺共和国", "fontsize": 12, "tyid": "304001", "oid": "103:1576575175607", "color": "#0056E7" }, "geometry": { "type": "Point", "coordinates": [ 12.392578, 43.961191 ] } }
{ "type": "Feature", "tippecanoe": { "layer": "2AFCABF940801583916171235", "minzoom": 2, "maxzoom": 8 }, "properties": { "halo": 1.6, "title": "奥耶塞利人", "fontsize": 12, "tyid": "304001", "oid": "103:1576575175529", "color": "#0056E7" }, "geometry": { "type": "Point", "coordinates": [ 22.500000, 58.447733 ] } }
{ "type": "Feature", "tippecanoe": { "layer": "2AFCABF940801583916171235", "minzoom": 2, "maxzoom": 8 }, "properties": { "halo": 1.6, "title": "塞米加利亚人", "fontsize": 12, "tyid": "304001", "oid": "103:1576575175632", "color": "#0056E7" }, "geometry": { "type": "Point", "coordinates": [ 23.642578, 56.559482 ] } }
{ "type": "Feature", "tippecanoe": { "layer": "2AFCABF940801583916171235", "minzoom": 2, "maxzoom": 8 }, "properties": { "halo": 1.6, "title": "瑟罗尼亚人", "fontsize": 12, "tyid": "304001", "oid": "103:1576575175325", "color": "#0056E7" }, "geometry": { "type": "Point", "coordinates": [ 25.312500, 56.121060 ] } }
{ "type": "Feature", "tippecanoe": { "layer": "2AFCABF940801583916171235", "minzoom": 2, "maxzoom": 8 }, "properties": { "halo": 1.6, "title": "科尔基斯山中诸部", "fontsize": 12, "tyid": "304002", "oid": "103:1576575175425", "color": "#0056E7" }, "geometry": { "type": "Point", "coordinates": [ 40.429688, 43.389082 ] } }
{ "type": "Feature", "tippecanoe": { "layer": "2AFCABF940801583916171235", "minzoom": 2, "maxzoom": 8 }, "properties": { "halo": 1.6, "title": "古莱什部落", "fontsize": 12, "tyid": "304001", "oid": "103:1576575175284", "color": "#0056E7" }, "geometry": { "type": "Point", "coordinates": [ 39.990234, 21.616579 ] } }
{ "type": "Feature", "tippecanoe": { "layer": "2AFCABF940801583916171235", "minzoom": 2, "maxzoom": 8 }, "properties": { "halo": 1.8, "title": "石国", "fontsize": 12, "tyid": "304000", "oid": "103:1576575175478", "color": "#0056E7" }, "geometry": { "type": "Point", "coordinates": [ 69.345703, 41.442726 ] } }
{ "type": "Feature", "tippecanoe": { "layer": "2AFCABF940801583916171235", "minzoom": 2, "maxzoom": 8 }, "properties": { "halo": 1.8, "title": "安国", "fontsize": 12, "tyid": "304000", "oid": "103:1576575175479", "color": "#0056E7" }, "geometry": { "type": "Point", "coordinates": [ 64.511719, 39.842286 ] } }
{ "type": "Feature", "tippecanoe": { "layer": "2AFCABF940801583916171235", "minzoom": 2, "maxzoom": 8 }, "properties": { "halo": 1.8, "title": "何国", "fontsize": 12, "tyid": "304000", "oid": "103:1576575175475", "color": "#0056E7" }, "geometry": { "type": "Point", "coordinates": [ 65.742188, 39.977120 ] } }
{ "type": "Feature", "tippecanoe": { "layer": "2AFCABF940801583916171235", "minzoom": 2, "maxzoom": 8 }, "properties": { "halo": 1.8, "title": "史国", "fontsize": 12, "tyid": "304000", "oid": "103:1576575175480", "color": "#0056E7" }, "geometry": { "type": "Point", "coordinates": [ 66.621094, 39.027719 ] } }
{ "type": "Feature", "tippecanoe": { "layer": "2AFCABF940801583916171235", "minzoom": 2, "maxzoom": 8 }, "properties": { "halo": 1.8, "title": "康国", "fontsize": 12, "tyid": "304000", "oid": "103:1576575175481", "color": "#0056E7" }, "geometry": { "type": "Point", "coordinates": [ 66.972656, 39.707187 ] } }
{ "type": "Feature", "tippecanoe": { "layer": "2AFCABF940801583916171235", "minzoom": 2, "maxzoom": 8 }, "properties": { "halo": 1.8, "title": "曹国", "fontsize": 12, "tyid": "304000", "oid": "103:1576575175667", "color": "#0056E7" }, "geometry": { "type": "Point", "coordinates": [ 68.027344, 40.044438 ] } }
{ "type": "Feature", "tippecanoe": { "layer": "2AFCABF940801583916171235", "minzoom": 2, "maxzoom": 8 }, "properties": { "halo": 1.8, "title": "米国", "fontsize": 12, "tyid": "304000", "oid": "103:1576575175477", "color": "#0056E7" }, "geometry": { "type": "Point", "coordinates": [ 67.851562, 39.504041 ] } }
{ "type": "Feature", "tippecanoe": { "layer": "2AFCABF940801583916171235", "minzoom": 2, "maxzoom": 8 }, "properties": { "halo": 1.8, "title": "竭盘陀国", "fontsize": 12, "tyid": "304000", "oid": "103:1576575175658", "color": "#0056E7" }, "geometry": { "type": "Point", "coordinates": [ 75.234375, 37.996163 ] } }
{ "type": "Feature", "tippecanoe": { "layer": "2AFCABF940801583916171235", "minzoom": 2, "maxzoom": 8 }, "properties": { "halo": 1.8, "title": "罗昂", "fontsize": 12, "tyid": "304000", "oid": "103:1576575175502", "color": "#0056E7" }, "geometry": { "type": "Point", "coordinates": [ 89.208984, 29.152161 ] } }
{ "type": "Feature", "tippecanoe": { "layer": "2AFCABF940801583916171235", "minzoom": 2, "maxzoom": 8 }, "properties": { "halo": 1.8, "title": "藏", "fontsize": 12, "tyid": "304000", "oid": "103:1576575175505", "color": "#0056E7" }, "geometry": { "type": "Point", "coordinates": [ 89.736328, 28.844674 ] } }
{ "type": "Feature", "tippecanoe": { "layer": "2AFCABF940801583916171235", "minzoom": 2, "maxzoom": 8 }, "properties": { "halo": 1.8, "title": "卓木南木松", "fontsize": 12, "tyid": "304000", "oid": "103:1576575175508", "color": "#0056E7" }, "geometry": { "type": "Point", "coordinates": [ 88.945312, 27.839076 ] } }
{ "type": "Feature", "tippecanoe": { "layer": "2AFCABF940801583916171235", "minzoom": 2, "maxzoom": 8 }, "properties": { "halo": 1.8, "title": "阿拉帕王朝", "fontsize": 12, "tyid": "304000", "oid": "103:1576575175488", "color": "#0056E7" }, "geometry": { "type": "Point", "coordinates": [ 75.322266, 12.811801 ] } }
{ "type": "Feature", "tippecanoe": { "layer": "2AFCABF940801583916171235", "minzoom": 2, "maxzoom": 8 }, "properties": { "halo": 1.8, "title": "西恒伽王朝", "fontsize": 12, "tyid": "304000", "oid": "103:1576575175483", "color": "#0056E7" }, "geometry": { "type": "Point", "coordinates": [ 76.464844, 12.125264 ] } }
{ "type": "Feature", "tippecanoe": { "layer": "2AFCABF940801583916171235", "minzoom": 2, "maxzoom": 8 }, "properties": { "halo": 1.8, "title": "吉", "fontsize": 12, "tyid": "304000", "oid": "103:1576575175503", "color": "#0056E7" }, "geometry": { "type": "Point", "coordinates": [ 91.406250, 29.764377 ] } }
{ "type": "Feature", "tippecanoe": { "layer": "2AFCABF940801583916171235", "minzoom": 2, "maxzoom": 8 }, "properties": { "halo": 1.8, "title": "琛", "fontsize": 12, "tyid": "304000", "oid": "103:1576575175735", "color": "#0056E7" }, "geometry": { "type": "Point", "coordinates": [ 91.230469, 29.382175 ] } }
{ "type": "Feature", "tippecanoe": { "layer": "2AFCABF940801583916171235", "minzoom": 2, "maxzoom": 8 }, "properties": { "halo": 1.8, "title": "悉补野", "fontsize": 12, "tyid": "304000", "oid": "103:1576575175507", "color": "#0056E7" }, "geometry": { "type": "Point", "coordinates": [ 91.845703, 29.152161 ] } }
{ "type": "Feature", "tippecanoe": { "layer": "2AFCABF940801583916171235", "minzoom": 2, "maxzoom": 8 }, "properties": { "halo": 1.8, "title": "俄玉邦噶", "fontsize": 12, "tyid": "304000", "oid": "103:1576575175501", "color": "#0056E7" }, "geometry": { "type": "Point", "coordinates": [ 92.548828, 29.152161 ] } }
{ "type": "Feature", "tippecanoe": { "layer": "2AFCABF940801583916171235", "minzoom": 2, "maxzoom": 8 }, "properties": { "halo": 1.8, "title": "娘", "fontsize": 12, "tyid": "304000", "oid": "103:1576575175497", "color": "#0056E7" }, "geometry": { "type": "Point", "coordinates": [ 93.339844, 29.916852 ] } }
{ "type": "Feature", "tippecanoe": { "layer": "2AFCABF940801583916171235", "minzoom": 2, "maxzoom": 8 }, "properties": { "halo": 1.8, "title": "贡", "fontsize": 12, "tyid": "304000", "oid": "103:1576575175499", "color": "#0056E7" }, "geometry": { "type": "Point", "coordinates": [ 94.482422, 29.688053 ] } }
{ "type": "Feature", "tippecanoe": { "layer": "2AFCABF940801583916171235", "minzoom": 2, "maxzoom": 8 }, "properties": { "halo": 1.8, "title": "达", "fontsize": 12, "tyid": "304000", "oid": "103:1576575175495", "color": "#0056E7" }, "geometry": { "type": "Point", "coordinates": [ 93.603516, 29.152161 ] } }
{ "type": "Feature", "tippecanoe": { "layer": "2AFCABF940801583916171235", "minzoom": 2, "maxzoom": 8 }, "properties": { "halo": 1.8, "title": "宕昌国", "fontsize": 12, "tyid": "304000", "oid": "103:1576575175677", "color": "#0056E7" }, "geometry": { "type": "Point", "coordinates": [ 104.238281, 33.943360 ] } }
{ "type": "Feature", "tippecanoe": { "layer": "2AFCABF940801583916171235", "minzoom": 2, "maxzoom": 8 }, "properties": { "halo": 1.8, "title": "邓至国", "fontsize": 12, "tyid": "304000", "oid": "103:1576575175466", "color": "#0056E7" }, "geometry": { "type": "Point", "coordinates": [ 104.062500, 33.137551 ] } }
{ "type": "Feature", "tippecanoe": { "layer": "2AFCABF940801583916171235", "minzoom": 2, "maxzoom": 8 }, "properties": { "halo": 1.8, "title": "迦托诃国", "fontsize": 12, "tyid": "304000", "oid": "103:1576575175484", "color": "#0056E7" }, "geometry": { "type": "Point", "coordinates": [ 100.283203, 6.315299 ] } }
{ "type": "Feature", "tippecanoe": { "layer": "2AFCABF940801583916171235", "minzoom": 2, "maxzoom": 8 }, "properties": { "halo": 1.8, "title": "狼牙脩国", "fontsize": 12, "tyid": "304000", "oid": "103:1576575175490", "color": "#0056E7" }, "geometry": { "type": "Point", "coordinates": [ 100.898438, 6.053161 ] } }
{ "type": "Feature", "tippecanoe": { "layer": "2AFCABF940801583916171235", "minzoom": 2, "maxzoom": 8 }, "properties": { "halo": 1.8, "title": "刚迦王国", "fontsize": 12, "tyid": "304000", "oid": "103:1576575175656", "color": "#0056E7" }, "geometry": { "type": "Point", "coordinates": [ 101.074219, 4.828260 ] } }
{ "type": "Feature", "tippecanoe": { "layer": "2AFCABF940801583916171235", "minzoom": 2, "maxzoom": 8 }, "properties": { "halo": 1.8, "title": "丹丹国", "fontsize": 12, "tyid": "304000", "oid": "103:1576575175676", "color": "#0056E7" }, "geometry": { "type": "Point", "coordinates": [ 103.359375, 2.108899 ] } }
{ "type": "Feature", "tippecanoe": { "layer": "2AFCABF940801583916171235", "minzoom": 2, "maxzoom": 8 }, "properties": { "halo": 1.6, "title": "番仔园文化", "fontsize": 12, "tyid": "304002", "oid": "103:1576575175492", "color": "#0056E7" }, "geometry": { "type": "Point", "coordinates": [ 120.673828, 24.287027 ] } }
{ "type": "Feature", "tippecanoe": { "layer": "2AFCABF940801583916171235", "minzoom": 2, "maxzoom": 8 }, "properties": { "halo": 1.6, "title": "茑松文化", "fontsize": 12, "tyid": "304002", "oid": "103:1576575175651", "color": "#0056E7" }, "geometry": { "type": "Point", "coordinates": [ 120.322266, 23.079732 ] } }
{ "type": "Feature", "tippecanoe": { "layer": "2AFCABF940801583916171235", "minzoom": 2, "maxzoom": 8 }, "properties": { "halo": 1.6, "title": "龟山文化", "fontsize": 12, "tyid": "304002", "oid": "103:1576575175463", "color": "#0056E7" }, "geometry": { "type": "Point", "coordinates": [ 120.673828, 22.512557 ] } }
{ "type": "Feature", "tippecanoe": { "layer": "2AFCABF940801583916171235", "minzoom": 2, "maxzoom": 8 }, "properties": { "halo": 1.6, "title": "十三行文化", "fontsize": 12, "tyid": "304002", "oid": "103:1576575175682", "color": "#0056E7" }, "geometry": { "type": "Point", "coordinates": [ 121.376953, 24.846565 ] } }
{ "type": "Feature", "tippecanoe": { "layer": "2AFCABF940801583916171235", "minzoom": 2, "maxzoom": 8 }, "properties": { "halo": 1.6, "title": "静浦文化", "fontsize": 12, "tyid": "304002", "oid": "103:1576575175652", "color": "#0056E7" }, "geometry": { "type": "Point", "coordinates": [ 121.025391, 22.917923 ] } }
{ "type": "Feature", "tippecanoe": { "layer": "2AFCABF940801583916171235", "minzoom": 2, "maxzoom": 8 }, "properties": { "halo": 1.6, "title": "雅美文化", "fontsize": 12, "tyid": "304002", "oid": "103:1576575175465", "color": "#0056E7" }, "geometry": { "type": "Point", "coordinates": [ 121.464844, 22.105999 ] } }
{ "type": "Feature", "tippecanoe": { "layer": "2AFCABF940801583916171235", "minzoom": 2, "maxzoom": 8 }, "properties": { "halo": 1.8, "title": "耽罗国", "fontsize": 12, "tyid": "304000", "oid": "103:1576575175739", "color": "#0056E7" }, "geometry": { "type": "Point", "coordinates": [ 126.474609, 33.431441 ] } }
{ "type": "Feature", "tippecanoe": { "layer": "2AFCABF940801583916171235", "minzoom": 2, "maxzoom": 8 }, "properties": { "halo": 1.8, "title": "伽倻", "fontsize": 12, "tyid": "304000", "oid": "103:1576575175462", "color": "#0056E7" }, "geometry": { "type": "Point", "coordinates": [ 127.880859, 35.532226 ] } }
{ "type": "Feature", "tippecanoe": { "layer": "2AFCABF940801583916171235", "minzoom": 2, "maxzoom": 8 }, "properties": { "halo": 1.8, "title": "任那", "fontsize": 12, "tyid": "304000", "oid": "103:1576575175519", "color": "#0056E7" }, "geometry": { "type": "Point", "coordinates": [ 128.056641, 35.101934 ] } }
{ "type": "Feature", "tippecanoe": { "layer": "2AFCABF940801583916171235", "minzoom": 2, "maxzoom": 8 }, "properties": { "halo": 1.6, "title": "隼人", "fontsize": 12, "tyid": "304001", "oid": "103:1576575175473", "color": "#0056E7" }, "geometry": { "type": "Point", "coordinates": [ 130.869141, 32.026706 ] } }
{ "type": "Feature", "tippecanoe": { "layer": "2AFCABF940801583916171235", "minzoom": 2, "maxzoom": 8 }, "properties": { "halo": 1.6, "title": "尼格利陀人", "fontsize": 12, "tyid": "304001", "oid": "103:1576575175524", "color": "#0056E7" }, "geometry": { "type": "Point", "coordinates": [ 122.431641, 11.264612 ] } }
{ "type": "Feature", "tippecanoe": { "layer": "2AFCABF940801583916171235", "minzoom": 2, "maxzoom": 8 }, "properties": { "halo": 1.8, "title": "渤泥国", "fontsize": 12, "tyid": "304000", "oid": "103:1576575175464", "color": "#0056E7" }, "geometry": { "type": "Point", "coordinates": [ 114.785156, 4.302591 ] } }
{ "type": "Feature", "tippecanoe": { "layer": "2AFCABF940801583916171235", "minzoom": 2, "maxzoom": 8 }, "properties": { "halo": 1.8, "title": "塔卢马王国", "fontsize": 12, "tyid": "304000", "oid": "103:1576575175523", "color": "#0056E7" }, "geometry": { "type": "Point", "coordinates": [ 106.787109, -6.402648 ] } }
{ "type": "Feature", "tippecanoe": { "layer": "2AFCABF940801583916171235", "minzoom": 2, "maxzoom": 8 }, "properties": { "halo": 1.6, "title": "托雷斯海峡岛民", "fontsize": 12, "tyid": "304001", "oid": "103:1576575175526", "color": "#0056E7" }, "geometry": { "type": "Point", "coordinates": [ 142.382812, -11.264612 ] } }
{ "type": "Feature", "tippecanoe": { "layer": "2AFCABF9A9B01583916171220", "minzoom": 2, "maxzoom": 8 }, "properties": { "halo": 0.8, "title": "古白令海文化", "fontsize": 12, "tyid": "304002", "oid": "103:1576575175294", "color": "#262626" }, "geometry": { "type": "Point", "coordinates": [ -170.332031, 63.470145 ] } }
{ "type": "Feature", "tippecanoe": { "layer": "2AFCABF9A9B01583916171220", "minzoom": 2, "maxzoom": 8 }, "properties": { "halo": 0.8, "title": "梅奥人", "fontsize": 12, "tyid": "304001", "oid": "103:1576575175528", "color": "#262626" }, "geometry": { "type": "Point", "coordinates": [ -109.160156, 26.667096 ] } }
{ "type": "Feature", "tippecanoe": { "layer": "2AFCABF9A9B01583916171220", "minzoom": 2, "maxzoom": 8 }, "properties": { "halo": 0.8, "title": "查尔奇维特斯文化", "fontsize": 12, "tyid": "304002", "oid": "103:1576575175711", "color": "#262626" }, "geometry": { "type": "Point", "coordinates": [ -103.974609, 23.483401 ] } }
{ "type": "Feature", "tippecanoe": { "layer": "2AFCABF9A9B01583916171220", "minzoom": 2, "maxzoom": 8 }, "properties": { "halo": 0.8, "title": "巴希奥文化", "fontsize": 12, "tyid": "304002", "oid": "103:1576575175365", "color": "#262626" }, "geometry": { "type": "Point", "coordinates": [ -99.931641, 20.961440 ] } }
{ "type": "Feature", "tippecanoe": { "layer": "2AFCABF9A9B01583916171220", "minzoom": 2, "maxzoom": 8 }, "properties": { "halo": 0.8, "title": "特奥蒂瓦坎", "fontsize": 12, "tyid": "304002", "oid": "103:1576575175221", "color": "#262626" }, "geometry": { "type": "Point", "coordinates": [ -99.404297, 19.808054 ] } }
{ "type": "Feature", "tippecanoe": { "layer": "2AFCABF9A9B01583916171220", "minzoom": 2, "maxzoom": 8 }, "properties": { "halo": 0.8, "title": "圣米格尔伊克帕坦文化", "fontsize": 12, "tyid": "304002", "oid": "103:1576575175362", "color": "#262626" }, "geometry": { "type": "Point", "coordinates": [ -100.019531, 19.062118 ] } }
{ "type": "Feature", "tippecanoe": { "layer": "2AFCABF9A9B01583916171220", "minzoom": 2, "maxzoom": 8 }, "properties": { "halo": 0.8, "title": "科韦克卡-琼塔尔文化", "fontsize": 12, "tyid": "304002", "oid": "103:1576575175575", "color": "#262626" }, "geometry": { "type": "Point", "coordinates": [ -99.667969, 18.062312 ] } }
{ "type": "Feature", "tippecanoe": { "layer": "2AFCABF9A9B01583916171220", "minzoom": 2, "maxzoom": 8 }, "properties": { "halo": 0.8, "title": "托托纳克人", "fontsize": 12, "tyid": "304001", "oid": "103:1576575175268", "color": "#262626" }, "geometry": { "type": "Point", "coordinates": [ -98.349609, 20.220966 ] } }
{ "type": "Feature", "tippecanoe": { "layer": "2AFCABF9A9B01583916171220", "minzoom": 2, "maxzoom": 8 }, "properties": { "halo": 0.8, "title": "古韦拉克鲁斯文化", "fontsize": 12, "tyid": "304002", "oid": "103:1576575175623", "color": "#262626" }, "geometry": { "type": "Point", "coordinates": [ -96.767578, 19.642588 ] } }
{ "type": "Feature", "tippecanoe": { "layer": "2AFCABF9A9B01583916171220", "minzoom": 2, "maxzoom": 8 }, "properties": { "halo": 0.8, "title": "米斯特克人", "fontsize": 12, "tyid": "304001", "oid": "103:1576575175414", "color": "#262626" }, "geometry": { "type": "Point", "coordinates": [ -98.349609, 17.224758 ] } }
{ "type": "Feature", "tippecanoe": { "layer": "2AFCABF9A9B01583916171220", "minzoom": 2, "maxzoom": 8 }, "properties": { "halo": 0.8, "title": "特里克人", "fontsize": 12, "tyid": "304001", "oid": "103:1576575175289", "color": "#262626" }, "geometry": { "type": "Point", "coordinates": [ -97.382812, 17.811456 ] } }
{ "type": "Feature", "tippecanoe": { "layer": "2AFCABF9A9B01583916171220", "minzoom": 2, "maxzoom": 8 }, "properties": { "halo": 0.8, "title": "洛瓦贾达斯文化", "fontsize": 12, "tyid": "304002", "oid": "103:1576575175386", "color": "#262626" }, "geometry": { "type": "Point", "coordinates": [ -96.416016, 19.145168 ] } }
{ "type": "Feature", "tippecanoe": { "layer": "2AFCABF9A9B01583916171220", "minzoom": 2, "maxzoom": 8 }, "properties": { "halo": 0.8, "title": "麦克斯人", "fontsize": 12, "tyid": "304001", "oid": "103:1576575175188", "color": "#262626" }, "geometry": { "type": "Point", "coordinates": [ -96.503906, 18.312811 ] } }
{ "type": "Feature", "tippecanoe": { "layer": "2AFCABF9A9B01583916171220", "minzoom": 2, "maxzoom": 8 }, "properties": { "halo": 0.8, "title": "佐齐尔人", "fontsize": 12, "tyid": "304001", "oid": "103:1576575175629", "color": "#262626" }, "geometry": { "type": "Point", "coordinates": [ -93.339844, 16.551962 ] } }
{ "type": "Feature", "tippecanoe": { "layer": "2AFCABF9A9B01583916171220", "minzoom": 2, "maxzoom": 8 }, "properties": { "halo": 0.8, "title": "祖赫人", "fontsize": 12, "tyid": "304001", "oid": "103:1576575175603", "color": "#262626" }, "geometry": { "type": "Point", "coordinates": [ -92.109375, 16.045813 ] } }
{ "type": "Feature", "tippecanoe": { "layer": "2AFCABF9A9B01583916171220", "minzoom": 2, "maxzoom": 8 }, "properties": { "halo": 0.8, "title": "基切人", "fontsize": 12, "tyid": "304001", "oid": "103:1576575175220", "color": "#262626" }, "geometry": { "type": "Point", "coordinates": [ -90.966797, 15.029686 ] } }
{ "type": "Feature", "tippecanoe": { "layer": "2AFCABF9A9B01583916171220", "minzoom": 2, "maxzoom": 8 }, "properties": { "halo": 0.8, "title": "怒溪文化", "fontsize": 12, "tyid": "304002", "oid": "103:1576575175243", "color": "#262626" }, "geometry": { "type": "Point", "coordinates": [ -72.421875, 41.574361 ] } }
{ "type": "Feature", "tippecanoe": { "layer": "2AFCABF9A9B01583916171220", "minzoom": 2, "maxzoom": 8 }, "properties": { "halo": 0.8, "title": "埃里森-拉莫特文化", "fontsize": 12, "tyid": "304002", "oid": "103:1576575175455", "color": "#262626" }, "geometry": { "type": "Point", "coordinates": [ -87.626953, 39.095963 ] } }
{ "type": "Feature", "tippecanoe": { "layer": "2AFCABF9A9B01583916171220", "minzoom": 2, "maxzoom": 8 }, "properties": { "halo": 0.8, "title": "凯兹池塘文化", "fontsize": 12, "tyid": "304002", "oid": "103:1576575175647", "color": "#262626" }, "geometry": { "type": "Point", "coordinates": [ -82.265625, 29.535230 ] } }
{ "type": "Feature", "tippecanoe": { "layer": "2AFCABF9A9B01583916171220", "minzoom": 2, "maxzoom": 8 }, "properties": { "halo": 0.8, "title": "玛纳索塔文化", "fontsize": 12, "tyid": "304002", "oid": "103:1576575175619", "color": "#262626" }, "geometry": { "type": "Point", "coordinates": [ -82.441406, 27.683528 ] } }
{ "type": "Feature", "tippecanoe": { "layer": "2AFCABF9A9B01583916171220", "minzoom": 2, "maxzoom": 8 }, "properties": { "halo": 0.8, "title": "卡卢萨哈契文化", "fontsize": 12, "tyid": "304002", "oid": "103:1576575175247", "color": "#262626" }, "geometry": { "type": "Point", "coordinates": [ -81.650391, 27.137368 ] } }
{ "type": "Feature", "tippecanoe": { "layer": "2AFCABF9A9B01583916171220", "minzoom": 2, "maxzoom": 8 }, "properties": { "halo": 0.8, "title": "圣约翰文化", "fontsize": 12, "tyid": "304002", "oid": "103:1576575175283", "color": "#262626" }, "geometry": { "type": "Point", "coordinates": [ -81.474609, 29.382175 ] } }
{ "type": "Feature", "tippecanoe": { "layer": "2AFCABF9A9B01583916171220", "minzoom": 2, "maxzoom": 8 }, "properties": { "halo": 0.8, "title": "贝尔格莱德文化", "fontsize": 12, "tyid": "304002", "oid": "103:1576575175276", "color": "#262626" }, "geometry": { "type": "Point", "coordinates": [ -80.859375, 27.527758 ] } }
{ "type": "Feature", "tippecanoe": { "layer": "2AFCABF9A9B01583916171220", "minzoom": 2, "maxzoom": 8 }, "properties": { "halo": 0.8, "title": "格莱兹文化", "fontsize": 12, "tyid": "304002", "oid": "103:1576575175274", "color": "#262626" }, "geometry": { "type": "Point", "coordinates": [ -80.859375, 26.037042 ] } }
{ "type": "Feature", "tippecanoe": { "layer": "2AFCABF9A9B01583916171220", "minzoom": 2, "maxzoom": 8 }, "properties": { "halo": 0.8, "title": "德贵斯塔族", "fontsize": 12, "tyid": "304001", "oid": "103:1576575175532", "color": "#262626" }, "geometry": { "type": "Point", "coordinates": [ -80.419922, 25.641526 ] } }
{ "type": "Feature", "tippecanoe": { "layer": "2AFCABF9A9B01583916171220", "minzoom": 2, "maxzoom": 8 }, "properties": { "halo": 0.8, "title": "雷卡人", "fontsize": 12, "tyid": "304001", "oid": "103:1576575175263", "color": "#262626" }, "geometry": { "type": "Point", "coordinates": [ -87.802734, 13.923404 ] } }
{ "type": "Feature", "tippecanoe": { "layer": "2AFCABF9A9B01583916171220", "minzoom": 2, "maxzoom": 8 }, "properties": { "halo": 0.8, "title": "迪基斯文化", "fontsize": 12, "tyid": "304002", "oid": "103:1576575175272", "color": "#262626" }, "geometry": { "type": "Point", "coordinates": [ -83.320312, 8.928487 ] } }
{ "type": "Feature", "tippecanoe": { "layer": "2AFCABF9A9B01583916171220", "minzoom": 2, "maxzoom": 8 }, "properties": { "halo": 0.8, "title": "格兰科克勒文化", "fontsize": 12, "tyid": "304002", "oid": "103:1576575175201", "color": "#262626" }, "geometry": { "type": "Point", "coordinates": [ -80.507812, 8.581021 ] } }
{ "type": "Feature", "tippecanoe": { "layer": "2AFCABF9A9B01583916171220", "minzoom": 2, "maxzoom": 8 }, "properties": { "halo": 0.8, "title": "泰罗纳", "fontsize": 12, "tyid": "304000", "oid": "103:1576575175600", "color": "#202020" }, "geometry": { "type": "Point", "coordinates": [ -73.564453, 10.833306 ] } }
{ "type": "Feature", "tippecanoe": { "layer": "2AFCABF9A9B01583916171220", "minzoom": 2, "maxzoom": 8 }, "properties": { "halo": 0.8, "title": "约托科文化", "fontsize": 12, "tyid": "304002", "oid": "103:1576575175554", "color": "#262626" }, "geometry": { "type": "Point", "coordinates": [ -76.464844, 3.864255 ] } }
{ "type": "Feature", "tippecanoe": { "layer": "2AFCABF9A9B01583916171220", "minzoom": 2, "maxzoom": 8 }, "properties": { "halo": 0.8, "title": "昆巴雅文明", "fontsize": 12, "tyid": "304002", "oid": "103:1576575175371", "color": "#262626" }, "geometry": { "type": "Point", "coordinates": [ -75.761719, 5.090944 ] } }
{ "type": "Feature", "tippecanoe": { "layer": "2AFCABF9A9B01583916171220", "minzoom": 2, "maxzoom": 8 }, "properties": { "halo": 0.8, "title": "潘切人", "fontsize": 12, "tyid": "304001", "oid": "103:1576575175440", "color": "#262626" }, "geometry": { "type": "Point", "coordinates": [ -74.619141, 4.740675 ] } }
{ "type": "Feature", "tippecanoe": { "layer": "2AFCABF9A9B01583916171220", "minzoom": 2, "maxzoom": 8 }, "properties": { "halo": 0.8, "title": "萨拉杜文化", "fontsize": 12, "tyid": "304002", "oid": "103:1576575175544", "color": "#262626" }, "geometry": { "type": "Point", "coordinates": [ -61.699219, 16.214675 ] } }
{ "type": "Feature", "tippecanoe": { "layer": "2AFCABF9A9B01583916171220", "minzoom": 2, "maxzoom": 8 }, "properties": { "halo": 0.8, "title": "埃里克王国", "fontsize": 12, "tyid": "304000", "oid": "103:1576575175313", "color": "#202020" }, "geometry": { "type": "Point", "coordinates": [ -7.646484, 54.622978 ] } }
{ "type": "Feature", "tippecanoe": { "layer": "2AFCABF9A9B01583916171220", "minzoom": 2, "maxzoom": 8 }, "properties": { "halo": 0.8, "title": "乌勒王国", "fontsize": 12, "tyid": "304000", "oid": "103:1576575175298", "color": "#202020" }, "geometry": { "type": "Point", "coordinates": [ -6.152344, 54.418930 ] } }
{ "type": "Feature", "tippecanoe": { "layer": "2AFCABF9A9B01583916171220", "minzoom": 2, "maxzoom": 8 }, "properties": { "halo": 0.8, "title": "奥利尔王国", "fontsize": 12, "tyid": "304000", "oid": "103:1576575175359", "color": "#202020" }, "geometry": { "type": "Point", "coordinates": [ -7.031250, 54.110943 ] } }
{ "type": "Feature", "tippecanoe": { "layer": "2AFCABF9A9B01583916171220", "minzoom": 2, "maxzoom": 8 }, "properties": { "halo": 0.8, "title": "斯特拉瑟克雷德王国", "fontsize": 12, "tyid": "304000", "oid": "103:1576575175573", "color": "#202020" }, "geometry": { "type": "Point", "coordinates": [ -4.218750, 55.429013 ] } }
{ "type": "Feature", "tippecanoe": { "layer": "2AFCABF9A9B01583916171220", "minzoom": 2, "maxzoom": 8 }, "properties": { "halo": 0.8, "title": "格温内斯王国", "fontsize": 12, "tyid": "304000", "oid": "103:1576575175241", "color": "#202020" }, "geometry": { "type": "Point", "coordinates": [ -3.867188, 53.014783 ] } }
{ "type": "Feature", "tippecanoe": { "layer": "2AFCABF9A9B01583916171220", "minzoom": 2, "maxzoom": 8 }, "properties": { "halo": 0.8, "title": "波威斯王国", "fontsize": 12, "tyid": "304000", "oid": "103:1576575175622", "color": "#202020" }, "geometry": { "type": "Point", "coordinates": [ -3.339844, 52.536273 ] } }
{ "type": "Feature", "tippecanoe": { "layer": "2AFCABF9A9B01583916171220", "minzoom": 2, "maxzoom": 8 }, "properties": { "halo": 0.8, "title": "麦西亚王国", "fontsize": 12, "tyid": "304000", "oid": "103:1576575175368", "color": "#202020" }, "geometry": { "type": "Point", "coordinates": [ -1.406250, 52.749594 ] } }
{ "type": "Feature", "tippecanoe": { "layer": "2AFCABF9A9B01583916171220", "minzoom": 2, "maxzoom": 8 }, "properties": { "halo": 0.8, "title": "锡尔迪金王国", "fontsize": 12, "tyid": "304000", "oid": "103:1576575175399", "color": "#202020" }, "geometry": { "type": "Point", "coordinates": [ -4.306641, 52.160455 ] } }
{ "type": "Feature", "tippecanoe": { "layer": "2AFCABF9A9B01583916171220", "minzoom": 2, "maxzoom": 8 }, "properties": { "halo": 0.8, "title": "达费德王国", "fontsize": 12, "tyid": "304000", "oid": "103:1576575175300", "color": "#202020" }, "geometry": { "type": "Point", "coordinates": [ -4.042969, 51.890054 ] } }
{ "type": "Feature", "tippecanoe": { "layer": "2AFCABF9A9B01583916171220", "minzoom": 2, "maxzoom": 8 }, "properties": { "halo": 0.8, "title": "布里奇尼奥格王国", "fontsize": 12, "tyid": "304000", "oid": "103:1576575175566", "color": "#202020" }, "geometry": { "type": "Point", "coordinates": [ -3.251953, 52.052490 ] } }
{ "type": "Feature", "tippecanoe": { "layer": "2AFCABF9A9B01583916171220", "minzoom": 2, "maxzoom": 8 }, "properties": { "halo": 0.8, "title": "格利维辛王国", "fontsize": 12, "tyid": "304000", "oid": "103:1576575175316", "color": "#202020" },