{"year": "AD560",  "type": "Feature", "tippecanoe": { "layer": "2AFCABD439081583916102319", "minzoom": 2, "maxzoom": 8 }, "properties": { "halo": 1.6, "title": "古白令海文化", "fontsize": 12, "tyid": "304002", "oid": "103:1576922400788", "color": "#0056E7" }, "geometry": { "type": "Point", "coordinates": [ -170.332031, 63.470145 ] } }
{"year": "AD560",  "type": "Feature", "tippecanoe": { "layer": "2AFCABD439081583916102319", "minzoom": 2, "maxzoom": 8 }, "properties": { "halo": 1.6, "title": "梅奥人", "fontsize": 12, "tyid": "304001", "oid": "103:1576922400951", "color": "#0056E7" }, "geometry": { "type": "Point", "coordinates": [ -109.160156, 26.667096 ] } }
{"year": "AD560",  "type": "Feature", "tippecanoe": { "layer": "2AFCABD439081583916102319", "minzoom": 2, "maxzoom": 8 }, "properties": { "halo": 1.6, "title": "查尔奇维特斯文化", "fontsize": 12, "tyid": "304002", "oid": "103:1576922400941", "color": "#0056E7" }, "geometry": { "type": "Point", "coordinates": [ -103.974609, 23.483401 ] } }
{"year": "AD560",  "type": "Feature", "tippecanoe": { "layer": "2AFCABD439081583916102319", "minzoom": 2, "maxzoom": 8 }, "properties": { "halo": 1.6, "title": "巴希奥文化", "fontsize": 12, "tyid": "304002", "oid": "103:1576922400667", "color": "#0056E7" }, "geometry": { "type": "Point", "coordinates": [ -99.931641, 20.961440 ] } }
{"year": "AD560",  "type": "Feature", "tippecanoe": { "layer": "2AFCABD439081583916102319", "minzoom": 2, "maxzoom": 8 }, "properties": { "halo": 1.6, "title": "特奥蒂瓦坎", "fontsize": 12, "tyid": "304002", "oid": "103:1535120172522", "color": "#0056E7" }, "geometry": { "type": "Point", "coordinates": [ -99.404297, 19.808054 ] } }
{"year": "AD560",  "type": "Feature", "tippecanoe": { "layer": "2AFCABD439081583916102319", "minzoom": 2, "maxzoom": 8 }, "properties": { "halo": 1.6, "title": "圣米格尔伊克帕坦文化", "fontsize": 12, "tyid": "304002", "oid": "103:1576922400935", "color": "#0056E7" }, "geometry": { "type": "Point", "coordinates": [ -100.019531, 19.062118 ] } }
{"year": "AD560",  "type": "Feature", "tippecanoe": { "layer": "2AFCABD439081583916102319", "minzoom": 2, "maxzoom": 8 }, "properties": { "halo": 1.6, "title": "科韦克卡-琼塔尔文化", "fontsize": 12, "tyid": "304002", "oid": "103:1576922400927", "color": "#0056E7" }, "geometry": { "type": "Point", "coordinates": [ -99.667969, 18.062312 ] } }
{"year": "AD560",  "type": "Feature", "tippecanoe": { "layer": "2AFCABD439081583916102319", "minzoom": 2, "maxzoom": 8 }, "properties": { "halo": 1.6, "title": "托托纳克人", "fontsize": 12, "tyid": "304001", "oid": "103:1576922400618", "color": "#0056E7" }, "geometry": { "type": "Point", "coordinates": [ -98.349609, 20.220966 ] } }
{"year": "AD560",  "type": "Feature", "tippecanoe": { "layer": "2AFCABD439081583916102319", "minzoom": 2, "maxzoom": 8 }, "properties": { "halo": 1.6, "title": "古韦拉克鲁斯文化", "fontsize": 12, "tyid": "304002", "oid": "103:1576922400603", "color": "#0056E7" }, "geometry": { "type": "Point", "coordinates": [ -96.767578, 19.642588 ] } }
{"year": "AD560",  "type": "Feature", "tippecanoe": { "layer": "2AFCABD439081583916102319", "minzoom": 2, "maxzoom": 8 }, "properties": { "halo": 1.6, "title": "米斯特克人", "fontsize": 12, "tyid": "304001", "oid": "103:1535120172524", "color": "#0056E7" }, "geometry": { "type": "Point", "coordinates": [ -98.349609, 17.224758 ] } }
{"year": "AD560",  "type": "Feature", "tippecanoe": { "layer": "2AFCABD439081583916102319", "minzoom": 2, "maxzoom": 8 }, "properties": { "halo": 1.6, "title": "特里克人", "fontsize": 12, "tyid": "304001", "oid": "103:1576922400962", "color": "#0056E7" }, "geometry": { "type": "Point", "coordinates": [ -97.382812, 17.811456 ] } }
{"year": "AD560",  "type": "Feature", "tippecanoe": { "layer": "2AFCABD439081583916102319", "minzoom": 2, "maxzoom": 8 }, "properties": { "halo": 1.6, "title": "洛瓦贾达斯文化", "fontsize": 12, "tyid": "304002", "oid": "103:1576922400952", "color": "#0056E7" }, "geometry": { "type": "Point", "coordinates": [ -96.416016, 19.145168 ] } }
{"year": "AD560",  "type": "Feature", "tippecanoe": { "layer": "2AFCABD439081583916102319", "minzoom": 2, "maxzoom": 8 }, "properties": { "halo": 1.6, "title": "麦克斯人", "fontsize": 12, "tyid": "304001", "oid": "103:1576922400947", "color": "#0056E7" }, "geometry": { "type": "Point", "coordinates": [ -96.503906, 18.312811 ] } }
{"year": "AD560",  "type": "Feature", "tippecanoe": { "layer": "2AFCABD439081583916102319", "minzoom": 2, "maxzoom": 8 }, "properties": { "halo": 1.6, "title": "佐齐尔人", "fontsize": 12, "tyid": "304001", "oid": "103:1576922400852", "color": "#0056E7" }, "geometry": { "type": "Point", "coordinates": [ -93.339844, 16.551962 ] } }
{"year": "AD560",  "type": "Feature", "tippecanoe": { "layer": "2AFCABD439081583916102319", "minzoom": 2, "maxzoom": 8 }, "properties": { "halo": 1.6, "title": "祖赫人", "fontsize": 12, "tyid": "304001", "oid": "103:1576922400690", "color": "#0056E7" }, "geometry": { "type": "Point", "coordinates": [ -92.109375, 16.045813 ] } }
{"year": "AD560",  "type": "Feature", "tippecanoe": { "layer": "2AFCABD439081583916102319", "minzoom": 2, "maxzoom": 8 }, "properties": { "halo": 1.6, "title": "基切人", "fontsize": 12, "tyid": "304001", "oid": "103:1576922400417", "color": "#0056E7" }, "geometry": { "type": "Point", "coordinates": [ -90.966797, 15.029686 ] } }
{"year": "AD560",  "type": "Feature", "tippecanoe": { "layer": "2AFCABD439081583916102319", "minzoom": 2, "maxzoom": 8 }, "properties": { "halo": 1.6, "title": "怒溪文化", "fontsize": 12, "tyid": "304002", "oid": "103:1576922400412", "color": "#0056E7" }, "geometry": { "type": "Point", "coordinates": [ -72.421875, 41.574361 ] } }
{"year": "AD560",  "type": "Feature", "tippecanoe": { "layer": "2AFCABD439081583916102319", "minzoom": 2, "maxzoom": 8 }, "properties": { "halo": 1.6, "title": "埃里森-拉莫特文化", "fontsize": 12, "tyid": "304002", "oid": "103:1576922400530", "color": "#0056E7" }, "geometry": { "type": "Point", "coordinates": [ -87.626953, 39.095963 ] } }
{"year": "AD560",  "type": "Feature", "tippecanoe": { "layer": "2AFCABD439081583916102319", "minzoom": 2, "maxzoom": 8 }, "properties": { "halo": 1.6, "title": "凯兹池塘文化", "fontsize": 12, "tyid": "304002", "oid": "103:1576922400938", "color": "#0056E7" }, "geometry": { "type": "Point", "coordinates": [ -82.265625, 29.535230 ] } }
{"year": "AD560",  "type": "Feature", "tippecanoe": { "layer": "2AFCABD439081583916102319", "minzoom": 2, "maxzoom": 8 }, "properties": { "halo": 1.6, "title": "玛纳索塔文化", "fontsize": 12, "tyid": "304002", "oid": "103:1576922400802", "color": "#0056E7" }, "geometry": { "type": "Point", "coordinates": [ -82.441406, 27.683528 ] } }
{"year": "AD560",  "type": "Feature", "tippecanoe": { "layer": "2AFCABD439081583916102319", "minzoom": 2, "maxzoom": 8 }, "properties": { "halo": 1.6, "title": "卡卢萨哈契文化", "fontsize": 12, "tyid": "304002", "oid": "103:1576922400718", "color": "#0056E7" }, "geometry": { "type": "Point", "coordinates": [ -81.650391, 27.137368 ] } }
{"year": "AD560",  "type": "Feature", "tippecanoe": { "layer": "2AFCABD439081583916102319", "minzoom": 2, "maxzoom": 8 }, "properties": { "halo": 1.6, "title": "圣约翰文化", "fontsize": 12, "tyid": "304002", "oid": "103:1576922400721", "color": "#0056E7" }, "geometry": { "type": "Point", "coordinates": [ -81.474609, 29.382175 ] } }
{"year": "AD560",  "type": "Feature", "tippecanoe": { "layer": "2AFCABD439081583916102319", "minzoom": 2, "maxzoom": 8 }, "properties": { "halo": 1.6, "title": "贝尔格莱德文化", "fontsize": 12, "tyid": "304002", "oid": "103:1576922400891", "color": "#0056E7" }, "geometry": { "type": "Point", "coordinates": [ -80.859375, 27.527758 ] } }
{"year": "AD560",  "type": "Feature", "tippecanoe": { "layer": "2AFCABD439081583916102319", "minzoom": 2, "maxzoom": 8 }, "properties": { "halo": 1.6, "title": "格莱兹文化", "fontsize": 12, "tyid": "304002", "oid": "103:1576922400799", "color": "#0056E7" }, "geometry": { "type": "Point", "coordinates": [ -80.859375, 26.037042 ] } }
{"year": "AD560",  "type": "Feature", "tippecanoe": { "layer": "2AFCABD439081583916102319", "minzoom": 2, "maxzoom": 8 }, "properties": { "halo": 1.6, "title": "德贵斯塔族", "fontsize": 12, "tyid": "304001", "oid": "103:1576922400693", "color": "#0056E7" }, "geometry": { "type": "Point", "coordinates": [ -80.419922, 25.641526 ] } }
{"year": "AD560",  "type": "Feature", "tippecanoe": { "layer": "2AFCABD439081583916102319", "minzoom": 2, "maxzoom": 8 }, "properties": { "halo": 1.6, "title": "卡卡普拉人", "fontsize": 12, "tyid": "304001", "oid": "103:1576922400853", "color": "#0056E7" }, "geometry": { "type": "Point", "coordinates": [ -88.154297, 13.838080 ] } }
{"year": "AD560",  "type": "Feature", "tippecanoe": { "layer": "2AFCABD439081583916102319", "minzoom": 2, "maxzoom": 8 }, "properties": { "halo": 1.6, "title": "雷卡人", "fontsize": 12, "tyid": "304001", "oid": "103:1576922400480", "color": "#0056E7" }, "geometry": { "type": "Point", "coordinates": [ -87.275391, 13.667338 ] } }
{"year": "AD560",  "type": "Feature", "tippecanoe": { "layer": "2AFCABD439081583916102319", "minzoom": 2, "maxzoom": 8 }, "properties": { "halo": 1.6, "title": "迪基斯文化", "fontsize": 12, "tyid": "304002", "oid": "103:1576922400703", "color": "#0056E7" }, "geometry": { "type": "Point", "coordinates": [ -83.320312, 8.928487 ] } }
{"year": "AD560",  "type": "Feature", "tippecanoe": { "layer": "2AFCABD439081583916102319", "minzoom": 2, "maxzoom": 8 }, "properties": { "halo": 1.6, "title": "格兰科克勒文化", "fontsize": 12, "tyid": "304002", "oid": "103:1576922400637", "color": "#0056E7" }, "geometry": { "type": "Point", "coordinates": [ -80.507812, 8.581021 ] } }
{"year": "AD560",  "type": "Feature", "tippecanoe": { "layer": "2AFCABD439081583916102319", "minzoom": 2, "maxzoom": 8 }, "properties": { "halo": 1.8, "title": "泰罗纳", "fontsize": 12, "tyid": "304000", "oid": "103:1576922400741", "color": "#0056E7" }, "geometry": { "type": "Point", "coordinates": [ -73.564453, 10.833306 ] } }
{"year": "AD560",  "type": "Feature", "tippecanoe": { "layer": "2AFCABD439081583916102319", "minzoom": 2, "maxzoom": 8 }, "properties": { "halo": 1.6, "title": "约托科文化", "fontsize": 12, "tyid": "304002", "oid": "103:1576922400934", "color": "#0056E7" }, "geometry": { "type": "Point", "coordinates": [ -76.464844, 3.864255 ] } }
{"year": "AD560",  "type": "Feature", "tippecanoe": { "layer": "2AFCABD439081583916102319", "minzoom": 2, "maxzoom": 8 }, "properties": { "halo": 1.6, "title": "昆巴雅文明", "fontsize": 12, "tyid": "304002", "oid": "103:1576922401030", "color": "#0056E7" }, "geometry": { "type": "Point", "coordinates": [ -75.761719, 5.090944 ] } }
{"year": "AD560",  "type": "Feature", "tippecanoe": { "layer": "2AFCABD439081583916102319", "minzoom": 2, "maxzoom": 8 }, "properties": { "halo": 1.6, "title": "潘切人", "fontsize": 12, "tyid": "304001", "oid": "103:1576922400592", "color": "#0056E7" }, "geometry": { "type": "Point", "coordinates": [ -74.619141, 4.740675 ] } }
{"year": "AD560",  "type": "Feature", "tippecanoe": { "layer": "2AFCABD439081583916102319", "minzoom": 2, "maxzoom": 8 }, "properties": { "halo": 1.6, "title": "萨拉杜文化", "fontsize": 12, "tyid": "304002", "oid": "103:1576922400893", "color": "#0056E7" }, "geometry": { "type": "Point", "coordinates": [ -61.699219, 16.214675 ] } }
{"year": "AD560",  "type": "Feature", "tippecanoe": { "layer": "2AFCABD439081583916102319", "minzoom": 2, "maxzoom": 8 }, "properties": { "halo": 1.8, "title": "埃里克王国", "fontsize": 12, "tyid": "304000", "oid": "103:1576922400453", "color": "#0056E7" }, "geometry": { "type": "Point", "coordinates": [ -7.646484, 54.622978 ] } }
{"year": "AD560",  "type": "Feature", "tippecanoe": { "layer": "2AFCABD439081583916102319", "minzoom": 2, "maxzoom": 8 }, "properties": { "halo": 1.8, "title": "乌勒王国", "fontsize": 12, "tyid": "304000", "oid": "103:1576922400929", "color": "#0056E7" }, "geometry": { "type": "Point", "coordinates": [ -6.152344, 54.418930 ] } }
{"year": "AD560",  "type": "Feature", "tippecanoe": { "layer": "2AFCABD439081583916102319", "minzoom": 2, "maxzoom": 8 }, "properties": { "halo": 1.8, "title": "奥利尔王国", "fontsize": 12, "tyid": "304000", "oid": "103:1576922400589", "color": "#0056E7" }, "geometry": { "type": "Point", "coordinates": [ -7.031250, 54.110943 ] } }
{"year": "AD560",  "type": "Feature", "tippecanoe": { "layer": "2AFCABD439081583916102319", "minzoom": 2, "maxzoom": 8 }, "properties": { "halo": 1.8, "title": "斯特拉瑟克雷德王国", "fontsize": 12, "tyid": "304000", "oid": "103:1535120172694", "color": "#0056E7" }, "geometry": { "type": "Point", "coordinates": [ -4.218750, 55.429013 ] } }
{"year": "AD560",  "type": "Feature", "tippecanoe": { "layer": "2AFCABD439081583916102319", "minzoom": 2, "maxzoom": 8 }, "properties": { "halo": 1.8, "title": "格温内斯王国", "fontsize": 12, "tyid": "304000", "oid": "103:1576922400643", "color": "#0056E7" }, "geometry": { "type": "Point", "coordinates": [ -3.867188, 53.014783 ] } }
{"year": "AD560",  "type": "Feature", "tippecanoe": { "layer": "2AFCABD439081583916102319", "minzoom": 2, "maxzoom": 8 }, "properties": { "halo": 1.8, "title": "波威斯王国", "fontsize": 12, "tyid": "304000", "oid": "103:1576922400910", "color": "#0056E7" }, "geometry": { "type": "Point", "coordinates": [ -3.339844, 52.536273 ] } }
{"year": "AD560",  "type": "Feature", "tippecanoe": { "layer": "2AFCABD439081583916102319", "minzoom": 2, "maxzoom": 8 }, "properties": { "halo": 1.8, "title": "麦西亚王国", "fontsize": 12, "tyid": "304000", "oid": "103:1535120172700", "color": "#0056E7" }, "geometry": { "type": "Point", "coordinates": [ -1.406250, 52.749594 ] } }
{"year": "AD560",  "type": "Feature", "tippecanoe": { "layer": "2AFCABD439081583916102319", "minzoom": 2, "maxzoom": 8 }, "properties": { "halo": 1.8, "title": "锡尔迪金王国", "fontsize": 12, "tyid": "304000", "oid": "103:1576922400465", "color": "#0056E7" }, "geometry": { "type": "Point", "coordinates": [ -4.306641, 52.160455 ] } }
{"year": "AD560",  "type": "Feature", "tippecanoe": { "layer": "2AFCABD439081583916102319", "minzoom": 2, "maxzoom": 8 }, "properties": { "halo": 1.8, "title": "达费德王国", "fontsize": 12, "tyid": "304000", "oid": "103:1576922400925", "color": "#0056E7" }, "geometry": { "type": "Point", "coordinates": [ -4.042969, 51.890054 ] } }
{"year": "AD560",  "type": "Feature", "tippecanoe": { "layer": "2AFCABD439081583916102319", "minzoom": 2, "maxzoom": 8 }, "properties": { "halo": 1.8, "title": "布里奇尼奥格王国", "fontsize": 12, "tyid": "304000", "oid": "103:1576922400586", "color": "#0056E7" }, "geometry": { "type": "Point", "coordinates": [ -3.251953, 52.052490 ] } }
{"year": "AD560",  "type": "Feature", "tippecanoe": { "layer": "2AFCABD439081583916102319", "minzoom": 2, "maxzoom": 8 }, "properties": { "halo": 1.8, "title": "格利维辛王国", "fontsize": 12, "tyid": "304000", "oid": "103:1576922400424", "color": "#0056E7" }, "geometry": { "type": "Point", "coordinates": [ -3.427734, 51.672555 ] } }
{"year": "AD560",  "type": "Feature", "tippecanoe": { "layer": "2AFCABD439081583916102319", "minzoom": 2, "maxzoom": 8 }, "properties": { "halo": 1.8, "title": "格温特王国", "fontsize": 12, "tyid": "304000", "oid": "103:1576922400574", "color": "#0056E7" }, "geometry": { "type": "Point", "coordinates": [ -2.900391, 51.727028 ] } }
{"year": "AD560",  "type": "Feature", "tippecanoe": { "layer": "2AFCABD439081583916102319", "minzoom": 2, "maxzoom": 8 }, "properties": { "halo": 1.8, "title": "威塞克斯王国", "fontsize": 12, "tyid": "304000", "oid": "103:1535120172714", "color": "#0056E7" }, "geometry": { "type": "Point", "coordinates": [ -2.373047, 50.847573 ] } }
{"year": "AD560",  "type": "Feature", "tippecanoe": { "layer": "2AFCABD439081583916102319", "minzoom": 2, "maxzoom": 8 }, "properties": { "halo": 1.8, "title": "萨塞克斯王国", "fontsize": 12, "tyid": "304000", "oid": "103:1535120172711", "color": "#0056E7" }, "geometry": { "type": "Point", "coordinates": [ -0.263672, 51.013755 ] } }
{"year": "AD560",  "type": "Feature", "tippecanoe": { "layer": "2AFCABD439081583916102319", "minzoom": 2, "maxzoom": 8 }, "properties": { "halo": 1.6, "title": "阿斯图尔人", "fontsize": 12, "tyid": "304001", "oid": "103:1576922400441", "color": "#0056E7" }, "geometry": { "type": "Point", "coordinates": [ -5.537109, 42.811522 ] } }
{"year": "AD560",  "type": "Feature", "tippecanoe": { "layer": "2AFCABD439081583916102319", "minzoom": 2, "maxzoom": 8 }, "properties": { "halo": 1.6, "title": "坎塔布里人", "fontsize": 12, "tyid": "304001", "oid": "103:1576922400879", "color": "#0056E7" }, "geometry": { "type": "Point", "coordinates": [ -4.394531, 43.068888 ] } }
{"year": "AD560",  "type": "Feature", "tippecanoe": { "layer": "2AFCABD439081583916102319", "minzoom": 2, "maxzoom": 8 }, "properties": { "halo": 1.6, "title": "奥特里冈人", "fontsize": 12, "tyid": "304001", "oid": "103:1576922400451", "color": "#0056E7" }, "geometry": { "type": "Point", "coordinates": [ -3.339844, 43.004647 ] } }
{"year": "AD560",  "type": "Feature", "tippecanoe": { "layer": "2AFCABD439081583916102319", "minzoom": 2, "maxzoom": 8 }, "properties": { "halo": 1.6, "title": "卡斯蒂利人", "fontsize": 12, "tyid": "304001", "oid": "103:1576922400427", "color": "#0056E7" }, "geometry": { "type": "Point", "coordinates": [ -2.812500, 43.068888 ] } }
{"year": "AD560",  "type": "Feature", "tippecanoe": { "layer": "2AFCABD439081583916102319", "minzoom": 2, "maxzoom": 8 }, "properties": { "halo": 1.6, "title": "瓦杜里人", "fontsize": 12, "tyid": "304001", "oid": "103:1576922400877", "color": "#0056E7" }, "geometry": { "type": "Point", "coordinates": [ -2.285156, 42.940339 ] } }
{"year": "AD560",  "type": "Feature", "tippecanoe": { "layer": "2AFCABD439081583916102319", "minzoom": 2, "maxzoom": 8 }, "properties": { "halo": 1.6, "title": "巴斯克人", "fontsize": 12, "tyid": "304001", "oid": "103:1576922400443", "color": "#0056E7" }, "geometry": { "type": "Point", "coordinates": [ -1.494141, 42.811522 ] } }
{"year": "AD560",  "type": "Feature", "tippecanoe": { "layer": "2AFCABD439081583916102319", "minzoom": 2, "maxzoom": 8 }, "properties": { "halo": 1.6, "title": "关切人", "fontsize": 12, "tyid": "304001", "oid": "103:1576922400950", "color": "#0056E7" }, "geometry": { "type": "Point", "coordinates": [ -16.611328, 28.304381 ] } }
{"year": "AD560",  "type": "Feature", "tippecanoe": { "layer": "2AFCABD439081583916102319", "minzoom": 2, "maxzoom": 8 }, "properties": { "halo": 1.6, "title": "卡纳里人", "fontsize": 12, "tyid": "304001", "oid": "103:1576922400476", "color": "#0056E7" }, "geometry": { "type": "Point", "coordinates": [ -79.189453, -2.811371 ] } }
{"year": "AD560",  "type": "Feature", "tippecanoe": { "layer": "2AFCABD439081583916102319", "minzoom": 2, "maxzoom": 8 }, "properties": { "halo": 1.6, "title": "莫切文明", "fontsize": 12, "tyid": "304002", "oid": "103:1535120172529", "color": "#0056E7" }, "geometry": { "type": "Point", "coordinates": [ -79.013672, -7.623887 ] } }
{"year": "AD560",  "type": "Feature", "tippecanoe": { "layer": "2AFCABD439081583916102319", "minzoom": 2, "maxzoom": 8 }, "properties": { "halo": 1.6, "title": "维鲁文化", "fontsize": 12, "tyid": "304002", "oid": "103:1576922400695", "color": "#0056E7" }, "geometry": { "type": "Point", "coordinates": [ -78.837891, -8.320212 ] } }
{"year": "AD560",  "type": "Feature", "tippecanoe": { "layer": "2AFCABD439081583916102319", "minzoom": 2, "maxzoom": 8 }, "properties": { "halo": 1.6, "title": "卡哈马卡文化", "fontsize": 12, "tyid": "304002", "oid": "103:1576922400597", "color": "#0056E7" }, "geometry": { "type": "Point", "coordinates": [ -78.750000, -6.227934 ] } }
{"year": "AD560",  "type": "Feature", "tippecanoe": { "layer": "2AFCABD439081583916102319", "minzoom": 2, "maxzoom": 8 }, "properties": { "halo": 1.6, "title": "巴托文化", "fontsize": 12, "tyid": "304002", "oid": "103:1576922400648", "color": "#0056E7" }, "geometry": { "type": "Point", "coordinates": [ -71.367188, -33.211116 ] } }
{"year": "AD560",  "type": "Feature", "tippecanoe": { "layer": "2AFCABD439081583916102319", "minzoom": 2, "maxzoom": 8 }, "properties": { "halo": 1.6, "title": "塔夫文化", "fontsize": 12, "tyid": "304002", "oid": "103:1576922400931", "color": "#0056E7" }, "geometry": { "type": "Point", "coordinates": [ -65.654297, -26.980829 ] } }
{"year": "AD560",  "type": "Feature", "tippecanoe": { "layer": "2AFCABD439081583916102319", "minzoom": 2, "maxzoom": 8 }, "properties": { "halo": 1.6, "title": "豪什人", "fontsize": 12, "tyid": "304001", "oid": "103:1576922400797", "color": "#0056E7" }, "geometry": { "type": "Point", "coordinates": [ -65.917969, -54.724620 ] } }
{"year": "AD560",  "type": "Feature", "tippecanoe": { "layer": "2AFCABD439081583916102319", "minzoom": 2, "maxzoom": 8 }, "properties": { "halo": 1.6, "title": "哥得兰人", "fontsize": 12, "tyid": "304001", "oid": "103:1576922400535", "color": "#0056E7" }, "geometry": { "type": "Point", "coordinates": [ 18.457031, 57.515823 ] } }
{"year": "AD560",  "type": "Feature", "tippecanoe": { "layer": "2AFCABD439081583916102319", "minzoom": 2, "maxzoom": 8 }, "properties": { "halo": 1.8, "title": "埃塞克斯王国", "fontsize": 12, "tyid": "304000", "oid": "103:1535120172706", "color": "#0056E7" }, "geometry": { "type": "Point", "coordinates": [ 0.087891, 51.781436 ] } }
{"year": "AD560",  "type": "Feature", "tippecanoe": { "layer": "2AFCABD439081583916102319", "minzoom": 2, "maxzoom": 8 }, "properties": { "halo": 1.8, "title": "东盎格利亚王国", "fontsize": 12, "tyid": "304000", "oid": "103:1535120172703", "color": "#0056E7" }, "geometry": { "type": "Point", "coordinates": [ 0.966797, 52.482780 ] } }
{"year": "AD560",  "type": "Feature", "tippecanoe": { "layer": "2AFCABD439081583916102319", "minzoom": 2, "maxzoom": 8 }, "properties": { "halo": 1.8, "title": "肯特王国", "fontsize": 12, "tyid": "304000", "oid": "103:1535120172708", "color": "#0056E7" }, "geometry": { "type": "Point", "coordinates": [ 0.615234, 51.234407 ] } }
{"year": "AD560",  "type": "Feature", "tippecanoe": { "layer": "2AFCABD439081583916102319", "minzoom": 2, "maxzoom": 8 }, "properties": { "halo": 1.6, "title": "弗里斯兰人", "fontsize": 12, "tyid": "304001", "oid": "103:1576922400641", "color": "#0056E7" }, "geometry": { "type": "Point", "coordinates": [ 6.152344, 53.120405 ] } }
{"year": "AD560",  "type": "Feature", "tippecanoe": { "layer": "2AFCABD439081583916102319", "minzoom": 2, "maxzoom": 8 }, "properties": { "halo": 1.6, "title": "盎格鲁人", "fontsize": 12, "tyid": "304001", "oid": "103:1576922400968", "color": "#0056E7" }, "geometry": { "type": "Point", "coordinates": [ 9.492188, 54.265224 ] } }
{"year": "AD560",  "type": "Feature", "tippecanoe": { "layer": "2AFCABD439081583916102319", "minzoom": 2, "maxzoom": 8 }, "properties": { "halo": 1.6, "title": "乌克人", "fontsize": 12, "tyid": "304001", "oid": "103:1576922400731", "color": "#0056E7" }, "geometry": { "type": "Point", "coordinates": [ 13.798828, 53.330873 ] } }
{"year": "AD560",  "type": "Feature", "tippecanoe": { "layer": "2AFCABD439081583916102319", "minzoom": 2, "maxzoom": 8 }, "properties": { "halo": 1.6, "title": "西加林迪亚人", "fontsize": 12, "tyid": "304001", "oid": "103:1576922400885", "color": "#0056E7" }, "geometry": { "type": "Point", "coordinates": [ 20.917969, 53.278353 ] } }
{"year": "AD560",  "type": "Feature", "tippecanoe": { "layer": "2AFCABD439081583916102319", "minzoom": 2, "maxzoom": 8 }, "properties": { "halo": 1.6, "title": "圣马力诺共和国", "fontsize": 12, "tyid": "304001", "oid": "103:1576922400865", "color": "#0056E7" }, "geometry": { "type": "Point", "coordinates": [ 12.392578, 43.961191 ] } }
{"year": "AD560",  "type": "Feature", "tippecanoe": { "layer": "2AFCABD439081583916102319", "minzoom": 2, "maxzoom": 8 }, "properties": { "halo": 1.6, "title": "奥耶塞利人", "fontsize": 12, "tyid": "304001", "oid": "103:1576922400789", "color": "#0056E7" }, "geometry": { "type": "Point", "coordinates": [ 22.500000, 58.447733 ] } }
{"year": "AD560",  "type": "Feature", "tippecanoe": { "layer": "2AFCABD439081583916102319", "minzoom": 2, "maxzoom": 8 }, "properties": { "halo": 1.6, "title": "塞米加利亚人", "fontsize": 12, "tyid": "304001", "oid": "103:1576922400862", "color": "#0056E7" }, "geometry": { "type": "Point", "coordinates": [ 23.642578, 56.559482 ] } }
{"year": "AD560",  "type": "Feature", "tippecanoe": { "layer": "2AFCABD439081583916102319", "minzoom": 2, "maxzoom": 8 }, "properties": { "halo": 1.6, "title": "瑟罗尼亚人", "fontsize": 12, "tyid": "304001", "oid": "103:1576922400870", "color": "#0056E7" }, "geometry": { "type": "Point", "coordinates": [ 25.312500, 56.121060 ] } }
{"year": "AD560",  "type": "Feature", "tippecanoe": { "layer": "2AFCABD439081583916102319", "minzoom": 2, "maxzoom": 8 }, "properties": { "halo": 1.6, "title": "科尔基斯山中诸部", "fontsize": 12, "tyid": "304002", "oid": "103:1576922400566", "color": "#0056E7" }, "geometry": { "type": "Point", "coordinates": [ 40.429688, 43.389082 ] } }
{"year": "AD560",  "type": "Feature", "tippecanoe": { "layer": "2AFCABD439081583916102319", "minzoom": 2, "maxzoom": 8 }, "properties": { "halo": 1.6, "title": "古莱什部落", "fontsize": 12, "tyid": "304001", "oid": "103:1576922400414", "color": "#0056E7" }, "geometry": { "type": "Point", "coordinates": [ 39.990234, 21.616579 ] } }
{"year": "AD560",  "type": "Feature", "tippecanoe": { "layer": "2AFCABD439081583916102319", "minzoom": 2, "maxzoom": 8 }, "properties": { "halo": 1.8, "title": "石国", "fontsize": 12, "tyid": "304000", "oid": "103:1576922400991", "color": "#0056E7" }, "geometry": { "type": "Point", "coordinates": [ 69.345703, 41.442726 ] } }
{"year": "AD560",  "type": "Feature", "tippecanoe": { "layer": "2AFCABD439081583916102319", "minzoom": 2, "maxzoom": 8 }, "properties": { "halo": 1.8, "title": "卡林文德王朝", "fontsize": 12, "tyid": "304000", "oid": "103:1576922401023", "color": "#0056E7" }, "geometry": { "type": "Point", "coordinates": [ 52.470703, 36.244273 ] } }
{"year": "AD560",  "type": "Feature", "tippecanoe": { "layer": "2AFCABD439081583916102319", "minzoom": 2, "maxzoom": 8 }, "properties": { "halo": 1.8, "title": "扎尔米赫王朝", "fontsize": 12, "tyid": "304000", "oid": "103:1576922400998", "color": "#0056E7" }, "geometry": { "type": "Point", "coordinates": [ 53.525391, 36.315125 ] } }
{"year": "AD560",  "type": "Feature", "tippecanoe": { "layer": "2AFCABD439081583916102319", "minzoom": 2, "maxzoom": 8 }, "properties": { "halo": 1.8, "title": "安国", "fontsize": 12, "tyid": "304000", "oid": "103:1576922400990", "color": "#0056E7" }, "geometry": { "type": "Point", "coordinates": [ 64.511719, 39.842286 ] } }
{"year": "AD560",  "type": "Feature", "tippecanoe": { "layer": "2AFCABD439081583916102319", "minzoom": 2, "maxzoom": 8 }, "properties": { "halo": 1.8, "title": "何国", "fontsize": 12, "tyid": "304000", "oid": "103:1576922400992", "color": "#0056E7" }, "geometry": { "type": "Point", "coordinates": [ 65.742188, 39.977120 ] } }
{"year": "AD560",  "type": "Feature", "tippecanoe": { "layer": "2AFCABD439081583916102319", "minzoom": 2, "maxzoom": 8 }, "properties": { "halo": 1.8, "title": "史国", "fontsize": 12, "tyid": "304000", "oid": "103:1576922400989", "color": "#0056E7" }, "geometry": { "type": "Point", "coordinates": [ 66.621094, 39.027719 ] } }
{"year": "AD560",  "type": "Feature", "tippecanoe": { "layer": "2AFCABD439081583916102319", "minzoom": 2, "maxzoom": 8 }, "properties": { "halo": 1.8, "title": "康国", "fontsize": 12, "tyid": "304000", "oid": "103:1576922400993", "color": "#0056E7" }, "geometry": { "type": "Point", "coordinates": [ 66.972656, 39.707187 ] } }
{"year": "AD560",  "type": "Feature", "tippecanoe": { "layer": "2AFCABD439081583916102319", "minzoom": 2, "maxzoom": 8 }, "properties": { "halo": 1.8, "title": "阿点婆翅罗国", "fontsize": 12, "tyid": "304000", "oid": "103:1576922401018", "color": "#0056E7" }, "geometry": { "type": "Point", "coordinates": [ 67.148438, 25.562265 ] } }
{"year": "AD560",  "type": "Feature", "tippecanoe": { "layer": "2AFCABD439081583916102319", "minzoom": 2, "maxzoom": 8 }, "properties": { "halo": 1.8, "title": "曹国", "fontsize": 12, "tyid": "304000", "oid": "103:1576922401010", "color": "#0056E7" }, "geometry": { "type": "Point", "coordinates": [ 68.027344, 40.044438 ] } }
{"year": "AD560",  "type": "Feature", "tippecanoe": { "layer": "2AFCABD439081583916102319", "minzoom": 2, "maxzoom": 8 }, "properties": { "halo": 1.8, "title": "米国", "fontsize": 12, "tyid": "304000", "oid": "103:1576922401012", "color": "#0056E7" }, "geometry": { "type": "Point", "coordinates": [ 67.851562, 39.504041 ] } }
{"year": "AD560",  "type": "Feature", "tippecanoe": { "layer": "2AFCABD439081583916102319", "minzoom": 2, "maxzoom": 8 }, "properties": { "halo": 1.8, "title": "滥波国", "fontsize": 12, "tyid": "304000", "oid": "103:1576922400814", "color": "#0056E7" }, "geometry": { "type": "Point", "coordinates": [ 70.136719, 34.957995 ] } }
{"year": "AD560",  "type": "Feature", "tippecanoe": { "layer": "2AFCABD439081583916102319", "minzoom": 2, "maxzoom": 8 }, "properties": { "halo": 1.8, "title": "伐剌挐国", "fontsize": 12, "tyid": "304000", "oid": "103:1576922400837", "color": "#0056E7" }, "geometry": { "type": "Point", "coordinates": [ 70.136719, 32.546813 ] } }
{"year": "AD560",  "type": "Feature", "tippecanoe": { "layer": "2AFCABD439081583916102319", "minzoom": 2, "maxzoom": 8 }, "properties": { "halo": 1.8, "title": "那揭罗曷国", "fontsize": 12, "tyid": "304000", "oid": "103:1576922400815", "color": "#0056E7" }, "geometry": { "type": "Point", "coordinates": [ 70.400391, 34.379713 ] } }
{"year": "AD560",  "type": "Feature", "tippecanoe": { "layer": "2AFCABD439081583916102319", "minzoom": 2, "maxzoom": 8 }, "properties": { "halo": 1.8, "title": "呾叉始罗国", "fontsize": 12, "tyid": "304000", "oid": "103:1576922400810", "color": "#0056E7" }, "geometry": { "type": "Point", "coordinates": [ 72.773438, 33.797409 ] } }
{"year": "AD560",  "type": "Feature", "tippecanoe": { "layer": "2AFCABD439081583916102319", "minzoom": 2, "maxzoom": 8 }, "properties": { "halo": 1.8, "title": "竭盘陀国", "fontsize": 12, "tyid": "304000", "oid": "103:1576922400988", "color": "#0056E7" }, "geometry": { "type": "Point", "coordinates": [ 75.234375, 37.996163 ] } }
{"year": "AD560",  "type": "Feature", "tippecanoe": { "layer": "2AFCABD439081583916102319", "minzoom": 2, "maxzoom": 8 }, "properties": { "halo": 1.8, "title": "半笯嗟国", "fontsize": 12, "tyid": "304000", "oid": "103:1576922400774", "color": "#0056E7" }, "geometry": { "type": "Point", "coordinates": [ 73.828125, 33.943360 ] } }
{"year": "AD560",  "type": "Feature", "tippecanoe": { "layer": "2AFCABD439081583916102319", "minzoom": 2, "maxzoom": 8 }, "properties": { "halo": 1.8, "title": "遏罗阇补罗国", "fontsize": 12, "tyid": "304000", "oid": "103:1576922400806", "color": "#0056E7" }, "geometry": { "type": "Point", "coordinates": [ 74.443359, 33.358062 ] } }
{"year": "AD560",  "type": "Feature", "tippecanoe": { "layer": "2AFCABD439081583916102319", "minzoom": 2, "maxzoom": 8 }, "properties": { "halo": 1.8, "title": "僧诃补罗国", "fontsize": 12, "tyid": "304000", "oid": "103:1576922400807", "color": "#0056E7" }, "geometry": { "type": "Point", "coordinates": [ 73.300781, 32.990236 ] } }
{"year": "AD560",  "type": "Feature", "tippecanoe": { "layer": "2AFCABD439081583916102319", "minzoom": 2, "maxzoom": 8 }, "properties": { "halo": 1.8, "title": "乌剌尸国", "fontsize": 12, "tyid": "304000", "oid": "103:1576922400809", "color": "#0056E7" }, "geometry": { "type": "Point", "coordinates": [ 74.003906, 32.694866 ] } }
{"year": "AD560",  "type": "Feature", "tippecanoe": { "layer": "2AFCABD439081583916102319", "minzoom": 2, "maxzoom": 8 }, "properties": { "halo": 1.8, "title": "钵伐多国", "fontsize": 12, "tyid": "304000", "oid": "103:1576922400845", "color": "#0056E7" }, "geometry": { "type": "Point", "coordinates": [ 73.300781, 30.448674 ] } }
{"year": "AD560",  "type": "Feature", "tippecanoe": { "layer": "2AFCABD439081583916102319", "minzoom": 2, "maxzoom": 8 }, "properties": { "halo": 1.8, "title": "至那仆底国", "fontsize": 12, "tyid": "304000", "oid": "103:1576922400975", "color": "#0056E7" }, "geometry": { "type": "Point", "coordinates": [ 74.619141, 31.052934 ] } }
{"year": "AD560",  "type": "Feature", "tippecanoe": { "layer": "2AFCABD439081583916102319", "minzoom": 2, "maxzoom": 8 }, "properties": { "halo": 1.8, "title": "阇烂达罗国", "fontsize": 12, "tyid": "304000", "oid": "103:1576922400834", "color": "#0056E7" }, "geometry": { "type": "Point", "coordinates": [ 75.585938, 31.353637 ] } }
{"year": "AD560",  "type": "Feature", "tippecanoe": { "layer": "2AFCABD439081583916102319", "minzoom": 2, "maxzoom": 8 }, "properties": { "halo": 1.8, "title": "罗昂", "fontsize": 12, "tyid": "304000", "oid": "103:1576922400509", "color": "#0056E7" }, "geometry": { "type": "Point", "coordinates": [ 89.208984, 29.152161 ] } }
{"year": "AD560",  "type": "Feature", "tippecanoe": { "layer": "2AFCABD439081583916102319", "minzoom": 2, "maxzoom": 8 }, "properties": { "halo": 1.8, "title": "藏", "fontsize": 12, "tyid": "304000", "oid": "103:1576922400501", "color": "#0056E7" }, "geometry": { "type": "Point", "coordinates": [ 89.736328, 28.844674 ] } }
{"year": "AD560",  "type": "Feature", "tippecanoe": { "layer": "2AFCABD439081583916102319", "minzoom": 2, "maxzoom": 8 }, "properties": { "halo": 1.8, "title": "卓木南木松", "fontsize": 12, "tyid": "304000", "oid": "103:1576922400504", "color": "#0056E7" }, "geometry": { "type": "Point", "coordinates": [ 88.945312, 27.839076 ] } }
{"year": "AD560",  "type": "Feature", "tippecanoe": { "layer": "2AFCABD439081583916102319", "minzoom": 2, "maxzoom": 8 }, "properties": { "halo": 1.8, "title": "阿拉帕王朝", "fontsize": 12, "tyid": "304000", "oid": "103:1576922400978", "color": "#0056E7" }, "geometry": { "type": "Point", "coordinates": [ 75.322266, 12.811801 ] } }
{"year": "AD560",  "type": "Feature", "tippecanoe": { "layer": "2AFCABD439081583916102319", "minzoom": 2, "maxzoom": 8 }, "properties": { "halo": 1.8, "title": "西恒伽王朝", "fontsize": 12, "tyid": "304000", "oid": "103:1535120172549", "color": "#0056E7" }, "geometry": { "type": "Point", "coordinates": [ 76.464844, 12.125264 ] } }
{"year": "AD560",  "type": "Feature", "tippecanoe": { "layer": "2AFCABD439081583916102319", "minzoom": 2, "maxzoom": 8 }, "properties": { "halo": 1.8, "title": "吉", "fontsize": 12, "tyid": "304000", "oid": "103:1576922400508", "color": "#0056E7" }, "geometry": { "type": "Point", "coordinates": [ 91.406250, 29.764377 ] } }
{"year": "AD560",  "type": "Feature", "tippecanoe": { "layer": "2AFCABD439081583916102319", "minzoom": 2, "maxzoom": 8 }, "properties": { "halo": 1.8, "title": "琛", "fontsize": 12, "tyid": "304000", "oid": "103:1576922400505", "color": "#0056E7" }, "geometry": { "type": "Point", "coordinates": [ 91.230469, 29.382175 ] } }
{"year": "AD560",  "type": "Feature", "tippecanoe": { "layer": "2AFCABD439081583916102319", "minzoom": 2, "maxzoom": 8 }, "properties": { "halo": 1.8, "title": "悉补野", "fontsize": 12, "tyid": "304000", "oid": "103:1576922400502", "color": "#0056E7" }, "geometry": { "type": "Point", "coordinates": [ 91.845703, 29.152161 ] } }
{"year": "AD560",  "type": "Feature", "tippecanoe": { "layer": "2AFCABD439081583916102319", "minzoom": 2, "maxzoom": 8 }, "properties": { "halo": 1.8, "title": "俄玉邦噶", "fontsize": 12, "tyid": "304000", "oid": "103:1576922400512", "color": "#0056E7" }, "geometry": { "type": "Point", "coordinates": [ 92.548828, 29.152161 ] } }
{"year": "AD560",  "type": "Feature", "tippecanoe": { "layer": "2AFCABD439081583916102319", "minzoom": 2, "maxzoom": 8 }, "properties": { "halo": 1.8, "title": "娘", "fontsize": 12, "tyid": "304000", "oid": "103:1576922400513", "color": "#0056E7" }, "geometry": { "type": "Point", "coordinates": [ 93.339844, 29.916852 ] } }
{"year": "AD560",  "type": "Feature", "tippecanoe": { "layer": "2AFCABD439081583916102319", "minzoom": 2, "maxzoom": 8 }, "properties": { "halo": 1.8, "title": "贡", "fontsize": 12, "tyid": "304000", "oid": "103:1576922400510", "color": "#0056E7" }, "geometry": { "type": "Point", "coordinates": [ 94.482422, 29.688053 ] } }
{"year": "AD560",  "type": "Feature", "tippecanoe": { "layer": "2AFCABD439081583916102319", "minzoom": 2, "maxzoom": 8 }, "properties": { "halo": 1.8, "title": "达", "fontsize": 12, "tyid": "304000", "oid": "103:1576922400516", "color": "#0056E7" }, "geometry": { "type": "Point", "coordinates": [ 93.603516, 29.152161 ] } }
{"year": "AD560",  "type": "Feature", "tippecanoe": { "layer": "2AFCABD439081583916102319", "minzoom": 2, "maxzoom": 8 }, "properties": { "halo": 1.8, "title": "宕昌国", "fontsize": 12, "tyid": "304000", "oid": "103:1576922400827", "color": "#0056E7" }, "geometry": { "type": "Point", "coordinates": [ 104.150391, 33.943360 ] } }
{"year": "AD560",  "type": "Feature", "tippecanoe": { "layer": "2AFCABD439081583916102319", "minzoom": 2, "maxzoom": 8 }, "properties": { "halo": 1.8, "title": "迦托诃国", "fontsize": 12, "tyid": "304000", "oid": "103:1576922400422", "color": "#0056E7" }, "geometry": { "type": "Point", "coordinates": [ 100.283203, 6.315299 ] } }
{"year": "AD560",  "type": "Feature", "tippecanoe": { "layer": "2AFCABD439081583916102319", "minzoom": 2, "maxzoom": 8 }, "properties": { "halo": 1.8, "title": "狼牙脩国", "fontsize": 12, "tyid": "304000", "oid": "103:1576922400541", "color": "#0056E7" }, "geometry": { "type": "Point", "coordinates": [ 100.898438, 6.053161 ] } }
{"year": "AD560",  "type": "Feature", "tippecanoe": { "layer": "2AFCABD439081583916102319", "minzoom": 2, "maxzoom": 8 }, "properties": { "halo": 1.8, "title": "刚迦王国", "fontsize": 12, "tyid": "304000", "oid": "103:1576922400540", "color": "#0056E7" }, "geometry": { "type": "Point", "coordinates": [ 101.074219, 4.828260 ] } }
{"year": "AD560",  "type": "Feature", "tippecanoe": { "layer": "2AFCABD439081583916102319", "minzoom": 2, "maxzoom": 8 }, "properties": { "halo": 1.6, "title": "赵光复", "fontsize": 12, "tyid": "304002", "oid": "103:1576922400826", "color": "#0056E7" }, "geometry": { "type": "Point", "coordinates": [ 106.171875, 20.961440 ] } }
{"year": "AD560",  "type": "Feature", "tippecanoe": { "layer": "2AFCABD439081583916102319", "minzoom": 2, "maxzoom": 8 }, "properties": { "halo": 1.8, "title": "丹丹国", "fontsize": 12, "tyid": "304000", "oid": "103:1576922400761", "color": "#0056E7" }, "geometry": { "type": "Point", "coordinates": [ 103.359375, 2.108899 ] } }
{"year": "AD560",  "type": "Feature", "tippecanoe": { "layer": "2AFCABD439081583916102319", "minzoom": 2, "maxzoom": 8 }, "properties": { "halo": 1.6, "title": "番仔园文化", "fontsize": 12, "tyid": "304002", "oid": "103:1576922400520", "color": "#0056E7" }, "geometry": { "type": "Point", "coordinates": [ 120.673828, 24.287027 ] } }
{"year": "AD560",  "type": "Feature", "tippecanoe": { "layer": "2AFCABD439081583916102319", "minzoom": 2, "maxzoom": 8 }, "properties": { "halo": 1.6, "title": "茑松文化", "fontsize": 12, "tyid": "304002", "oid": "103:1576922400544", "color": "#0056E7" }, "geometry": { "type": "Point", "coordinates": [ 120.322266, 23.079732 ] } }
{"year": "AD560",  "type": "Feature", "tippecanoe": { "layer": "2AFCABD439081583916102319", "minzoom": 2, "maxzoom": 8 }, "properties": { "halo": 1.6, "title": "龟山文化", "fontsize": 12, "tyid": "304002", "oid": "103:1576922400550", "color": "#0056E7" }, "geometry": { "type": "Point", "coordinates": [ 120.673828, 22.512557 ] } }
{"year": "AD560",  "type": "Feature", "tippecanoe": { "layer": "2AFCABD439081583916102319", "minzoom": 2, "maxzoom": 8 }, "properties": { "halo": 1.6, "title": "十三行文化", "fontsize": 12, "tyid": "304002", "oid": "103:1576922400553", "color": "#0056E7" }, "geometry": { "type": "Point", "coordinates": [ 121.376953, 24.846565 ] } }
{"year": "AD560",  "type": "Feature", "tippecanoe": { "layer": "2AFCABD439081583916102319", "minzoom": 2, "maxzoom": 8 }, "properties": { "halo": 1.6, "title": "静浦文化", "fontsize": 12, "tyid": "304002", "oid": "103:1576922400548", "color": "#0056E7" }, "geometry": { "type": "Point", "coordinates": [ 121.025391, 22.917923 ] } }
{"year": "AD560",  "type": "Feature", "tippecanoe": { "layer": "2AFCABD439081583916102319", "minzoom": 2, "maxzoom": 8 }, "properties": { "halo": 1.6, "title": "雅美文化", "fontsize": 12, "tyid": "304002", "oid": "103:1576922400753", "color": "#0056E7" }, "geometry": { "type": "Point", "coordinates": [ 121.464844, 22.105999 ] } }
{"year": "AD560",  "type": "Feature", "tippecanoe": { "layer": "2AFCABD439081583916102319", "minzoom": 2, "maxzoom": 8 }, "properties": { "halo": 1.8, "title": "耽罗国", "fontsize": 12, "tyid": "304000", "oid": "103:1576922400518", "color": "#0056E7" }, "geometry": { "type": "Point", "coordinates": [ 126.474609, 33.431441 ] } }
{"year": "AD560",  "type": "Feature", "tippecanoe": { "layer": "2AFCABD439081583916102319", "minzoom": 2, "maxzoom": 8 }, "properties": { "halo": 1.8, "title": "伽倻", "fontsize": 12, "tyid": "304000", "oid": "103:1576922400523", "color": "#0056E7" }, "geometry": { "type": "Point", "coordinates": [ 127.880859, 35.532226 ] } }
{"year": "AD560",  "type": "Feature", "tippecanoe": { "layer": "2AFCABD439081583916102319", "minzoom": 2, "maxzoom": 8 }, "properties": { "halo": 1.8, "title": "任那", "fontsize": 12, "tyid": "304000", "oid": "103:1535120172634", "color": "#0056E7" }, "geometry": { "type": "Point", "coordinates": [ 128.056641, 35.101934 ] } }
{"year": "AD560",  "type": "Feature", "tippecanoe": { "layer": "2AFCABD439081583916102319", "minzoom": 2, "maxzoom": 8 }, "properties": { "halo": 1.6, "title": "隼人", "fontsize": 12, "tyid": "304001", "oid": "103:1576922400528", "color": "#0056E7" }, "geometry": { "type": "Point", "coordinates": [ 130.869141, 32.026706 ] } }
{"year": "AD560",  "type": "Feature", "tippecanoe": { "layer": "2AFCABD439081583916102319", "minzoom": 2, "maxzoom": 8 }, "properties": { "halo": 1.6, "title": "尼格利陀人", "fontsize": 12, "tyid": "304001", "oid": "103:1576922400683", "color": "#0056E7" }, "geometry": { "type": "Point", "coordinates": [ 122.431641, 11.264612 ] } }
{"year": "AD560",  "type": "Feature", "tippecanoe": { "layer": "2AFCABD439081583916102319", "minzoom": 2, "maxzoom": 8 }, "properties": { "halo": 1.8, "title": "渤泥国", "fontsize": 12, "tyid": "304000", "oid": "103:1576922400687", "color": "#0056E7" }, "geometry": { "type": "Point", "coordinates": [ 114.785156, 4.302591 ] } }
{"year": "AD560",  "type": "Feature", "tippecanoe": { "layer": "2AFCABD439081583916102319", "minzoom": 2, "maxzoom": 8 }, "properties": { "halo": 1.8, "title": "塔卢马王国", "fontsize": 12, "tyid": "304000", "oid": "103:1576922400686", "color": "#0056E7" }, "geometry": { "type": "Point", "coordinates": [ 106.787109, -6.402648 ] } }
{"year": "AD560",  "type": "Feature", "tippecanoe": { "layer": "2AFCABD439081583916102319", "minzoom": 2, "maxzoom": 8 }, "properties": { "halo": 1.6, "title": "托雷斯海峡岛民", "fontsize": 12, "tyid": "304001", "oid": "103:1576922400682", "color": "#0056E7" }, "geometry": { "type": "Point", "coordinates": [ 142.382812, -11.264612 ] } }
{"year": "AD560",  "type": "Feature", "tippecanoe": { "layer": "2AFCABD479081583916102304", "minzoom": 2, "maxzoom": 8 }, "properties": { "halo": 0.8, "title": "古白令海文化", "fontsize": 12, "tyid": "304002", "oid": "103:1576922400788", "color": "#262626" }, "geometry": { "type": "Point", "coordinates": [ -170.332031, 63.470145 ] } }
{"year": "AD560",  "type": "Feature", "tippecanoe": { "layer": "2AFCABD479081583916102304", "minzoom": 2, "maxzoom": 8 }, "properties": { "halo": 0.8, "title": "梅奥人", "fontsize": 12, "tyid": "304001", "oid": "103:1576922400951", "color": "#262626" }, "geometry": { "type": "Point", "coordinates": [ -109.160156, 26.667096 ] } }
{"year": "AD560",  "type": "Feature", "tippecanoe": { "layer": "2AFCABD479081583916102304", "minzoom": 2, "maxzoom": 8 }, "properties": { "halo": 0.8, "title": "查尔奇维特斯文化", "fontsize": 12, "tyid": "304002", "oid": "103:1576922400941", "color": "#262626" }, "geometry": { "type": "Point", "coordinates": [ -103.974609, 23.483401 ] } }
{"year": "AD560",  "type": "Feature", "tippecanoe": { "layer": "2AFCABD479081583916102304", "minzoom": 2, "maxzoom": 8 }, "properties": { "halo": 0.8, "title": "巴希奥文化", "fontsize": 12, "tyid": "304002", "oid": "103:1576922400667", "color": "#262626" }, "geometry": { "type": "Point", "coordinates": [ -99.931641, 20.961440 ] } }
{"year": "AD560",  "type": "Feature", "tippecanoe": { "layer": "2AFCABD479081583916102304", "minzoom": 2, "maxzoom": 8 }, "properties": { "halo": 0.8, "title": "特奥蒂瓦坎", "fontsize": 12, "tyid": "304002", "oid": "103:1535120172522", "color": "#262626" }, "geometry": { "type": "Point", "coordinates": [ -99.404297, 19.808054 ] } }
{"year": "AD560",  "type": "Feature", "tippecanoe": { "layer": "2AFCABD479081583916102304", "minzoom": 2, "maxzoom": 8 }, "properties": { "halo": 0.8, "title": "圣米格尔伊克帕坦文化", "fontsize": 12, "tyid": "304002", "oid": "103:1576922400935", "color": "#262626" }, "geometry": { "type": "Point", "coordinates": [ -100.019531, 19.062118 ] } }
{"year": "AD560",  "type": "Feature", "tippecanoe": { "layer": "2AFCABD479081583916102304", "minzoom": 2, "maxzoom": 8 }, "properties": { "halo": 0.8, "title": "科韦克卡-琼塔尔文化", "fontsize": 12, "tyid": "304002", "oid": "103:1576922400927", "color": "#262626" }, "geometry": { "type": "Point", "coordinates": [ -99.667969, 18.062312 ] } }
{"year": "AD560",  "type": "Feature", "tippecanoe": { "layer": "2AFCABD479081583916102304", "minzoom": 2, "maxzoom": 8 }, "properties": { "halo": 0.8, "title": "托托纳克人", "fontsize": 12, "tyid": "304001", "oid": "103:1576922400618", "color": "#262626" }, "geometry": { "type": "Point", "coordinates": [ -98.349609, 20.220966 ] } }
{"year": "AD560",  "type": "Feature", "tippecanoe": { "layer": "2AFCABD479081583916102304", "minzoom": 2, "maxzoom": 8 }, "properties": { "halo": 0.8, "title": "古韦拉克鲁斯文化", "fontsize": 12, "tyid": "304002", "oid": "103:1576922400603", "color": "#262626" }, "geometry": { "type": "Point", "coordinates": [ -96.767578, 19.642588 ] } }
{"year": "AD560",  "type": "Feature", "tippecanoe": { "layer": "2AFCABD479081583916102304", "minzoom": 2, "maxzoom": 8 }, "properties": { "halo": 0.8, "title": "米斯特克人", "fontsize": 12, "tyid": "304001", "oid": "103:1535120172524", "color": "#262626" }, "geometry": { "type": "Point", "coordinates": [ -98.349609, 17.224758 ] } }
{"year": "AD560",  "type": "Feature", "tippecanoe": { "layer": "2AFCABD479081583916102304", "minzoom": 2, "maxzoom": 8 }, "properties": { "halo": 0.8, "title": "特里克人", "fontsize": 12, "tyid": "304001", "oid": "103:1576922400962", "color": "#262626" }, "geometry": { "type": "Point", "coordinates": [ -97.382812, 17.811456 ] } }
{"year": "AD560",  "type": "Feature", "tippecanoe": { "layer": "2AFCABD479081583916102304", "minzoom": 2, "maxzoom": 8 }, "properties": { "halo": 0.8, "title": "洛瓦贾达斯文化", "fontsize": 12, "tyid": "304002", "oid": "103:1576922400952", "color": "#262626" }, "geometry": { "type": "Point", "coordinates": [ -96.416016, 19.145168 ] } }
{"year": "AD560",  "type": "Feature", "tippecanoe": { "layer": "2AFCABD479081583916102304", "minzoom": 2, "maxzoom": 8 }, "properties": { "halo": 0.8, "title": "麦克斯人", "fontsize": 12, "tyid": "304001", "oid": "103:1576922400947", "color": "#262626" }, "geometry": { "type": "Point", "coordinates": [ -96.503906, 18.312811 ] } }
{"year": "AD560",  "type": "Feature", "tippecanoe": { "layer": "2AFCABD479081583916102304", "minzoom": 2, "maxzoom": 8 }, "properties": { "halo": 0.8, "title": "佐齐尔人", "fontsize": 12, "tyid": "304001", "oid": "103:1576922400852", "color": "#262626" }, "geometry": { "type": "Point", "coordinates": [ -93.339844, 16.551962 ] } }
{"year": "AD560",  "type": "Feature", "tippecanoe": { "layer": "2AFCABD479081583916102304", "minzoom": 2, "maxzoom": 8 }, "properties": { "halo": 0.8, "title": "祖赫人", "fontsize": 12, "tyid": "304001", "oid": "103:1576922400690", "color": "#262626" }, "geometry": { "type": "Point", "coordinates": [ -92.109375, 16.045813 ] } }
{"year": "AD560",  "type": "Feature", "tippecanoe": { "layer": "2AFCABD479081583916102304", "minzoom": 2, "maxzoom": 8 }, "properties": { "halo": 0.8, "title": "基切人", "fontsize": 12, "tyid": "304001", "oid": "103:1576922400417", "color": "#262626" }, "geometry": { "type": "Point", "coordinates": [ -90.966797, 15.029686 ] } }
{"year": "AD560",  "type": "Feature", "tippecanoe": { "layer": "2AFCABD479081583916102304", "minzoom": 2, "maxzoom": 8 }, "properties": { "halo": 0.8, "title": "怒溪文化", "fontsize": 12, "tyid": "304002", "oid": "103:1576922400412", "color": "#262626" }, "geometry": { "type": "Point", "coordinates": [ -72.421875, 41.574361 ] } }
{"year": "AD560",  "type": "Feature", "tippecanoe": { "layer": "2AFCABD479081583916102304", "minzoom": 2, "maxzoom": 8 }, "properties": { "halo": 0.8, "title": "埃里森-拉莫特文化", "fontsize": 12, "tyid": "304002", "oid": "103:1576922400530", "color": "#262626" }, "geometry": { "type": "Point", "coordinates": [ -87.626953, 39.095963 ] } }
{"year": "AD560",  "type": "Feature", "tippecanoe": { "layer": "2AFCABD479081583916102304", "minzoom": 2, "maxzoom": 8 }, "properties": { "halo": 0.8, "title": "凯兹池塘文化", "fontsize": 12, "tyid": "304002", "oid": "103:1576922400938", "color": "#262626" }, "geometry": { "type": "Point", "coordinates": [ -82.265625, 29.535230 ] } }
{"year": "AD560",  "type": "Feature", "tippecanoe": { "layer": "2AFCABD479081583916102304", "minzoom": 2, "maxzoom": 8 }, "properties": { "halo": 0.8, "title": "玛纳索塔文化", "fontsize": 12, "tyid": "304002", "oid": "103:1576922400802", "color": "#262626" }, "geometry": { "type": "Point", "coordinates": [ -82.441406, 27.683528 ] } }
{"year": "AD560",  "type": "Feature", "tippecanoe": { "layer": "2AFCABD479081583916102304", "minzoom": 2, "maxzoom": 8 }, "properties": { "halo": 0.8, "title": "卡卢萨哈契文化", "fontsize": 12, "tyid": "304002", "oid": "103:1576922400718", "color": "#262626" }, "geometry": { "type": "Point", "coordinates": [ -81.650391, 27.137368 ] } }
{"year": "AD560",  "type": "Feature", "tippecanoe": { "layer": "2AFCABD479081583916102304", "minzoom": 2, "maxzoom": 8 }, "properties": { "halo": 0.8, "title": "圣约翰文化", "fontsize": 12, "tyid": "304002", "oid": "103:1576922400721", "color": "#262626" }, "geometry": { "type": "Point", "coordinates": [ -81.474609, 29.382175 ] } }
{"year": "AD560",  "type": "Feature", "tippecanoe": { "layer": "2AFCABD479081583916102304", "minzoom": 2, "maxzoom": 8 }, "properties": { "halo": 0.8, "title": "贝尔格莱德文化", "fontsize": 12, "tyid": "304002", "oid": "103:1576922400891", "color": "#262626" }, "geometry": { "type": "Point", "coordinates": [ -80.859375, 27.527758 ] } }
{"year": "AD560",  "type": "Feature", "tippecanoe": { "layer": "2AFCABD479081583916102304", "minzoom": 2, "maxzoom": 8 }, "properties": { "halo": 0.8, "title": "格莱兹文化", "fontsize": 12, "tyid": "304002", "oid": "103:1576922400799", "color": "#262626" }, "geometry": { "type": "Point", "coordinates": [ -80.859375, 26.037042 ] } }
{"year": "AD560",  "type": "Feature", "tippecanoe": { "layer": "2AFCABD479081583916102304", "minzoom": 2, "maxzoom": 8 }, "properties": { "halo": 0.8, "title": "德贵斯塔族", "fontsize": 12, "tyid": "304001", "oid": "103:1576922400693", "color": "#262626" }, "geometry": { "type": "Point", "coordinates": [ -80.419922, 25.641526 ] } }
{"year": "AD560",  "type": "Feature", "tippecanoe": { "layer": "2AFCABD479081583916102304", "minzoom": 2, "maxzoom": 8 }, "properties": { "halo": 0.8, "title": "卡卡普拉人", "fontsize": 12, "tyid": "304001", "oid": "103:1576922400853", "color": "#262626" }, "geometry": { "type": "Point", "coordinates": [ -88.154297, 13.838080 ] } }
{"year": "AD560",  "type": "Feature", "tippecanoe": { "layer": "2AFCABD479081583916102304", "minzoom": 2, "maxzoom": 8 }, "properties": { "halo": 0.8, "title": "雷卡人", "fontsize": 12, "tyid": "304001", "oid": "103:1576922400480", "color": "#262626" }, "geometry": { "type": "Point", "coordinates": [ -87.275391, 13.667338 ] } }
{"year": "AD560",  "type": "Feature", "tippecanoe": { "layer": "2AFCABD479081583916102304", "minzoom": 2, "maxzoom": 8 }, "properties": { "halo": 0.8, "title": "迪基斯文化", "fontsize": 12, "tyid": "304002", "oid": "103:1576922400703", "color": "#262626" }, "geometry": { "type": "Point", "coordinates": [ -83.320312, 8.928487 ] } }
{"year": "AD560",  "type": "Feature", "tippecanoe": { "layer": "2AFCABD479081583916102304", "minzoom": 2, "maxzoom": 8 }, "properties": { "halo": 0.8, "title": "格兰科克勒文化", "fontsize": 12, "tyid": "304002", "oid": "103:1576922400637", "color": "#262626" }, "geometry": { "type": "Point", "coordinates": [ -80.507812, 8.581021 ] } }
{"year": "AD560",  "type": "Feature", "tippecanoe": { "layer": "2AFCABD479081583916102304", "minzoom": 2, "maxzoom": 8 }, "properties": { "halo": 0.8, "title": "泰罗纳", "fontsize": 12, "tyid": "304000", "oid": "103:1576922400741", "color": "#202020" }, "geometry": { "type": "Point", "coordinates": [ -73.564453, 10.833306 ] } }
{"year": "AD560",  "type": "Feature", "tippecanoe": { "layer": "2AFCABD479081583916102304", "minzoom": 2, "maxzoom": 8 }, "properties": { "halo": 0.8, "title": "约托科文化", "fontsize": 12, "tyid": "304002", "oid": "103:1576922400934", "color": "#262626" }, "geometry": { "type": "Point", "coordinates": [ -76.464844, 3.864255 ] } }
{"year": "AD560",  "type": "Feature", "tippecanoe": { "layer": "2AFCABD479081583916102304", "minzoom": 2, "maxzoom": 8 }, "properties": { "halo": 0.8, "title": "昆巴雅文明", "fontsize": 12, "tyid": "304002", "oid": "103:1576922401030", "color": "#262626" }, "geometry": { "type": "Point", "coordinates": [ -75.761719, 5.090944 ] } }
{"year": "AD560",  "type": "Feature", "tippecanoe": { "layer": "2AFCABD479081583916102304", "minzoom": 2, "maxzoom": 8 }, "properties": { "halo": 0.8, "title": "潘切人", "fontsize": 12, "tyid": "304001", "oid": "103:1576922400592", "color": "#262626" }, "geometry": { "type": "Point", "coordinates": [ -74.619141, 4.740675 ] } }
{"year": "AD560",  "type": "Feature", "tippecanoe": { "layer": "2AFCABD479081583916102304", "minzoom": 2, "maxzoom": 8 }, "properties": { "halo": 0.8, "title": "萨拉杜文化", "fontsize": 12, "tyid": "304002", "oid": "103:1576922400893", "color": "#262626" }, "geometry": { "type": "Point", "coordinates": [ -61.699219, 16.214675 ] } }
{"year": "AD560",  "type": "Feature", "tippecanoe": { "layer": "2AFCABD479081583916102304", "minzoom": 2, "maxzoom": 8 }, "properties": { "halo": 0.8, "title": "埃里克王国", "fontsize": 12, "tyid": "304000", "oid": "103:1576922400453", "color": "#202020" }, "geometry": { "type": "Point", "coordinates": [ -7.646484, 54.622978 ] } }
{"year": "AD560",  "type": "Feature", "tippecanoe": { "layer": "2AFCABD479081583916102304", "minzoom": 2, "maxzoom": 8 }, "properties": { "halo": 0.8, "title": "乌勒王国", "fontsize": 12, "tyid": "304000", "oid": "103:1576922400929", "color": "#202020" }, "geometry": { "type": "Point", "coordinates": [ -6.152344, 54.418930 ] } }
{"year": "AD560",  "type": "Feature", "tippecanoe": { "layer": "2AFCABD479081583916102304", "minzoom": 2, "maxzoom": 8 }, "properties": { "halo": 0.8, "title": "奥利尔王国", "fontsize": 12, "tyid": "304000", "oid": "103:1576922400589", "color": "#202020" }, "geometry": { "type": "Point", "coordinates": [ -7.031250, 54.110943 ] } }
{"year": "AD560",  "type": "Feature", "tippecanoe": { "layer": "2AFCABD479081583916102304", "minzoom": 2, "maxzoom": 8 }, "properties": { "halo": 0.8, "title": "斯特拉瑟克雷德王国", "fontsize": 12, "tyid": "304000", "oid": "103:1535120172694", "color": "#202020" }, "geometry": { "type": "Point", "coordinates": [ -4.218750, 55.429013 ] } }
{"year": "AD560",  "type": "Feature", "tippecanoe": { "layer": "2AFCABD479081583916102304", "minzoom": 2, "maxzoom": 8 }, "properties": { "halo": 0.8, "title": "格温内斯王国", "fontsize": 12, "tyid": "304000", "oid": "103:1576922400643", "color": "#202020" }, "geometry": { "type": "Point", "coordinates": [ -3.867188, 53.014783 ] } }
{"year": "AD560",  "type": "Feature", "tippecanoe": { "layer": "2AFCABD479081583916102304", "minzoom": 2, "maxzoom": 8 }, "properties": { "halo": 0.8, "title": "波威斯王国", "fontsize": 12, "tyid": "304000", "oid": "103:1576922400910", "color": "#202020" }, "geometry": { "type": "Point", "coordinates": [ -3.339844, 52.536273 ] } }
{"year": "AD560",  "type": "Feature", "tippecanoe": { "layer": "2AFCABD479081583916102304", "minzoom": 2, "maxzoom": 8 }, "properties": { "halo": 0.8, "title": "麦西亚王国", "fontsize": 12, "tyid": "304000", "oid": "103:1535120172700", "color": "#202020" }, "geometry": { "type": "Point", "coordinates": [ -1.406250, 52.749594 ] } }
{"year": "AD560",  "type": "Feature", "tippecanoe": { "layer": "2AFCABD479081583916102304", "minzoom": 2, "maxzoom": 8 }, "properties": { "halo": 0.8, "title": "锡尔迪金王国", "fontsize": 12, "tyid": "304000", "oid": "103:1576922400465", "color": "#202020" }, "geometry": { "type": "Point", "coordinates": [ -4.306641, 52.160455 ] } }
{"year": "AD560",  "type": "Feature", "tippecanoe": { "layer": "2AFCABD479081583916102304", "minzoom": 2, "maxzoom": 8 }, "properties": { "halo": 0.8, "title": "达费德王国", "fontsize": 12, "tyid": "304000", "oid": "103:1576922400925", "color": "#202020" }, "geometry": { "type": "Point", "coordinates": [ -4.042969, 51.890054 ] } }
{"year": "AD560",  "type": "Feature", "tippecanoe": { "layer": "2AFCABD479081583916102304", "minzoom": 2, "maxzoom": 8 }, "properties": { "halo": 0.8, "title": "布里奇尼奥格王国", "fontsize": 12, "tyid": "304000", "oid": "103:1576922400586", "color": "#202020" }, "geometry": { "type": "Point", "coordinates": [ -3.251953, 52.052490 ] } }
{"year": "AD560",  "type": "Feature", "tippecanoe": { "layer": "2AFCABD479081583916102304", "minzoom": 2, "maxzoom": 8 }, "properties": { "halo": 0.8, "title": "格利维辛王国", "fontsize": 12, "tyid": "304000", "oid": "103:1576922400424", "color": "#202020" }, "geometry": { "type": "Point", "coordinates": [ -3.427734, 51.672555 ] } }
{"year": "AD560",  "type": "Feature", "tippecanoe": { "layer": "2AFCABD479081583916102304", "minzoom": 2, "maxzoom": 8 }, "properties": { "halo": 0.8, "title": "格温特王国", "fontsize": 12, "tyid": "304000", "oid": "103:1576922400574", "color": "#202020" }, "geometry": { "type": "Point", "coordinates": [ -2.900391, 51.727028 ] } }
{"year": "AD560",  "type": "Feature", "tippecanoe": { "layer": "2AFCABD479081583916102304", "minzoom": 2, "maxzoom": 8 }, "properties": { "halo": 0.8, "title": "威塞克斯王国", "fontsize": 12, "tyid": "304000", "oid": "103:1535120172714", "color": "#202020" }, "geometry": { "type": "Point", "coordinates": [ -2.373047, 50.847573 ] } }
{"year": "AD560",  "type": "Feature", "tippecanoe": { "layer": "2AFCABD479081583916102304", "minzoom": 2, "maxzoom": 8 }, "properties": { "halo": 0.8, "title": "萨塞克斯王国", "fontsize": 12, "tyid": "304000", "oid": "103:1535120172711", "color": "#202020" }, "geometry": { "type": "Point", "coordinates": [ -0.263672, 51.013755 ] } }
{"year": "AD560",  "type": "Feature", "tippecanoe": { "layer": "2AFCABD479081583916102304", "minzoom": 2, "maxzoom": 8 }, "properties": { "halo": 0.8, "title": "阿斯图尔人", "fontsize": 12, "tyid": "304001", "oid": "103:1576922400441", "color": "#262626" }, "geometry": { "type": "Point", "coordinates": [ -5.537109, 42.811522 ] } }
{"year": "AD560",  "type": "Feature", "tippecanoe": { "layer": "2AFCABD479081583916102304", "minzoom": 2, "maxzoom": 8 }, "properties": { "halo": 0.8, "title": "坎塔布里人", "fontsize": 12, "tyid": "304001", "oid": "103:1576922400879", "color": "#262626" }, "geometry": { "type": "Point", "coordinates": [ -4.394531, 43.068888 ] } }
{"year": "AD560",  "type": "Feature", "tippecanoe": { "layer": "2AFCABD479081583916102304", "minzoom": 2, "maxzoom": 8 }, "properties": { "halo": 0.8, "title": "奥特里冈人", "fontsize": 12, "tyid": "304001", "oid": "103:1576922400451", "color": "#262626" }, "geometry": { "type": "Point", "coordinates": [ -3.339844, 43.004647 ] } }
{"year": "AD560",  "type": "Feature", "tippecanoe": { "layer": "2AFCABD479081583916102304", "minzoom": 2, "maxzoom": 8 }, "properties": { "halo": 0.8, "title": "卡斯蒂利人", "fontsize": 12, "tyid": "304001", "oid": "103:1576922400427", "color": "#262626" }, "geometry": { "type": "Point", "coordinates": [ -2.812500, 43.068888 ] } }
{"year": "AD560",  "type": "Feature", "tippecanoe": { "layer": "2AFCABD479081583916102304", "minzoom": 2, "maxzoom": 8 }, "properties": { "halo": 0.8, "title": "瓦杜里人", "fontsize": 12, "tyid": "304001", "oid": "103:1576922400877", "color": "#262626" }, "geometry": { "type": "Point", "coordinates": [ -2.285156, 42.940339 ] } }
{"year": "AD560",  "type": "Feature", "tippecanoe": { "layer": "2AFCABD479081583916102304", "minzoom": 2, "maxzoom": 8 }, "properties": { "halo": 0.8, "title": "巴斯克人", "fontsize": 12, "tyid": "304001", "oid": "103:1576922400443", "color": "#262626" }, "geometry": { "type": "Point", "coordinates": [ -1.494141, 42.811522 ] } }
{"year": "AD560",  "type": "Feature", "tippecanoe": { "layer": "2AFCABD479081583916102304", "minzoom": 2, "maxzoom": 8 }, "properties": { "halo": 0.8, "title": "关切人", "fontsize": 12, "tyid": "304001", "oid": "103:1576922400950", "color": "#262626" }, "geometry": { "type": "Point", "coordinates": [ -16.611328, 28.304381 ] } }
{"year": "AD560",  "type": "Feature", "tippecanoe": { "layer": "2AFCABD479081583916102304", "minzoom": 2, "maxzoom": 8 }, "properties": { "halo": 0.8, "title": "卡纳里人", "fontsize": 12, "tyid": "304001", "oid": "103:1576922400476", "color": "#262626" }, "geometry": { "type": "Point", "coordinates": [ -79.189453, -2.811371 ] } }
{"year": "AD560",  "type": "Feature", "tippecanoe": { "layer": "2AFCABD479081583916102304", "minzoom": 2, "maxzoom": 8 }, "properties": { "halo": 0.8, "title": "莫切文明", "fontsize": 12, "tyid": "304002", "oid": "103:1535120172529", "color": "#262626" }, "geometry": { "type": "Point", "coordinates": [ -79.013672, -7.623887 ] } }
{"year": "AD560",  "type": "Feature", "tippecanoe": { "layer": "2AFCABD479081583916102304", "minzoom": 2, "maxzoom": 8 }, "properties": { "halo": 0.8, "title": "维鲁文化", "fontsize": 12, "tyid": "304002", "oid": "103:1576922400695", "color": "#262626" }, "geometry": { "type": "Point", "coordinates": [ -78.837891, -8.320212 ] } }
{"year": "AD560",  "type": "Feature", "tippecanoe": { "layer": "2AFCABD479081583916102304", "minzoom": 2, "maxzoom": 8 }, "properties": { "halo": 0.8, "title": "卡哈马卡文化", "fontsize": 12, "tyid": "304002", "oid": "103:1576922400597", "color": "#262626" }, "geometry": { "type": "Point", "coordinates": [ -78.750000, -6.227934 ] } }
{"year": "AD560",  "type": "Feature", "tippecanoe": { "layer": "2AFCABD479081583916102304", "minzoom": 2, "maxzoom": 8 }, "properties": { "halo": 0.8, "title": "巴托文化", "fontsize": 12, "tyid": "304002", "oid": "103:1576922400648", "color": "#262626" }, "geometry": { "type": "Point", "coordinates": [ -71.367188, -33.211116 ] } }
{"year": "AD560",  "type": "Feature", "tippecanoe": { "layer": "2AFCABD479081583916102304", "minzoom": 2, "maxzoom": 8 }, "properties": { "halo": 0.8, "title": "塔夫文化", "fontsize": 12, "tyid": "304002", "oid": "103:1576922400931", "color": "#262626" }, "geometry": { "type": "Point", "coordinates": [ -65.654297, -26.980829 ] } }
{"year": "AD560",  "type": "Feature", "tippecanoe": { "layer": "2AFCABD479081583916102304", "minzoom": 2, "maxzoom": 8 }, "properties": { "halo": 0.8, "title": "豪什人", "fontsize": 12, "tyid": "304001", "oid": "103:1576922400797", "color": "#262626" }, "geometry": { "type": "Point", "coordinates": [ -65.917969, -54.724620 ] } }
{"year": "AD560",  "type": "Feature", "tippecanoe": { "layer": "2AFCABD479081583916102304", "minzoom": 2, "maxzoom": 8 }, "properties": { "halo": 0.8, "title": "哥得兰人", "fontsize": 12, "tyid": "304001", "oid": "103:1576922400535", "color": "#262626" }, "geometry": { "type": "Point", "coordinates": [ 18.457031, 57.515823 ] } }
{"year": "AD560",  "type": "Feature", "tippecanoe": { "layer": "2AFCABD479081583916102304", "minzoom": 2, "maxzoom": 8 }, "properties": { "halo": 0.8, "title": "埃塞克斯王国", "fontsize": 12, "tyid": "304000", "oid": "103:1535120172706", "color": "#202020" }, "geometry": { "type": "Point", "coordinates": [ 0.087891, 51.781436 ] } }
{"year": "AD560",  "type": "Feature", "tippecanoe": { "layer": "2AFCABD479081583916102304", "minzoom": 2, "maxzoom": 8 }, "properties": { "halo": 0.8, "title": "东盎格利亚王国", "fontsize": 12, "tyid": "304000", "oid": "103:1535120172703", "color": "#202020" }, "geometry": { "type": "Point", "coordinates": [ 0.966797, 52.482780 ] } }
{"year": "AD560",  "type": "Feature", "tippecanoe": { "layer": "2AFCABD479081583916102304", "minzoom": 2, "maxzoom": 8 }, "properties": { "halo": 0.8, "title": "肯特王国", "fontsize": 12, "tyid": "304000", "oid": "103:1535120172708", "color": "#202020" }, "geometry": { "type": "Point", "coordinates": [ 0.615234, 51.234407 ] } }
{"year": "AD560",  "type": "Feature", "tippecanoe": { "layer": "2AFCABD479081583916102304", "minzoom": 2, "maxzoom": 8 }, "properties": { "halo": 0.8, "title": "弗里斯兰人", "fontsize": 12, "tyid": "304001", "oid": "103:1576922400641", "color": "#262626" }, "geometry": { "type": "Point", "coordinates": [ 6.152344, 53.120405 ] } }
{"year": "AD560",  "type": "Feature", "tippecanoe": { "layer": "2AFCABD479081583916102304", "minzoom": 2, "maxzoom": 8 }, "properties": { "halo": 0.8, "title": "盎格鲁人", "fontsize": 12, "tyid": "304001", "oid": "103:1576922400968", "color": "#262626" }, "geometry": { "type": "Point", "coordinates": [ 9.492188, 54.265224 ] } }
{"year": "AD560",  "type": "Feature", "tippecanoe": { "layer": "2AFCABD479081583916102304", "minzoom": 2, "maxzoom": 8 }, "properties": { "halo": 0.8, "title": "乌克人", "fontsize": 12, "tyid": "304001", "oid": "103:1576922400731", "color": "#262626" }, "geometry": { "type": "Point", "coordinates": [ 13.798828, 53.330873 ] } }
{"year": "AD560",  "type": "Feature", "tippecanoe": { "layer": "2AFCABD479081583916102304", "minzoom": 2, "maxzoom": 8 }, "properties": { "halo": 0.8, "title": "西加林迪亚人", "fontsize": 12, "tyid": "304001", "oid": "103:1576922400885", "color": "#262626" }, "geometry": { "type": "Point", "coordinates": [ 20.917969, 53.278353 ] } }
{"year": "AD560",  "type": "Feature", "tippecanoe": { "layer": "2AFCABD479081583916102304", "minzoom": 2, "maxzoom": 8 }, "properties": { "halo": 0.8, "title": "圣马力诺共和国", "fontsize": 12, "tyid": "304001", "oid": "103:1576922400865", "color": "#262626" }, "geometry": { "type": "Point", "coordinates": [ 12.392578, 43.961191 ] } }
{"year": "AD560",  "type": "Feature", "tippecanoe": { "layer": "2AFCABD479081583916102304", "minzoom": 2, "maxzoom": 8 }, "properties": { "halo": 0.8, "title": "奥耶塞利人", "fontsize": 12, "tyid": "304001", "oid": "103:1576922400789", "color": "#262626" }, "geometry": { "type": "Point", "coordinates": [ 22.500000, 58.447733 ] } }
{"year": "AD560",  "type": "Feature", "tippecanoe": { "layer": "2AFCABD479081583916102304", "minzoom": 2, "maxzoom": 8 }, "properties": { "halo": 0.8, "title": "塞米加利亚人", "fontsize": 12, "tyid": "304001", "oid": "103:1576922400862", "color": "#262626" }, "geometry": { "type": "Point", "coordinates": [ 23.642578, 56.559482 ] } }
{"year": "AD560",  "type": "Feature", "tippecanoe": { "layer": "2AFCABD479081583916102304", "minzoom": 2, "maxzoom": 8 }, "properties": { "halo": 0.8, "title": "瑟罗尼亚人", "fontsize": 12, "tyid": "304001", "oid": "103:1576922400870", "color": "#262626" }, "geometry": { "type": "Point", "coordinates": [ 25.312500, 56.121060 ] } }
{"year": "AD560",  "type": "Feature", "tippecanoe": { "layer": "2AFCABD479081583916102304", "minzoom": 2, "maxzoom": 8 }, "properties": { "halo": 0.8, "title": "科尔基斯山中诸部", "fontsize": 12, "tyid": "304002", "oid": "103:1576922400566", "color": "#262626" }, "geometry": { "type": "Point", "coordinates": [ 40.429688, 43.389082 ] } }
{"year": "AD560",  "type": "Feature", "tippecanoe": { "layer": "2AFCABD479081583916102304", "minzoom": 2, "maxzoom": 8 }, "properties": { "halo": 0.8, "title": "古莱什部落", "fontsize": 12, "tyid": "304001", "oid": "103:1576922400414", "color": "#262626" }, "geometry": { "type": "Point", "coordinates": [ 39.990234, 21.616579 ] } }
{"year": "AD560",  "type": "Feature", "tippecanoe": { "layer": "2AFCABD479081583916102304", "minzoom": 2, "maxzoom": 8 }, "properties": { "halo": 0.8, "title": "石国", "fontsize": 12, "tyid": "304000", "oid": "103:1576922400991", "color": "#202020" }, "geometry": { "type": "Point", "coordinates": [ 69.345703, 41.442726 ] } }
{"year": "AD560",  "type": "Feature", "tippecanoe": { "layer": "2AFCABD479081583916102304", "minzoom": 2, "maxzoom": 8 }, "properties": { "halo": 0.8, "title": "卡林文德王朝", "fontsize": 12, "tyid": "304000", "oid": "103:1576922401023", "color": "#202020" }, "geometry": { "type": "Point", "coordinates": [ 52.470703, 36.244273 ] } }
{"year": "AD560",  "type": "Feature", "tippecanoe": { "layer": "2AFCABD479081583916102304", "minzoom": 2, "maxzoom": 8 }, "properties": { "halo": 0.8, "title": "扎尔米赫王朝", "fontsize": 12, "tyid": "304000", "oid": "103:1576922400998", "color": "#202020" }, "geometry": { "type": "Point", "coordinates": [ 53.525391, 36.315125 ] } }
{"year": "AD560",  "type": "Feature", "tippecanoe": { "layer": "2AFCABD479081583916102304", "minzoom": 2, "maxzoom": 8 }, "properties": { "halo": 0.8, "title": "安国", "fontsize": 12, "tyid": "304000", "oid": "103:1576922400990", "color": "#202020" }, "geometry": { "type": "Point", "coordinates": [ 64.511719, 39.842286 ] } }
{"year": "AD560",  "type": "Feature", "tippecanoe": { "layer": "2AFCABD479081583916102304", "minzoom": 2, "maxzoom": 8 }, "properties": { "halo": 0.8, "title": "何国", "fontsize": 12, "tyid": "304000", "oid": "103:1576922400992", "color": "#202020" }, "geometry": { "type": "Point", "coordinates": [ 65.742188, 39.977120 ] } }
{"year": "AD560",  "type": "Feature", "tippecanoe": { "layer": "2AFCABD479081583916102304", "minzoom": 2, "maxzoom": 8 }, "properties": { "halo": 0.8, "title": "史国", "fontsize": 12, "tyid": "304000", "oid": "103:1576922400989", "color": "#202020" }, "geometry": { "type": "Point", "coordinates": [ 66.621094, 39.027719 ] } }
{"year": "AD560",  "type": "Feature", "tippecanoe": { "layer": "2AFCABD479081583916102304", "minzoom": 2, "maxzoom": 8 }, "properties": { "halo": 0.8, "title": "康国", "fontsize": 12, "tyid": "304000", "oid": "103:1576922400993", "color": "#202020" }, "geometry": { "type": "Point", "coordinates": [ 66.972656, 39.707187 ] } }
{"year": "AD560",  "type": "Feature", "tippecanoe": { "layer": "2AFCABD479081583916102304", "minzoom": 2, "maxzoom": 8 }, "properties": { "halo": 0.8, "title": "阿点婆翅罗国", "fontsize": 12, "tyid": "304000", "oid": "103:1576922401018", "color": "#202020" }, "geometry": { "type": "Point", "coordinates": [ 67.148438, 25.562265 ] } }
{"year": "AD560",  "type": "Feature", "tippecanoe": { "layer": "2AFCABD479081583916102304", "minzoom": 2, "maxzoom": 8 }, "properties": { "halo": 0.8, "title": "曹国", "fontsize": 12, "tyid": "304000", "oid": "103:1576922401010", "color": "#202020" }, "geometry": { "type": "Point", "coordinates": [ 68.027344, 40.044438 ] } }
{"year": "AD560",  "type": "Feature", "tippecanoe": { "layer": "2AFCABD479081583916102304", "minzoom": 2, "maxzoom": 8 }, "properties": { "halo": 0.8, "title": "米国", "fontsize": 12, "tyid": "304000", "oid": "103:1576922401012", "color": "#202020" }, "geometry": { "type": "Point", "coordinates": [ 67.851562, 39.504041 ] } }
{"year": "AD560",  "type": "Feature", "tippecanoe": { "layer": "2AFCABD479081583916102304", "minzoom": 2, "maxzoom": 8 }, "properties": { "halo": 0.8, "title": "滥波国", "fontsize": 12, "tyid": "304000", "oid": "103:1576922400814", "color": "#202020" }, "geometry": { "type": "Point", "coordinates": [ 70.136719, 34.957995 ] } }
{"year": "AD560",  "type": "Feature", "tippecanoe": { "layer": "2AFCABD479081583916102304", "minzoom": 2, "maxzoom": 8 }, "properties": { "halo": 0.8, "title": "伐剌挐国", "fontsize": 12, "tyid": "304000", "oid": "103:1576922400837", "color": "#202020" }, "geometry": { "type": "Point", "coordinates": [ 70.136719, 32.546813 ] } }
{"year": "AD560",  "type": "Feature", "tippecanoe": { "layer": "2AFCABD479081583916102304", "minzoom": 2, "maxzoom": 8 }, "properties": { "halo": 0.8, "title": "那揭罗曷国", "fontsize": 12, "tyid": "304000", "oid": "103:1576922400815", "color": "#202020" }, "geometry": { "type": "Point", "coordinates": [ 70.400391, 34.379713 ] } }
{"year": "AD560",  "type": "Feature", "tippecanoe": { "layer": "2AFCABD479081583916102304", "minzoom": 2, "maxzoom": 8 }, "properties": { "halo": 0.8, "title": "呾叉始罗国", "fontsize": 12, "tyid": "304000", "oid": "103:1576922400810", "color": "#202020" }, "geometry": { "type": "Point", "coordinates": [ 72.773438, 33.797409 ] } }
{"year": "AD560",  "type": "Feature", "tippecanoe": { "layer": "2AFCABD479081583916102304", "minzoom": 2, "maxzoom": 8 }, "properties": { "halo": 0.8, "title": "竭盘陀国", "fontsize": 12, "tyid": "304000", "oid": "103:1576922400988", "color": "#202020" }, "geometry": { "type": "Point", "coordinates": [ 75.234375, 37.996163 ] } }
{"year": "AD560",  "type": "Feature", "tippecanoe": { "layer": "2AFCABD479081583916102304", "minzoom": 2, "maxzoom": 8 }, "properties": { "halo": 0.8, "title": "半笯嗟国", "fontsize": 12, "tyid": "304000", "oid": "103:1576922400774", "color": "#202020" }, "geometry": { "type": "Point", "coordinates": [ 73.828125, 33.943360 ] } }
{"year": "AD560",  "type": "Feature", "tippecanoe": { "layer": "2AFCABD479081583916102304", "minzoom": 2, "maxzoom": 8 }, "properties": { "halo": 0.8, "title": "遏罗阇补罗国", "fontsize": 12, "tyid": "304000", "oid": "103:1576922400806", "color": "#202020" }, "geometry": { "type": "Point", "coordinates": [ 74.443359, 33.358062 ] } }
{"year": "AD560",  "type": "Feature", "tippecanoe": { "layer": "2AFCABD479081583916102304", "minzoom": 2, "maxzoom": 8 }, "properties": { "halo": 0.8, "title": "僧诃补罗国", "fontsize": 12, "tyid": "304000", "oid": "103:1576922400807", "color": "#202020" }, "geometry": { "type": "Point", "coordinates": [ 73.300781, 32.990236 ] } }
{"year": "AD560",  "type": "Feature", "tippecanoe": { "layer": "2AFCABD479081583916102304", "minzoom": 2, "maxzoom": 8 }, "properties": { "halo": 0.8, "title": "乌剌尸国", "fontsize": 12, "tyid": "304000", "oid": "103:1576922400809", "color": "#202020" }, "geometry": { "type": "Point", "coordinates": [ 74.003906, 32.694866 ] } }
{"year": "AD560",  "type": "Feature", "tippecanoe": { "layer": "2AFCABD479081583916102304", "minzoom": 2, "maxzoom": 8 }, "properties": { "halo": 0.8, "title": "钵伐多国", "fontsize": 12, "tyid": "304000", "oid": "103:1576922400845", "color": "#202020" }, "geometry": { "type": "Point", "coordinates": [ 73.300781, 30.448674 ] } }
{"year": "AD560",  "type": "Feature", "tippecanoe": { "layer": "2AFCABD479081583916102304", "minzoom": 2, "maxzoom": 8 }, "properties": { "halo": 0.8, "title": "至那仆底国", "fontsize": 12, "tyid": "304000", "oid": "103:1576922400975", "color": "#202020" }, "geometry": { "type": "Point", "coordinates": [ 74.619141, 31.052934 ] } }
{"year": "AD560",  "type": "Feature", "tippecanoe": { "layer": "2AFCABD479081583916102304", "minzoom": 2, "maxzoom": 8 }, "properties": { "halo": 0.8, "title": "阇烂达罗国", "fontsize": 12, "tyid": "304000", "oid": "103:1576922400834", "color": "#202020" }, "geometry": { "type": "Point", "coordinates": [ 75.585938, 31.353637 ] } }
{"year": "AD560",  "type": "Feature", "tippecanoe": { "layer": "2AFCABD479081583916102304", "minzoom": 2, "maxzoom": 8 }, "properties": { "halo": 0.8, "title": "罗昂", "fontsize": 12, "tyid": "304000", "oid": "103:1576922400509", "color": "#202020" }, "geometry": { "type": "Point", "coordinates": [ 89.208984, 29.152161 ] } }
{"year": "AD560",  "type": "Feature", "tippecanoe": { "layer": "2AFCABD479081583916102304", "minzoom": 2, "maxzoom": 8 }, "properties": { "halo": 0.8, "title": "藏", "fontsize": 12, "tyid": "304000", "oid": "103:1576922400501", "color": "#202020" }, "geometry": { "type": "Point", "coordinates": [ 89.736328, 28.844674 ] } }
{"year": "AD560",  "type": "Feature", "tippecanoe": { "layer": "2AFCABD479081583916102304", "minzoom": 2, "maxzoom": 8 }, "properties": { "halo": 0.8, "title": "卓木南木松", "fontsize": 12, "tyid": "304000", "oid": "103:1576922400504", "color": "#202020" }, "geometry": { "type": "Point", "coordinates": [ 88.945312, 27.839076 ] } }
{"year": "AD560",  "type": "Feature", "tippecanoe": { "layer": "2AFCABD479081583916102304", "minzoom": 2, "maxzoom": 8 }, "properties": { "halo": 0.8, "title": "阿拉帕王朝", "fontsize": 12, "tyid": "304000", "oid": "103:1576922400978", "color": "#202020" }, "geometry": { "type": "Point", "coordinates": [ 75.322266, 12.811801 ] } }
{"year": "AD560",  "type": "Feature", "tippecanoe": { "layer": "2AFCABD479081583916102304", "minzoom": 2, "maxzoom": 8 }, "properties": { "halo": 0.8, "title": "西恒伽王朝", "fontsize": 12, "tyid": "304000", "oid": "103:1535120172549", "color": "#202020" }, "geometry": { "type": "Point", "coordinates": [ 76.464844, 12.125264 ] } }
{"year": "AD560",  "type": "Feature", "tippecanoe": { "layer": "2AFCABD479081583916102304", "minzoom": 2, "maxzoom": 8 }, "properties": { "halo": 0.8, "title": "吉", "fontsize": 12, "tyid": "304000", "oid": "103:1576922400508", "color": "#202020" }, "geometry": { "type": "Point", "coordinates": [ 91.406250, 29.764377 ] } }
{"year": "AD560",  "type": "Feature", "tippecanoe": { "layer": "2AFCABD479081583916102304", "minzoom": 2, "maxzoom": 8 }, "properties": { "halo": 0.8, "title": "琛", "fontsize": 12, "tyid": "304000", "oid": "103:1576922400505", "color": "#202020" }, "geometry": { "type": "Point", "coordinates": [ 91.230469, 29.382175 ] } }
{"year": "AD560",  "type": "Feature", "tippecanoe": { "layer": "2AFCABD479081583916102304", "minzoom": 2, "maxzoom": 8 }, "properties": { "halo": 0.8, "title": "悉补野", "fontsize": 12, "tyid": "304000", "oid": "103:1576922400502", "color": "#202020" }, "geometry": { "type": "Point", "coordinates": [ 91.845703, 29.152161 ] } }
{"year": "AD560",  "type": "Feature", "tippecanoe": { "layer": "2AFCABD479081583916102304", "minzoom": 2, "maxzoom": 8 }, "properties": { "halo": 0.8, "title": "俄玉邦噶", "fontsize": 12, "tyid": "304000", "oid": "103:1576922400512", "color": "#202020" }, "geometry": { "type": "Point", "coordinates": [ 92.548828, 29.152161 ] } }
{"year": "AD560",  "type": "Feature", "tippecanoe": { "layer": "2AFCABD479081583916102304", "minzoom": 2, "maxzoom": 8 }, "properties": { "halo": 0.8, "title": "娘", "fontsize": 12, "tyid": "304000", "oid": "103:1576922400513", "color": "#202020" }, "geometry": { "type": "Point", "coordinates": [ 93.339844, 29.916852 ] } }
{"year": "AD560",  "type": "Feature", "tippecanoe": { "layer": "2AFCABD479081583916102304", "minzoom": 2, "maxzoom": 8 }, "properties": { "halo": 0.8, "title": "贡", "fontsize": 12, "tyid": "304000", "oid": "103:1576922400510", "color": "#202020" }, "geometry": { "type": "Point", "coordinates": [ 94.482422, 29.688053 ] } }
{"year": "AD560",  "type": "Feature", "tippecanoe": { "layer": "2AFCABD479081583916102304", "minzoom": 2, "maxzoom": 8 }, "properties": { "halo": 0.8, "title": "达", "fontsize": 12, "tyid": "304000", "oid": "103:1576922400516", "color": "#202020" }, "geometry": { "type": "Point", "coordinates": [ 93.603516, 29.152161 ] } }
{"year": "AD560",  "type": "Feature", "tippecanoe": { "layer": "2AFCABD479081583916102304", "minzoom": 2, "maxzoom": 8 }, "properties": { "halo": 0.8, "title": "宕昌国", "fontsize": 12, "tyid": "304000", "oid": "103:1576922400827", "color": "#202020" }, "geometry": { "type": "Point", "coordinates": [ 104.150391, 33.943360 ] } }
{"year": "AD560",  "type": "Feature", "tippecanoe": { "layer": "2AFCABD479081583916102304", "minzoom": 2, "maxzoom": 8 }, "properties": { "halo": 0.8, "title": "迦托诃国", "fontsize": 12, "tyid": "304000", "oid": "103:1576922400422", "color": "#202020" }, "geometry": { "type": "Point", "coordinates": [ 100.283203, 6.315299 ] } }
{"year": "AD560",  "type": "Feature", "tippecanoe": { "layer": "2AFCABD479081583916102304", "minzoom": 2, "maxzoom": 8 }, "properties": { "halo": 0.8, "title": "狼牙脩国", "fontsize": 12, "tyid": "304000", "oid": "103:1576922400541", "color": "#202020" }, "geometry": { "type": "Point", "coordinates": [ 100.898438, 6.053161 ] } }
{"year": "AD560",  "type": "Feature", "tippecanoe": { "layer": "2AFCABD479081583916102304", "minzoom": 2, "maxzoom": 8 }, "properties": { "halo": 0.8, "title": "刚迦王国", "fontsize": 12, "tyid": "304000", "oid": "103:1576922400540", "color": "#202020" }, "geometry": { "type": "Point", "coordinates": [ 101.074219, 4.828260 ] } }
{"year": "AD560",  "type": "Feature", "tippecanoe": { "layer": "2AFCABD479081583916102304", "minzoom": 2, "maxzoom": 8 }, "properties": { "halo": 0.8, "title": "赵光复", "fontsize": 12, "tyid": "304002", "oid": "103:1576922400826", "color": "#262626" }, "geometry": { "type": "Point", "coordinates": [ 106.171875, 20.961440 ] } }
{"year": "AD560",  "type": "Feature", "tippecanoe": { "layer": "2AFCABD479081583916102304", "minzoom": 2, "maxzoom": 8 }, "properties": { "halo": 0.8, "title": "丹丹国", "fontsize": 12, "tyid": "304000", "oid": "103:1576922400761", "color": "#202020" }, "geometry": { "type": "Point", "coordinates": [ 103.359375, 2.108899 ] } }
{"year": "AD560",  "type": "Feature", "tippecanoe": { "layer": "2AFCABD479081583916102304", "minzoom": 2, "maxzoom": 8 }, "properties": { "halo": 0.8, "title": "番仔园文化", "fontsize": 12, "tyid": "304002", "oid": "103:1576922400520", "color": "#262626" }, "geometry": { "type": "Point", "coordinates": [ 120.673828, 24.287027 ] } }
{"year": "AD560",  "type": "Feature", "tippecanoe": { "layer": "2AFCABD479081583916102304", "minzoom": 2, "maxzoom": 8 }, "properties": { "halo": 0.8, "title": "茑松文化", "fontsize": 12, "tyid": "304002", "oid": "103:1576922400544", "color": "#262626" }, "geometry": { "type": "Point", "coordinates": [ 120.322266, 23.079732 ] } }
{"year": "AD560",  "type": "Feature", "tippecanoe": { "layer": "2AFCABD479081583916102304", "minzoom": 2, "maxzoom": 8 }, "properties": { "halo": 0.8, "title": "龟山文化", "fontsize": 12, "tyid": "304002", "oid": "103:1576922400550", "color": "#262626" }, "geometry": { "type": "Point", "coordinates": [ 120.673828, 22.512557 ] } }
{"year": "AD560",  "type": "Feature", "tippecanoe": { "layer": "2AFCABD479081583916102304", "minzoom": 2, "maxzoom": 8 }, "properties": { "halo": 0.8, "title": "十三行文化", "fontsize": 12, "tyid": "304002", "oid": "103:1576922400553", "color": "#262626" }, "geometry": { "type": "Point", "coordinates": [ 121.376953, 24.846565 ] } }
{"year": "AD560",  "type": "Feature", "tippecanoe": { "layer": "2AFCABD479081583916102304", "minzoom": 2, "maxzoom": 8 }, "properties": { "halo": 0.8, "title": "静浦文化", "fontsize": 12, "tyid": "304002", "oid": "103:1576922400548", "color": "#262626" }, "geometry": { "type": "Point", "coordinates": [ 121.025391, 22.917923 ] } }
{"year": "AD560",  "type": "Feature", "tippecanoe": { "layer": "2AFCABD479081583916102304", "minzoom": 2, "maxzoom": 8 }, "properties": { "halo": 0.8, "title": "雅美文化", "fontsize": 12, "tyid": "304002", "oid": "103:1576922400753", "color": "#262626" }, "geometry": { "type": "Point", "coordinates": [ 121.464844, 22.105999 ] } }
{"year": "AD560",  "type": "Feature", "tippecanoe": { "layer": "2AFCABD479081583916102304", "minzoom": 2, "maxzoom": 8 }, "properties": { "halo": 0.8, "title": "耽罗国", "fontsize": 12, "tyid": "304000", "oid": "103:1576922400518", "color": "#202020" }, "geometry": { "type": "Point", "coordinates": [ 126.474609, 33.431441 ] } }
{"year": "AD560",  "type": "Feature", "tippecanoe": { "layer": "2AFCABD479081583916102304", "minzoom": 2, "maxzoom": 8 }, "properties": { "halo": 0.8, "title": "伽倻", "fontsize": 12, "tyid": "304000", "oid": "103:1576922400523", "color": "#202020" }, "geometry": { "type": "Point", "coordinates": [ 127.880859, 35.532226 ] } }
{"year": "AD560",  "type": "Feature", "tippecanoe": { "layer": "2AFCABD479081583916102304", "minzoom": 2, "maxzoom": 8 }, "properties": { "halo": 0.8, "title": "任那", "fontsize": 12, "tyid": "304000", "oid": "103:1535120172634", "color": "#202020" }, "geometry": { "type": "Point", "coordinates": [ 128.056641, 35.101934 ] } }
{"year": "AD560",  "type": "Feature", "tippecanoe": { "layer": "2AFCABD479081583916102304", "minzoom": 2, "maxzoom": 8 }, "properties": { "halo": 0.8, "title": "隼人", "fontsize": 12, "tyid": "304001", "oid": "103:1576922400528", "color": "#262626" }, "geometry": { "type": "Point", "coordinates": [ 130.869141, 32.026706 ] } }
{"year": "AD560",  "type": "Feature", "tippecanoe": { "layer": "2AFCABD479081583916102304", "minzoom": 2, "maxzoom": 8 }, "properties": { "halo": 0.8, "title": "尼格利陀人", "fontsize": 12, "tyid": "304001", "oid": "103:1576922400683", "color": "#262626" }, "geometry": { "type": "Point", "coordinates": [ 122.431641, 11.264612 ] } }
{"year": "AD560",  "type": "Feature", "tippecanoe": { "layer": "2AFCABD479081583916102304", "minzoom": 2, "maxzoom": 8 }, "properties": { "halo": 0.8, "title": "渤泥国", "fontsize": 12, "tyid": "304000", "oid": "103:1576922400687", "color": "#202020" }, "geometry": { "type": "Point", "coordinates": [ 114.785156, 4.302591 ] } }
{"year": "AD560",  "type": "Feature", "tippecanoe": { "layer": "2AFCABD479081583916102304", "minzoom": 2, "maxzoom": 8 }, "properties": { "halo": 0.8, "title": "塔卢马王国", "fontsize": 12, "tyid": "304000", "oid": "103:1576922400686", "color": "#202020" }, "geometry": { "type": "Point", "coordinates": [ 106.787109, -6.402648 ] } }
{"year": "AD560",  "type": "Feature", "tippecanoe": { "layer": "2AFCABD479081583916102304", "minzoom": 2, "maxzoom": 8 }, "properties": { "halo": 0.8, "title": "托雷斯海峡岛民", "fontsize": 12, "tyid": "304001", "oid": "103:1576922400682", "color": "#262626" }, "geometry": { "type": "Point", "coordinates": [ 142.382812, -11.264612 ] } }
{"year": "AD560",  "type": "Feature", "tippecanoe": { "layer": "2AFCABD480B81583916102302", "minzoom": 2, "maxzoom": 8 }, "properties": { "halo": 0.8, "title": "诺顿文化", "fontsize": 12, "tyid": "304002", "oid": "103:1576922400764", "color": "#262626" }, "geometry": { "type": "Point", "coordinates": [ -162.949219, 65.403445 ] } }
{"year": "AD560",  "type": "Feature", "tippecanoe": { "layer": "2AFCABD480B81583916102302", "minzoom": 2, "maxzoom": 8 }, "properties": { "halo": 0.8, "title": "圣路易斯雷伊文化", "fontsize": 12, "tyid": "304002", "oid": "103:1576922400798", "color": "#262626" }, "geometry": { "type": "Point", "coordinates": [ -118.916016, 34.597042 ] } }
{"year": "AD560",  "type": "Feature", "tippecanoe": { "layer": "2AFCABD480B81583916102302", "minzoom": 2, "maxzoom": 8 }, "properties": { "halo": 0.8, "title": "维珍阿纳萨齐人", "fontsize": 12, "tyid": "304001", "oid": "103:1576922401031", "color": "#262626" }, "geometry": { "type": "Point", "coordinates": [ -113.818359, 36.879621 ] } }
{"year": "AD560",  "type": "Feature", "tippecanoe": { "layer": "2AFCABD480B81583916102302", "minzoom": 2, "maxzoom": 8 }, "properties": { "halo": 0.8, "title": "霍霍卡姆文化", "fontsize": 12, "tyid": "304002", "oid": "103:1576922400580", "color": "#262626" }, "geometry": { "type": "Point", "coordinates": [ -112.851562, 32.768800 ] } }
{"year": "AD560",  "type": "Feature", "tippecanoe": { "layer": "2AFCABD480B81583916102302", "minzoom": 2, "maxzoom": 8 }, "properties": { "halo": 0.8, "title": "科蒙德文化", "fontsize": 12, "tyid": "304002", "oid": "103:1576922400413", "color": "#262626" }, "geometry": { "type": "Point", "coordinates": [ -114.169922, 28.921631 ] } }
{"year": "AD560",  "type": "Feature", "tippecanoe": { "layer": "2AFCABD480B81583916102302", "minzoom": 2, "maxzoom": 8 }, "properties": { "halo": 0.8, "title": "弗里蒙特文化", "fontsize": 12, "tyid": "304002", "oid": "103:1576922400847", "color": "#262626" }, "geometry": { "type": "Point", "coordinates": [ -111.533203, 38.134557 ] } }
{"year": "AD560",  "type": "Feature", "tippecanoe": { "layer": "2AFCABD480B81583916102302", "minzoom": 2, "maxzoom": 8 }, "properties": { "halo": 0.8, "title": "斯内瓜文化", "fontsize": 12, "tyid": "304002", "oid": "103:1576922400593", "color": "#262626" }, "geometry": { "type": "Point", "coordinates": [ -111.357422, 34.379713 ] } }
{"year": "AD560",  "type": "Feature", "tippecanoe": { "layer": "2AFCABD480B81583916102302", "minzoom": 2, "maxzoom": 8 }, "properties": { "halo": 0.8, "title": "莫戈隆文化", "fontsize": 12, "tyid": "304002", "oid": "103:1576922400615", "color": "#262626" }, "geometry": { "type": "Point", "coordinates": [ -108.808594, 31.802893 ] } }
{"year": "AD560",  "type": "Feature", "tippecanoe": { "layer": "2AFCABD480B81583916102302", "minzoom": 2, "maxzoom": 8 }, "properties": { "halo": 0.8, "title": "瓜伊库拉人", "fontsize": 12, "tyid": "304001", "oid": "103:1576922400850", "color": "#262626" }, "geometry": { "type": "Point", "coordinates": [ -111.621094, 25.165173 ] } }
{"year": "AD560",  "type": "Feature", "tippecanoe": { "layer": "2AFCABD480B81583916102302", "minzoom": 2, "maxzoom": 8 }, "properties": { "halo": 0.8, "title": "堪萨斯城霍普韦尔文化", "fontsize": 12, "tyid": "304002", "oid": "103:1576922400619", "color": "#262626" }, "geometry": { "type": "Point", "coordinates": [ -93.427734, 38.685510 ] } }
{"year": "AD560",  "type": "Feature", "tippecanoe": { "layer": "2AFCABD480B81583916102302", "minzoom": 2, "maxzoom": 8 }, "properties": { "halo": 0.8, "title": "福切马里尼文化", "fontsize": 12, "tyid": "304002", "oid": "103:1576922400663", "color": "#262626" }, "geometry": { "type": "Point", "coordinates": [ -94.042969, 33.358062 ] } }
{"year": "AD560",  "type": "Feature", "tippecanoe": { "layer": "2AFCABD480B81583916102302", "minzoom": 2, "maxzoom": 8 }, "properties": { "halo": 0.8, "title": "喀多语密西西比文化", "fontsize": 12, "tyid": "304002", "oid": "103:1576922400899", "color": "#262626" }, "geometry": { "type": "Point", "coordinates": [ -92.812500, 35.960223 ] } }
{"year": "AD560",  "type": "Feature", "tippecanoe": { "layer": "2AFCABD480B81583916102302", "minzoom": 2, "maxzoom": 8 }, "properties": { "halo": 0.8, "title": "贝敦文化", "fontsize": 12, "tyid": "304002", "oid": "103:1576922400483", "color": "#262626" }, "geometry": { "type": "Point", "coordinates": [ -90.703125, 34.379713 ] } }
{"year": "AD560",  "type": "Feature", "tippecanoe": { "layer": "2AFCABD480B81583916102302", "minzoom": 2, "maxzoom": 8 }, "properties": { "halo": 0.8, "title": "华斯塔克文明", "fontsize": 12, "tyid": "304002", "oid": "103:1576922400534", "color": "#262626" }, "geometry": { "type": "Point", "coordinates": [ -98.613281, 22.105999 ] } }
{"year": "AD560",  "type": "Feature", "tippecanoe": { "layer": "2AFCABD480B81583916102302", "minzoom": 2, "maxzoom": 8 }, "properties": { "halo": 0.8, "title": "奇蒂玛察人", "fontsize": 12, "tyid": "304001", "oid": "103:1576922400489", "color": "#262626" }, "geometry": { "type": "Point", "coordinates": [ -91.582031, 30.448674 ] } }
{"year": "AD560",  "type": "Feature", "tippecanoe": { "layer": "2AFCABD480B81583916102302", "minzoom": 2, "maxzoom": 8 }, "properties": { "halo": 0.8, "title": "萨波特克文明", "fontsize": 12, "tyid": "304002", "oid": "103:1576922400668", "color": "#262626" }, "geometry": { "type": "Point", "coordinates": [ -96.064453, 16.888660 ] } }
{"year": "AD560",  "type": "Feature", "tippecanoe": { "layer": "2AFCABD480B81583916102302", "minzoom": 2, "maxzoom": 8 }, "properties": { "halo": 0.8, "title": "贝奥图克人", "fontsize": 12, "tyid": "304001", "oid": "103:1576922400717", "color": "#262626" }, "geometry": { "type": "Point", "coordinates": [ -56.074219, 48.748945 ] } }
{"year": "AD560",  "type": "Feature", "tippecanoe": { "layer": "2AFCABD480B81583916102302", "minzoom": 2, "maxzoom": 8 }, "properties": { "halo": 0.8, "title": "米勒文化", "fontsize": 12, "tyid": "304002", "oid": "103:1576922400794", "color": "#262626" }, "geometry": { "type": "Point", "coordinates": [ -87.802734, 34.379713 ] } }
{"year": "AD560",  "type": "Feature", "tippecanoe": { "layer": "2AFCABD480B81583916102302", "minzoom": 2, "maxzoom": 8 }, "properties": { "halo": 0.8, "title": "特洛伊维尔文化", "fontsize": 12, "tyid": "304002", "oid": "103:1576922400564", "color": "#262626" }, "geometry": { "type": "Point", "coordinates": [ -89.912109, 32.101190 ] } }
{"year": "AD560",  "type": "Feature", "tippecanoe": { "layer": "2AFCABD480B81583916102302", "minzoom": 2, "maxzoom": 8 }, "properties": { "halo": 0.8, "title": "斯威夫特溪文化", "fontsize": 12, "tyid": "304002", "oid": "103:1576922400479", "color": "#262626" }, "geometry": { "type": "Point", "coordinates": [ -84.814453, 32.175612 ] } }
{"year": "AD560",  "type": "Feature", "tippecanoe": { "layer": "2AFCABD480B81583916102302", "minzoom": 2, "maxzoom": 8 }, "properties": { "halo": 0.8, "title": "丹河文化", "fontsize": 12, "tyid": "304002", "oid": "103:1576922400937", "color": "#262626" }, "geometry": { "type": "Point", "coordinates": [ -81.914062, 37.509726 ] } }
{"year": "AD560",  "type": "Feature", "tippecanoe": { "layer": "2AFCABD480B81583916102302", "minzoom": 2, "maxzoom": 8 }, "properties": { "halo": 0.8, "title": "德普特福德文化", "fontsize": 12, "tyid": "304002", "oid": "103:1576922400652", "color": "#262626" }, "geometry": { "type": "Point", "coordinates": [ -79.628906, 33.431441 ] } }
{"year": "AD560",  "type": "Feature", "tippecanoe": { "layer": "2AFCABD480B81583916102302", "minzoom": 2, "maxzoom": 8 }, "properties": { "halo": 0.8, "title": "圣罗莎-斯威夫特溪文化", "fontsize": 12, "tyid": "304002", "oid": "103:1576922400638", "color": "#262626" }, "geometry": { "type": "Point", "coordinates": [ -86.748047, 30.977609 ] } }
{"year": "AD560",  "type": "Feature", "tippecanoe": { "layer": "2AFCABD480B81583916102302", "minzoom": 2, "maxzoom": 8 }, "properties": { "halo": 0.8, "title": "维登岛文化", "fontsize": 12, "tyid": "304002", "oid": "103:1576922400646", "color": "#262626" }, "geometry": { "type": "Point", "coordinates": [ -84.902344, 30.524413 ] } }
{"year": "AD560",  "type": "Feature", "tippecanoe": { "layer": "2AFCABD480B81583916102302", "minzoom": 2, "maxzoom": 8 }, "properties": { "halo": 0.8, "title": "泰诺人", "fontsize": 12, "tyid": "304001", "oid": "103:1576922400537", "color": "#262626" }, "geometry": { "type": "Point", "coordinates": [ -79.628906, 22.105999 ] } }
{"year": "AD560",  "type": "Feature", "tippecanoe": { "layer": "2AFCABD480B81583916102302", "minzoom": 2, "maxzoom": 8 }, "properties": { "halo": 0.8, "title": "佩奇人", "fontsize": 12, "tyid": "304001", "oid": "103:1576922400585", "color": "#262626" }, "geometry": { "type": "Point", "coordinates": [ -84.814453, 15.368950 ] } }
{"year": "AD560",  "type": "Feature", "tippecanoe": { "layer": "2AFCABD480B81583916102302", "minzoom": 2, "maxzoom": 8 }, "properties": { "halo": 0.8, "title": "兹努文化", "fontsize": 12, "tyid": "304002", "oid": "103:1576922400858", "color": "#262626" }, "geometry": { "type": "Point", "coordinates": [ -75.585938, 8.581021 ] } }
{"year": "AD560",  "type": "Feature", "tippecanoe": { "layer": "2AFCABD480B81583916102302", "minzoom": 2, "maxzoom": 8 }, "properties": { "halo": 0.8, "title": "埃雷拉时期", "fontsize": 12, "tyid": "304002", "oid": "103:1576922400644", "color": "#262626" }, "geometry": { "type": "Point", "coordinates": [ -73.037109, 5.965754 ] } }
{"year": "AD560",  "type": "Feature", "tippecanoe": { "layer": "2AFCABD480B81583916102302", "minzoom": 2, "maxzoom": 8 }, "properties": { "halo": 0.8, "title": "伊奈里人", "fontsize": 12, "tyid": "304001", "oid": "103:1576922400640", "color": "#262626" }, "geometry": { "type": "Point", "coordinates": [ -61.787109, 8.754795 ] } }
{"year": "AD560",  "type": "Feature", "tippecanoe": { "layer": "2AFCABD480B81583916102302", "minzoom": 2, "maxzoom": 8 }, "properties": { "halo": 0.8, "title": "达尔里阿达王国", "fontsize": 12, "tyid": "304000", "oid": "103:1535120172691", "color": "#202020" }, "geometry": { "type": "Point", "coordinates": [ -5.009766, 56.072035 ] } }
{"year": "AD560",  "type": "Feature", "tippecanoe": { "layer": "2AFCABD480B81583916102302", "minzoom": 2, "maxzoom": 8 }, "properties": { "halo": 0.8, "title": "皮克特诸王国", "fontsize": 12, "tyid": "304000", "oid": "103:1535120172688", "color": "#202020" }, "geometry": { "type": "Point", "coordinates": [ -3.691406, 57.040730 ] } }
{"year": "AD560",  "type": "Feature", "tippecanoe": { "layer": "2AFCABD480B81583916102302", "minzoom": 2, "maxzoom": 8 }, "properties": { "halo": 0.8, "title": "康诺特诸王国", "fontsize": 12, "tyid": "304000", "oid": "103:1576922400954", "color": "#202020" }, "geometry": { "type": "Point", "coordinates": [ -8.876953, 53.800651 ] } }
{"year": "AD560",  "type": "Feature", "tippecanoe": { "layer": "2AFCABD480B81583916102302", "minzoom": 2, "maxzoom": 8 }, "properties": { "halo": 0.8, "title": "盖尔人", "fontsize": 12, "tyid": "304001", "oid": "103:1576922400660", "color": "#262626" }, "geometry": { "type": "Point", "coordinates": [ -6.943359, 53.173119 ] } }
{"year": "AD560",  "type": "Feature", "tippecanoe": { "layer": "2AFCABD480B81583916102302", "minzoom": 2, "maxzoom": 8 }, "properties": { "halo": 0.8, "title": "明斯特王国", "fontsize": 12, "tyid": "304000", "oid": "103:1576922400583", "color": "#202020" }, "geometry": { "type": "Point", "coordinates": [ -8.701172, 52.375599 ] } }
{"year": "AD560",  "type": "Feature", "tippecanoe": { "layer": "2AFCABD480B81583916102302", "minzoom": 2, "maxzoom": 8 }, "properties": { "halo": 0.8, "title": "凯尔特布立吞人", "fontsize": 12, "tyid": "304001", "oid": "103:1576922400746", "color": "#262626" }, "geometry": { "type": "Point", "coordinates": [ -2.285156, 53.904338 ] } }
{"year": "AD560",  "type": "Feature", "tippecanoe": { "layer": "2AFCABD480B81583916102302", "minzoom": 2, "maxzoom": 8 }, "properties": { "halo": 0.8, "title": "盎格鲁-撒克逊人", "fontsize": 12, "tyid": "304001", "oid": "103:1576922400675", "color": "#262626" }, "geometry": { "type": "Point", "coordinates": [ -0.263672, 52.429222 ] } }
{"year": "AD560",  "type": "Feature", "tippecanoe": { "layer": "2AFCABD480B81583916102302", "minzoom": 2, "maxzoom": 8 }, "properties": { "halo": 0.8, "title": "苏维汇王国", "fontsize": 12, "tyid": "304000", "oid": "103:1535120172622", "color": "#202020" }, "geometry": { "type": "Point", "coordinates": [ -7.646484, 41.640078 ] } }
{"year": "AD560",  "type": "Feature", "tippecanoe": { "layer": "2AFCABD480B81583916102302", "minzoom": 2, "maxzoom": 8 }, "properties": { "halo": 0.8, "title": "杰内-杰诺文化三期", "fontsize": 12, "tyid": "304002", "oid": "103:1576922400901", "color": "#262626" }, "geometry": { "type": "Point", "coordinates": [ -3.955078, 14.093957 ] } }
{"year": "AD560",  "type": "Feature", "tippecanoe": { "layer": "2AFCABD480B81583916102302", "minzoom": 2, "maxzoom": 8 }, "properties": { "halo": 0.8, "title": "米拉格罗-克韦多文化", "fontsize": 12, "tyid": "304002", "oid": "103:1576922400856", "color": "#262626" }, "geometry": { "type": "Point", "coordinates": [ -79.980469, -1.669686 ] } }
{"year": "AD560",  "type": "Feature", "tippecanoe": { "layer": "2AFCABD480B81583916102302", "minzoom": 2, "maxzoom": 8 }, "properties": { "halo": 0.8, "title": "基图文化", "fontsize": 12, "tyid": "304002", "oid": "103:1576922400624", "color": "#262626" }, "geometry": { "type": "Point", "coordinates": [ -78.222656, -0.966751 ] } }
{"year": "AD560",  "type": "Feature", "tippecanoe": { "layer": "2AFCABD480B81583916102302", "minzoom": 2, "maxzoom": 8 }, "properties": { "halo": 0.8, "title": "阿塔卡马人", "fontsize": 12, "tyid": "304001", "oid": "103:1576922400459", "color": "#262626" }, "geometry": { "type": "Point", "coordinates": [ -69.082031, -25.085599 ] } }
{"year": "AD560",  "type": "Feature", "tippecanoe": { "layer": "2AFCABD480B81583916102302", "minzoom": 2, "maxzoom": 8 }, "properties": { "halo": 0.8, "title": "昌戈人", "fontsize": 12, "tyid": "304001", "oid": "103:1576922400576", "color": "#262626" }, "geometry": { "type": "Point", "coordinates": [ -70.136719, -26.902477 ] } }
{"year": "AD560",  "type": "Feature", "tippecanoe": { "layer": "2AFCABD480B81583916102302", "minzoom": 2, "maxzoom": 8 }, "properties": { "halo": 0.8, "title": "阿拉米托文化", "fontsize": 12, "tyid": "304002", "oid": "103:1576922400916", "color": "#262626" }, "geometry": { "type": "Point", "coordinates": [ -67.851562, -26.588527 ] } }
{"year": "AD560",  "type": "Feature", "tippecanoe": { "layer": "2AFCABD480B81583916102302", "minzoom": 2, "maxzoom": 8 }, "properties": { "halo": 0.8, "title": "埃尔莫尔文化", "fontsize": 12, "tyid": "304002", "oid": "103:1576922400487", "color": "#262626" }, "geometry": { "type": "Point", "coordinates": [ -70.927734, -30.675715 ] } }
{"year": "AD560",  "type": "Feature", "tippecanoe": { "layer": "2AFCABD480B81583916102302", "minzoom": 2, "maxzoom": 8 },