{ "type": "Feature", "tippecanoe": { "layer": "2AFCABA735881583915985428", "minzoom": 2, "maxzoom": 8 }, "properties": { "halo": 0.8, "title": "古白令海文化", "fontsize": 12, "tyid": "304002", "oid": "103:1576575141738", "color": "#262626" }, "geometry": { "type": "Point", "coordinates": [ -170.332031, 63.470145 ] } }
{ "type": "Feature", "tippecanoe": { "layer": "2AFCABA735881583915985428", "minzoom": 2, "maxzoom": 8 }, "properties": { "halo": 0.8, "title": "梅奥人", "fontsize": 12, "tyid": "304001", "oid": "103:1576575141906", "color": "#262626" }, "geometry": { "type": "Point", "coordinates": [ -109.160156, 26.667096 ] } }
{ "type": "Feature", "tippecanoe": { "layer": "2AFCABA735881583915985428", "minzoom": 2, "maxzoom": 8 }, "properties": { "halo": 0.8, "title": "查尔奇维特斯文化", "fontsize": 12, "tyid": "304002", "oid": "103:1576575141896", "color": "#262626" }, "geometry": { "type": "Point", "coordinates": [ -103.974609, 23.483401 ] } }
{ "type": "Feature", "tippecanoe": { "layer": "2AFCABA735881583915985428", "minzoom": 2, "maxzoom": 8 }, "properties": { "halo": 0.8, "title": "巴希奥文化", "fontsize": 12, "tyid": "304002", "oid": "103:1576575141619", "color": "#262626" }, "geometry": { "type": "Point", "coordinates": [ -99.931641, 20.961440 ] } }
{ "type": "Feature", "tippecanoe": { "layer": "2AFCABA735881583915985428", "minzoom": 2, "maxzoom": 8 }, "properties": { "halo": 0.8, "title": "特奥蒂瓦坎", "fontsize": 12, "tyid": "304002", "oid": "103:1576575141580", "color": "#262626" }, "geometry": { "type": "Point", "coordinates": [ -99.404297, 19.808054 ] } }
{ "type": "Feature", "tippecanoe": { "layer": "2AFCABA735881583915985428", "minzoom": 2, "maxzoom": 8 }, "properties": { "halo": 0.8, "title": "圣米格尔伊克帕坦文化", "fontsize": 12, "tyid": "304002", "oid": "103:1576575141889", "color": "#262626" }, "geometry": { "type": "Point", "coordinates": [ -100.019531, 19.062118 ] } }
{ "type": "Feature", "tippecanoe": { "layer": "2AFCABA735881583915985428", "minzoom": 2, "maxzoom": 8 }, "properties": { "halo": 0.8, "title": "科韦克卡-琼塔尔文化", "fontsize": 12, "tyid": "304002", "oid": "103:1576575141881", "color": "#262626" }, "geometry": { "type": "Point", "coordinates": [ -99.667969, 18.062312 ] } }
{ "type": "Feature", "tippecanoe": { "layer": "2AFCABA735881583915985428", "minzoom": 2, "maxzoom": 8 }, "properties": { "halo": 0.8, "title": "托托纳克人", "fontsize": 12, "tyid": "304001", "oid": "103:1576575141569", "color": "#262626" }, "geometry": { "type": "Point", "coordinates": [ -98.349609, 20.220966 ] } }
{ "type": "Feature", "tippecanoe": { "layer": "2AFCABA735881583915985428", "minzoom": 2, "maxzoom": 8 }, "properties": { "halo": 0.8, "title": "古韦拉克鲁斯文化", "fontsize": 12, "tyid": "304002", "oid": "103:1576575141554", "color": "#262626" }, "geometry": { "type": "Point", "coordinates": [ -96.767578, 19.642588 ] } }
{ "type": "Feature", "tippecanoe": { "layer": "2AFCABA735881583915985428", "minzoom": 2, "maxzoom": 8 }, "properties": { "halo": 0.8, "title": "米斯特克人", "fontsize": 12, "tyid": "304001", "oid": "103:1576575141481", "color": "#262626" }, "geometry": { "type": "Point", "coordinates": [ -98.349609, 17.224758 ] } }
{ "type": "Feature", "tippecanoe": { "layer": "2AFCABA735881583915985428", "minzoom": 2, "maxzoom": 8 }, "properties": { "halo": 0.8, "title": "特里克人", "fontsize": 12, "tyid": "304001", "oid": "103:1576575141917", "color": "#262626" }, "geometry": { "type": "Point", "coordinates": [ -97.382812, 17.811456 ] } }
{ "type": "Feature", "tippecanoe": { "layer": "2AFCABA735881583915985428", "minzoom": 2, "maxzoom": 8 }, "properties": { "halo": 0.8, "title": "洛瓦贾达斯文化", "fontsize": 12, "tyid": "304002", "oid": "103:1576575141907", "color": "#262626" }, "geometry": { "type": "Point", "coordinates": [ -96.416016, 19.145168 ] } }
{ "type": "Feature", "tippecanoe": { "layer": "2AFCABA735881583915985428", "minzoom": 2, "maxzoom": 8 }, "properties": { "halo": 0.8, "title": "麦克斯人", "fontsize": 12, "tyid": "304001", "oid": "103:1576575141901", "color": "#262626" }, "geometry": { "type": "Point", "coordinates": [ -96.503906, 18.312811 ] } }
{ "type": "Feature", "tippecanoe": { "layer": "2AFCABA735881583915985428", "minzoom": 2, "maxzoom": 8 }, "properties": { "halo": 0.8, "title": "佐齐尔人", "fontsize": 12, "tyid": "304001", "oid": "103:1576575141803", "color": "#262626" }, "geometry": { "type": "Point", "coordinates": [ -93.339844, 16.551962 ] } }
{ "type": "Feature", "tippecanoe": { "layer": "2AFCABA735881583915985428", "minzoom": 2, "maxzoom": 8 }, "properties": { "halo": 0.8, "title": "祖赫人", "fontsize": 12, "tyid": "304001", "oid": "103:1576575141641", "color": "#262626" }, "geometry": { "type": "Point", "coordinates": [ -92.109375, 16.045813 ] } }
{ "type": "Feature", "tippecanoe": { "layer": "2AFCABA735881583915985428", "minzoom": 2, "maxzoom": 8 }, "properties": { "halo": 0.8, "title": "基切人", "fontsize": 12, "tyid": "304001", "oid": "103:1576575141361", "color": "#262626" }, "geometry": { "type": "Point", "coordinates": [ -90.966797, 15.029686 ] } }
{ "type": "Feature", "tippecanoe": { "layer": "2AFCABA735881583915985428", "minzoom": 2, "maxzoom": 8 }, "properties": { "halo": 0.8, "title": "怒溪文化", "fontsize": 12, "tyid": "304002", "oid": "103:1576575141355", "color": "#262626" }, "geometry": { "type": "Point", "coordinates": [ -72.421875, 41.574361 ] } }
{ "type": "Feature", "tippecanoe": { "layer": "2AFCABA735881583915985428", "minzoom": 2, "maxzoom": 8 }, "properties": { "halo": 0.8, "title": "埃里森-拉莫特文化", "fontsize": 12, "tyid": "304002", "oid": "103:1576575141479", "color": "#262626" }, "geometry": { "type": "Point", "coordinates": [ -87.626953, 39.095963 ] } }
{ "type": "Feature", "tippecanoe": { "layer": "2AFCABA735881583915985428", "minzoom": 2, "maxzoom": 8 }, "properties": { "halo": 0.8, "title": "凯兹池塘文化", "fontsize": 12, "tyid": "304002", "oid": "103:1576575141892", "color": "#262626" }, "geometry": { "type": "Point", "coordinates": [ -82.265625, 29.535230 ] } }
{ "type": "Feature", "tippecanoe": { "layer": "2AFCABA735881583915985428", "minzoom": 2, "maxzoom": 8 }, "properties": { "halo": 0.8, "title": "玛纳索塔文化", "fontsize": 12, "tyid": "304002", "oid": "103:1576575141754", "color": "#262626" }, "geometry": { "type": "Point", "coordinates": [ -82.441406, 27.683528 ] } }
{ "type": "Feature", "tippecanoe": { "layer": "2AFCABA735881583915985428", "minzoom": 2, "maxzoom": 8 }, "properties": { "halo": 0.8, "title": "卡卢萨哈契文化", "fontsize": 12, "tyid": "304002", "oid": "103:1576575141670", "color": "#262626" }, "geometry": { "type": "Point", "coordinates": [ -81.650391, 27.137368 ] } }
{ "type": "Feature", "tippecanoe": { "layer": "2AFCABA735881583915985428", "minzoom": 2, "maxzoom": 8 }, "properties": { "halo": 0.8, "title": "圣约翰文化", "fontsize": 12, "tyid": "304002", "oid": "103:1576575141673", "color": "#262626" }, "geometry": { "type": "Point", "coordinates": [ -81.474609, 29.382175 ] } }
{ "type": "Feature", "tippecanoe": { "layer": "2AFCABA735881583915985428", "minzoom": 2, "maxzoom": 8 }, "properties": { "halo": 0.8, "title": "贝尔格莱德文化", "fontsize": 12, "tyid": "304002", "oid": "103:1576575141843", "color": "#262626" }, "geometry": { "type": "Point", "coordinates": [ -80.859375, 27.527758 ] } }
{ "type": "Feature", "tippecanoe": { "layer": "2AFCABA735881583915985428", "minzoom": 2, "maxzoom": 8 }, "properties": { "halo": 0.8, "title": "格莱兹文化", "fontsize": 12, "tyid": "304002", "oid": "103:1576575141750", "color": "#262626" }, "geometry": { "type": "Point", "coordinates": [ -80.859375, 26.037042 ] } }
{ "type": "Feature", "tippecanoe": { "layer": "2AFCABA735881583915985428", "minzoom": 2, "maxzoom": 8 }, "properties": { "halo": 0.8, "title": "德贵斯塔族", "fontsize": 12, "tyid": "304001", "oid": "103:1576575141644", "color": "#262626" }, "geometry": { "type": "Point", "coordinates": [ -80.419922, 25.641526 ] } }
{ "type": "Feature", "tippecanoe": { "layer": "2AFCABA735881583915985428", "minzoom": 2, "maxzoom": 8 }, "properties": { "halo": 0.8, "title": "卡卡普拉人", "fontsize": 12, "tyid": "304001", "oid": "103:1576575141804", "color": "#262626" }, "geometry": { "type": "Point", "coordinates": [ -88.154297, 13.838080 ] } }
{ "type": "Feature", "tippecanoe": { "layer": "2AFCABA735881583915985428", "minzoom": 2, "maxzoom": 8 }, "properties": { "halo": 0.8, "title": "雷卡人", "fontsize": 12, "tyid": "304001", "oid": "103:1576575141428", "color": "#262626" }, "geometry": { "type": "Point", "coordinates": [ -87.275391, 13.667338 ] } }
{ "type": "Feature", "tippecanoe": { "layer": "2AFCABA735881583915985428", "minzoom": 2, "maxzoom": 8 }, "properties": { "halo": 0.8, "title": "迪基斯文化", "fontsize": 12, "tyid": "304002", "oid": "103:1576575141655", "color": "#262626" }, "geometry": { "type": "Point", "coordinates": [ -83.320312, 8.928487 ] } }
{ "type": "Feature", "tippecanoe": { "layer": "2AFCABA735881583915985428", "minzoom": 2, "maxzoom": 8 }, "properties": { "halo": 0.8, "title": "格兰科克勒文化", "fontsize": 12, "tyid": "304002", "oid": "103:1576575141587", "color": "#262626" }, "geometry": { "type": "Point", "coordinates": [ -80.507812, 8.581021 ] } }
{ "type": "Feature", "tippecanoe": { "layer": "2AFCABA735881583915985428", "minzoom": 2, "maxzoom": 8 }, "properties": { "halo": 0.8, "title": "泰罗纳", "fontsize": 12, "tyid": "304000", "oid": "103:1576575141692", "color": "#202020" }, "geometry": { "type": "Point", "coordinates": [ -73.564453, 10.833306 ] } }
{ "type": "Feature", "tippecanoe": { "layer": "2AFCABA735881583915985428", "minzoom": 2, "maxzoom": 8 }, "properties": { "halo": 0.8, "title": "约托科文化", "fontsize": 12, "tyid": "304002", "oid": "103:1576575141888", "color": "#262626" }, "geometry": { "type": "Point", "coordinates": [ -76.464844, 3.864255 ] } }
{ "type": "Feature", "tippecanoe": { "layer": "2AFCABA735881583915985428", "minzoom": 2, "maxzoom": 8 }, "properties": { "halo": 0.8, "title": "昆巴雅文明", "fontsize": 12, "tyid": "304002", "oid": "103:1576575141988", "color": "#262626" }, "geometry": { "type": "Point", "coordinates": [ -75.761719, 5.090944 ] } }
{ "type": "Feature", "tippecanoe": { "layer": "2AFCABA735881583915985428", "minzoom": 2, "maxzoom": 8 }, "properties": { "halo": 0.8, "title": "潘切人", "fontsize": 12, "tyid": "304001", "oid": "103:1576575141543", "color": "#262626" }, "geometry": { "type": "Point", "coordinates": [ -74.619141, 4.740675 ] } }
{ "type": "Feature", "tippecanoe": { "layer": "2AFCABA735881583915985428", "minzoom": 2, "maxzoom": 8 }, "properties": { "halo": 0.8, "title": "萨拉杜文化", "fontsize": 12, "tyid": "304002", "oid": "103:1576575141845", "color": "#262626" }, "geometry": { "type": "Point", "coordinates": [ -61.699219, 16.214675 ] } }
{ "type": "Feature", "tippecanoe": { "layer": "2AFCABA735881583915985428", "minzoom": 2, "maxzoom": 8 }, "properties": { "halo": 0.8, "title": "埃里克王国", "fontsize": 12, "tyid": "304000", "oid": "103:1576575141399", "color": "#202020" }, "geometry": { "type": "Point", "coordinates": [ -7.646484, 54.622978 ] } }
{ "type": "Feature", "tippecanoe": { "layer": "2AFCABA735881583915985428", "minzoom": 2, "maxzoom": 8 }, "properties": { "halo": 0.8, "title": "乌勒王国", "fontsize": 12, "tyid": "304000", "oid": "103:1576575141882", "color": "#202020" }, "geometry": { "type": "Point", "coordinates": [ -6.152344, 54.418930 ] } }
{ "type": "Feature", "tippecanoe": { "layer": "2AFCABA735881583915985428", "minzoom": 2, "maxzoom": 8 }, "properties": { "halo": 0.8, "title": "奥利尔王国", "fontsize": 12, "tyid": "304000", "oid": "103:1576575141540", "color": "#202020" }, "geometry": { "type": "Point", "coordinates": [ -7.031250, 54.110943 ] } }
{ "type": "Feature", "tippecanoe": { "layer": "2AFCABA735881583915985428", "minzoom": 2, "maxzoom": 8 }, "properties": { "halo": 0.8, "title": "斯特拉瑟克雷德王国", "fontsize": 12, "tyid": "304000", "oid": "103:1576575141381", "color": "#202020" }, "geometry": { "type": "Point", "coordinates": [ -4.218750, 55.429013 ] } }
{ "type": "Feature", "tippecanoe": { "layer": "2AFCABA735881583915985428", "minzoom": 2, "maxzoom": 8 }, "properties": { "halo": 0.8, "title": "格温内斯王国", "fontsize": 12, "tyid": "304000", "oid": "103:1576575141594", "color": "#202020" }, "geometry": { "type": "Point", "coordinates": [ -3.867188, 53.014783 ] } }
{ "type": "Feature", "tippecanoe": { "layer": "2AFCABA735881583915985428", "minzoom": 2, "maxzoom": 8 }, "properties": { "halo": 0.8, "title": "波威斯王国", "fontsize": 12, "tyid": "304000", "oid": "103:1576575141862", "color": "#202020" }, "geometry": { "type": "Point", "coordinates": [ -3.339844, 52.536273 ] } }
{ "type": "Feature", "tippecanoe": { "layer": "2AFCABA735881583915985428", "minzoom": 2, "maxzoom": 8 }, "properties": { "halo": 0.8, "title": "麦西亚王国", "fontsize": 12, "tyid": "304000", "oid": "103:1576575141394", "color": "#202020" }, "geometry": { "type": "Point", "coordinates": [ -1.406250, 52.749594 ] } }
{ "type": "Feature", "tippecanoe": { "layer": "2AFCABA735881583915985428", "minzoom": 2, "maxzoom": 8 }, "properties": { "halo": 0.8, "title": "锡尔迪金王国", "fontsize": 12, "tyid": "304000", "oid": "103:1576575141412", "color": "#202020" }, "geometry": { "type": "Point", "coordinates": [ -4.306641, 52.160455 ] } }
{ "type": "Feature", "tippecanoe": { "layer": "2AFCABA735881583915985428", "minzoom": 2, "maxzoom": 8 }, "properties": { "halo": 0.8, "title": "达费德王国", "fontsize": 12, "tyid": "304000", "oid": "103:1576575141879", "color": "#202020" }, "geometry": { "type": "Point", "coordinates": [ -4.042969, 51.890054 ] } }
{ "type": "Feature", "tippecanoe": { "layer": "2AFCABA735881583915985428", "minzoom": 2, "maxzoom": 8 }, "properties": { "halo": 0.8, "title": "布里奇尼奥格王国", "fontsize": 12, "tyid": "304000", "oid": "103:1576575141537", "color": "#202020" }, "geometry": { "type": "Point", "coordinates": [ -3.251953, 52.052490 ] } }
{ "type": "Feature", "tippecanoe": { "layer": "2AFCABA735881583915985428", "minzoom": 2, "maxzoom": 8 }, "properties": { "halo": 0.8, "title": "格利维辛王国", "fontsize": 12, "tyid": "304000", "oid": "103:1576575141368", "color": "#202020" }, "geometry": { "type": "Point", "coordinates": [ -3.427734, 51.672555 ] } }
{ "type": "Feature", "tippecanoe": { "layer": "2AFCABA735881583915985428", "minzoom": 2, "maxzoom": 8 }, "properties": { "halo": 0.8, "title": "格温特王国", "fontsize": 12, "tyid": "304000", "oid": "103:1576575141525", "color": "#202020" }, "geometry": { "type": "Point", "coordinates": [ -2.900391, 51.727028 ] } }
{ "type": "Feature", "tippecanoe": { "layer": "2AFCABA735881583915985428", "minzoom": 2, "maxzoom": 8 }, "properties": { "halo": 0.8, "title": "威塞克斯王国", "fontsize": 12, "tyid": "304000", "oid": "103:1576575141383", "color": "#202020" }, "geometry": { "type": "Point", "coordinates": [ -2.373047, 50.847573 ] } }
{ "type": "Feature", "tippecanoe": { "layer": "2AFCABA735881583915985428", "minzoom": 2, "maxzoom": 8 }, "properties": { "halo": 0.8, "title": "萨塞克斯王国", "fontsize": 12, "tyid": "304000", "oid": "103:1576575141900", "color": "#202020" }, "geometry": { "type": "Point", "coordinates": [ -0.263672, 51.013755 ] } }
{ "type": "Feature", "tippecanoe": { "layer": "2AFCABA735881583915985428", "minzoom": 2, "maxzoom": 8 }, "properties": { "halo": 0.8, "title": "阿斯图尔人", "fontsize": 12, "tyid": "304001", "oid": "103:1576575141386", "color": "#262626" }, "geometry": { "type": "Point", "coordinates": [ -5.537109, 42.811522 ] } }
{ "type": "Feature", "tippecanoe": { "layer": "2AFCABA735881583915985428", "minzoom": 2, "maxzoom": 8 }, "properties": { "halo": 0.8, "title": "坎塔布里人", "fontsize": 12, "tyid": "304001", "oid": "103:1576575141831", "color": "#262626" }, "geometry": { "type": "Point", "coordinates": [ -4.394531, 43.068888 ] } }
{ "type": "Feature", "tippecanoe": { "layer": "2AFCABA735881583915985428", "minzoom": 2, "maxzoom": 8 }, "properties": { "halo": 0.8, "title": "奥特里冈人", "fontsize": 12, "tyid": "304001", "oid": "103:1576575141397", "color": "#262626" }, "geometry": { "type": "Point", "coordinates": [ -3.339844, 43.004647 ] } }
{ "type": "Feature", "tippecanoe": { "layer": "2AFCABA735881583915985428", "minzoom": 2, "maxzoom": 8 }, "properties": { "halo": 0.8, "title": "卡斯蒂利人", "fontsize": 12, "tyid": "304001", "oid": "103:1576575141372", "color": "#262626" }, "geometry": { "type": "Point", "coordinates": [ -2.812500, 43.068888 ] } }
{ "type": "Feature", "tippecanoe": { "layer": "2AFCABA735881583915985428", "minzoom": 2, "maxzoom": 8 }, "properties": { "halo": 0.8, "title": "瓦杜里人", "fontsize": 12, "tyid": "304001", "oid": "103:1576575141828", "color": "#262626" }, "geometry": { "type": "Point", "coordinates": [ -2.285156, 42.940339 ] } }
{ "type": "Feature", "tippecanoe": { "layer": "2AFCABA735881583915985428", "minzoom": 2, "maxzoom": 8 }, "properties": { "halo": 0.8, "title": "巴斯克人", "fontsize": 12, "tyid": "304001", "oid": "103:1576575141388", "color": "#262626" }, "geometry": { "type": "Point", "coordinates": [ -1.494141, 42.811522 ] } }
{ "type": "Feature", "tippecanoe": { "layer": "2AFCABA735881583915985428", "minzoom": 2, "maxzoom": 8 }, "properties": { "halo": 0.8, "title": "关切人", "fontsize": 12, "tyid": "304001", "oid": "103:1576575141905", "color": "#262626" }, "geometry": { "type": "Point", "coordinates": [ -16.611328, 28.304381 ] } }
{ "type": "Feature", "tippecanoe": { "layer": "2AFCABA735881583915985428", "minzoom": 2, "maxzoom": 8 }, "properties": { "halo": 0.8, "title": "卡纳里人", "fontsize": 12, "tyid": "304001", "oid": "103:1576575141423", "color": "#262626" }, "geometry": { "type": "Point", "coordinates": [ -79.189453, -2.811371 ] } }
{ "type": "Feature", "tippecanoe": { "layer": "2AFCABA735881583915985428", "minzoom": 2, "maxzoom": 8 }, "properties": { "halo": 0.8, "title": "莫切文明", "fontsize": 12, "tyid": "304002", "oid": "103:1576575141806", "color": "#262626" }, "geometry": { "type": "Point", "coordinates": [ -79.013672, -7.623887 ] } }
{ "type": "Feature", "tippecanoe": { "layer": "2AFCABA735881583915985428", "minzoom": 2, "maxzoom": 8 }, "properties": { "halo": 0.8, "title": "维鲁文化", "fontsize": 12, "tyid": "304002", "oid": "103:1576575141646", "color": "#262626" }, "geometry": { "type": "Point", "coordinates": [ -78.837891, -8.320212 ] } }
{ "type": "Feature", "tippecanoe": { "layer": "2AFCABA735881583915985428", "minzoom": 2, "maxzoom": 8 }, "properties": { "halo": 0.8, "title": "卡哈马卡文化", "fontsize": 12, "tyid": "304002", "oid": "103:1576575141549", "color": "#262626" }, "geometry": { "type": "Point", "coordinates": [ -78.750000, -6.227934 ] } }
{ "type": "Feature", "tippecanoe": { "layer": "2AFCABA735881583915985428", "minzoom": 2, "maxzoom": 8 }, "properties": { "halo": 0.8, "title": "巴托文化", "fontsize": 12, "tyid": "304002", "oid": "103:1576575141599", "color": "#262626" }, "geometry": { "type": "Point", "coordinates": [ -71.367188, -33.211116 ] } }
{ "type": "Feature", "tippecanoe": { "layer": "2AFCABA735881583915985428", "minzoom": 2, "maxzoom": 8 }, "properties": { "halo": 0.8, "title": "塔夫文化", "fontsize": 12, "tyid": "304002", "oid": "103:1576575141884", "color": "#262626" }, "geometry": { "type": "Point", "coordinates": [ -65.654297, -26.980829 ] } }
{ "type": "Feature", "tippecanoe": { "layer": "2AFCABA735881583915985428", "minzoom": 2, "maxzoom": 8 }, "properties": { "halo": 0.8, "title": "豪什人", "fontsize": 12, "tyid": "304001", "oid": "103:1576575141747", "color": "#262626" }, "geometry": { "type": "Point", "coordinates": [ -65.917969, -54.724620 ] } }
{ "type": "Feature", "tippecanoe": { "layer": "2AFCABA735881583915985428", "minzoom": 2, "maxzoom": 8 }, "properties": { "halo": 0.8, "title": "哥得兰人", "fontsize": 12, "tyid": "304001", "oid": "103:1576575141484", "color": "#262626" }, "geometry": { "type": "Point", "coordinates": [ 18.457031, 57.515823 ] } }
{ "type": "Feature", "tippecanoe": { "layer": "2AFCABA735881583915985428", "minzoom": 2, "maxzoom": 8 }, "properties": { "halo": 0.8, "title": "埃塞克斯王国", "fontsize": 12, "tyid": "304000", "oid": "103:1576575141920", "color": "#202020" }, "geometry": { "type": "Point", "coordinates": [ 0.087891, 51.781436 ] } }
{ "type": "Feature", "tippecanoe": { "layer": "2AFCABA735881583915985428", "minzoom": 2, "maxzoom": 8 }, "properties": { "halo": 0.8, "title": "东盎格利亚王国", "fontsize": 12, "tyid": "304000", "oid": "103:1576575141556", "color": "#202020" }, "geometry": { "type": "Point", "coordinates": [ 0.966797, 52.482780 ] } }
{ "type": "Feature", "tippecanoe": { "layer": "2AFCABA735881583915985428", "minzoom": 2, "maxzoom": 8 }, "properties": { "halo": 0.8, "title": "肯特王国", "fontsize": 12, "tyid": "304000", "oid": "103:1576575141916", "color": "#202020" }, "geometry": { "type": "Point", "coordinates": [ 0.615234, 51.234407 ] } }
{ "type": "Feature", "tippecanoe": { "layer": "2AFCABA735881583915985428", "minzoom": 2, "maxzoom": 8 }, "properties": { "halo": 0.8, "title": "弗里斯兰人", "fontsize": 12, "tyid": "304001", "oid": "103:1576575141592", "color": "#262626" }, "geometry": { "type": "Point", "coordinates": [ 6.152344, 53.120405 ] } }
{ "type": "Feature", "tippecanoe": { "layer": "2AFCABA735881583915985428", "minzoom": 2, "maxzoom": 8 }, "properties": { "halo": 0.8, "title": "盎格鲁人", "fontsize": 12, "tyid": "304001", "oid": "103:1576575141924", "color": "#262626" }, "geometry": { "type": "Point", "coordinates": [ 9.492188, 54.265224 ] } }
{ "type": "Feature", "tippecanoe": { "layer": "2AFCABA735881583915985428", "minzoom": 2, "maxzoom": 8 }, "properties": { "halo": 0.8, "title": "乌克人", "fontsize": 12, "tyid": "304001", "oid": "103:1576575141683", "color": "#262626" }, "geometry": { "type": "Point", "coordinates": [ 13.798828, 53.330873 ] } }
{ "type": "Feature", "tippecanoe": { "layer": "2AFCABA735881583915985428", "minzoom": 2, "maxzoom": 8 }, "properties": { "halo": 0.8, "title": "西加林迪亚人", "fontsize": 12, "tyid": "304001", "oid": "103:1576575141837", "color": "#262626" }, "geometry": { "type": "Point", "coordinates": [ 20.917969, 53.278353 ] } }
{ "type": "Feature", "tippecanoe": { "layer": "2AFCABA735881583915985428", "minzoom": 2, "maxzoom": 8 }, "properties": { "halo": 0.8, "title": "圣马力诺共和国", "fontsize": 12, "tyid": "304001", "oid": "103:1576575141817", "color": "#262626" }, "geometry": { "type": "Point", "coordinates": [ 12.392578, 43.961191 ] } }
{ "type": "Feature", "tippecanoe": { "layer": "2AFCABA735881583915985428", "minzoom": 2, "maxzoom": 8 }, "properties": { "halo": 0.8, "title": "奥耶塞利人", "fontsize": 12, "tyid": "304001", "oid": "103:1576575141739", "color": "#262626" }, "geometry": { "type": "Point", "coordinates": [ 22.500000, 58.447733 ] } }
{ "type": "Feature", "tippecanoe": { "layer": "2AFCABA735881583915985428", "minzoom": 2, "maxzoom": 8 }, "properties": { "halo": 0.8, "title": "塞米加利亚人", "fontsize": 12, "tyid": "304001", "oid": "103:1576575141814", "color": "#262626" }, "geometry": { "type": "Point", "coordinates": [ 23.642578, 56.559482 ] } }
{ "type": "Feature", "tippecanoe": { "layer": "2AFCABA735881583915985428", "minzoom": 2, "maxzoom": 8 }, "properties": { "halo": 0.8, "title": "瑟罗尼亚人", "fontsize": 12, "tyid": "304001", "oid": "103:1576575141822", "color": "#262626" }, "geometry": { "type": "Point", "coordinates": [ 25.312500, 56.121060 ] } }
{ "type": "Feature", "tippecanoe": { "layer": "2AFCABA735881583915985428", "minzoom": 2, "maxzoom": 8 }, "properties": { "halo": 0.8, "title": "科尔基斯山中诸部", "fontsize": 12, "tyid": "304002", "oid": "103:1576575141516", "color": "#262626" }, "geometry": { "type": "Point", "coordinates": [ 40.429688, 43.389082 ] } }
{ "type": "Feature", "tippecanoe": { "layer": "2AFCABA735881583915985428", "minzoom": 2, "maxzoom": 8 }, "properties": { "halo": 0.8, "title": "古莱什部落", "fontsize": 12, "tyid": "304001", "oid": "103:1576575141357", "color": "#262626" }, "geometry": { "type": "Point", "coordinates": [ 39.990234, 21.616579 ] } }
{ "type": "Feature", "tippecanoe": { "layer": "2AFCABA735881583915985428", "minzoom": 2, "maxzoom": 8 }, "properties": { "halo": 0.8, "title": "石国", "fontsize": 12, "tyid": "304000", "oid": "103:1576575141948", "color": "#202020" }, "geometry": { "type": "Point", "coordinates": [ 69.345703, 41.442726 ] } }
{ "type": "Feature", "tippecanoe": { "layer": "2AFCABA735881583915985428", "minzoom": 2, "maxzoom": 8 }, "properties": { "halo": 0.8, "title": "卡林文德王朝", "fontsize": 12, "tyid": "304000", "oid": "103:1576575141982", "color": "#202020" }, "geometry": { "type": "Point", "coordinates": [ 52.470703, 36.244273 ] } }
{ "type": "Feature", "tippecanoe": { "layer": "2AFCABA735881583915985428", "minzoom": 2, "maxzoom": 8 }, "properties": { "halo": 0.8, "title": "扎尔米赫王朝", "fontsize": 12, "tyid": "304000", "oid": "103:1576575141955", "color": "#202020" }, "geometry": { "type": "Point", "coordinates": [ 53.525391, 36.315125 ] } }
{ "type": "Feature", "tippecanoe": { "layer": "2AFCABA735881583915985428", "minzoom": 2, "maxzoom": 8 }, "properties": { "halo": 0.8, "title": "安国", "fontsize": 12, "tyid": "304000", "oid": "103:1576575141947", "color": "#202020" }, "geometry": { "type": "Point", "coordinates": [ 64.511719, 39.842286 ] } }
{ "type": "Feature", "tippecanoe": { "layer": "2AFCABA735881583915985428", "minzoom": 2, "maxzoom": 8 }, "properties": { "halo": 0.8, "title": "何国", "fontsize": 12, "tyid": "304000", "oid": "103:1576575141949", "color": "#202020" }, "geometry": { "type": "Point", "coordinates": [ 65.742188, 39.977120 ] } }
{ "type": "Feature", "tippecanoe": { "layer": "2AFCABA735881583915985428", "minzoom": 2, "maxzoom": 8 }, "properties": { "halo": 0.8, "title": "史国", "fontsize": 12, "tyid": "304000", "oid": "103:1576575141946", "color": "#202020" }, "geometry": { "type": "Point", "coordinates": [ 66.621094, 39.027719 ] } }
{ "type": "Feature", "tippecanoe": { "layer": "2AFCABA735881583915985428", "minzoom": 2, "maxzoom": 8 }, "properties": { "halo": 0.8, "title": "康国", "fontsize": 12, "tyid": "304000", "oid": "103:1576575141950", "color": "#202020" }, "geometry": { "type": "Point", "coordinates": [ 66.972656, 39.707187 ] } }
{ "type": "Feature", "tippecanoe": { "layer": "2AFCABA735881583915985428", "minzoom": 2, "maxzoom": 8 }, "properties": { "halo": 0.8, "title": "阿点婆翅罗国", "fontsize": 12, "tyid": "304000", "oid": "103:1576575141976", "color": "#202020" }, "geometry": { "type": "Point", "coordinates": [ 67.148438, 25.562265 ] } }
{ "type": "Feature", "tippecanoe": { "layer": "2AFCABA735881583915985428", "minzoom": 2, "maxzoom": 8 }, "properties": { "halo": 0.8, "title": "曹国", "fontsize": 12, "tyid": "304000", "oid": "103:1576575141968", "color": "#202020" }, "geometry": { "type": "Point", "coordinates": [ 68.027344, 40.044438 ] } }
{ "type": "Feature", "tippecanoe": { "layer": "2AFCABA735881583915985428", "minzoom": 2, "maxzoom": 8 }, "properties": { "halo": 0.8, "title": "米国", "fontsize": 12, "tyid": "304000", "oid": "103:1576575141969", "color": "#202020" }, "geometry": { "type": "Point", "coordinates": [ 67.851562, 39.504041 ] } }
{ "type": "Feature", "tippecanoe": { "layer": "2AFCABA735881583915985428", "minzoom": 2, "maxzoom": 8 }, "properties": { "halo": 0.8, "title": "滥波国", "fontsize": 12, "tyid": "304000", "oid": "103:1576575141767", "color": "#202020" }, "geometry": { "type": "Point", "coordinates": [ 70.136719, 34.957995 ] } }
{ "type": "Feature", "tippecanoe": { "layer": "2AFCABA735881583915985428", "minzoom": 2, "maxzoom": 8 }, "properties": { "halo": 0.8, "title": "伐剌挐国", "fontsize": 12, "tyid": "304000", "oid": "103:1576575141789", "color": "#202020" }, "geometry": { "type": "Point", "coordinates": [ 70.136719, 32.546813 ] } }
{ "type": "Feature", "tippecanoe": { "layer": "2AFCABA735881583915985428", "minzoom": 2, "maxzoom": 8 }, "properties": { "halo": 0.8, "title": "那揭罗曷国", "fontsize": 12, "tyid": "304000", "oid": "103:1576575141768", "color": "#202020" }, "geometry": { "type": "Point", "coordinates": [ 70.400391, 34.379713 ] } }
{ "type": "Feature", "tippecanoe": { "layer": "2AFCABA735881583915985428", "minzoom": 2, "maxzoom": 8 }, "properties": { "halo": 0.8, "title": "呾叉始罗国", "fontsize": 12, "tyid": "304000", "oid": "103:1576575141762", "color": "#202020" }, "geometry": { "type": "Point", "coordinates": [ 72.773438, 33.797409 ] } }
{ "type": "Feature", "tippecanoe": { "layer": "2AFCABA735881583915985428", "minzoom": 2, "maxzoom": 8 }, "properties": { "halo": 0.8, "title": "竭盘陀国", "fontsize": 12, "tyid": "304000", "oid": "103:1576575141944", "color": "#202020" }, "geometry": { "type": "Point", "coordinates": [ 75.234375, 37.996163 ] } }
{ "type": "Feature", "tippecanoe": { "layer": "2AFCABA735881583915985428", "minzoom": 2, "maxzoom": 8 }, "properties": { "halo": 0.8, "title": "半笯嗟国", "fontsize": 12, "tyid": "304000", "oid": "103:1576575141723", "color": "#202020" }, "geometry": { "type": "Point", "coordinates": [ 73.828125, 33.943360 ] } }
{ "type": "Feature", "tippecanoe": { "layer": "2AFCABA735881583915985428", "minzoom": 2, "maxzoom": 8 }, "properties": { "halo": 0.8, "title": "遏罗阇补罗国", "fontsize": 12, "tyid": "304000", "oid": "103:1576575141758", "color": "#202020" }, "geometry": { "type": "Point", "coordinates": [ 74.443359, 33.358062 ] } }
{ "type": "Feature", "tippecanoe": { "layer": "2AFCABA735881583915985428", "minzoom": 2, "maxzoom": 8 }, "properties": { "halo": 0.8, "title": "僧诃补罗国", "fontsize": 12, "tyid": "304000", "oid": "103:1576575141759", "color": "#202020" }, "geometry": { "type": "Point", "coordinates": [ 73.300781, 32.990236 ] } }
{ "type": "Feature", "tippecanoe": { "layer": "2AFCABA735881583915985428", "minzoom": 2, "maxzoom": 8 }, "properties": { "halo": 0.8, "title": "乌剌尸国", "fontsize": 12, "tyid": "304000", "oid": "103:1576575141761", "color": "#202020" }, "geometry": { "type": "Point", "coordinates": [ 74.003906, 32.694866 ] } }
{ "type": "Feature", "tippecanoe": { "layer": "2AFCABA735881583915985428", "minzoom": 2, "maxzoom": 8 }, "properties": { "halo": 0.8, "title": "钵伐多国", "fontsize": 12, "tyid": "304000", "oid": "103:1576575141796", "color": "#202020" }, "geometry": { "type": "Point", "coordinates": [ 73.300781, 30.448674 ] } }
{ "type": "Feature", "tippecanoe": { "layer": "2AFCABA735881583915985428", "minzoom": 2, "maxzoom": 8 }, "properties": { "halo": 0.8, "title": "至那仆底国", "fontsize": 12, "tyid": "304000", "oid": "103:1576575141931", "color": "#202020" }, "geometry": { "type": "Point", "coordinates": [ 74.619141, 31.052934 ] } }
{ "type": "Feature", "tippecanoe": { "layer": "2AFCABA735881583915985428", "minzoom": 2, "maxzoom": 8 }, "properties": { "halo": 0.8, "title": "阇烂达罗国", "fontsize": 12, "tyid": "304000", "oid": "103:1576575141785", "color": "#202020" }, "geometry": { "type": "Point", "coordinates": [ 75.585938, 31.353637 ] } }
{ "type": "Feature", "tippecanoe": { "layer": "2AFCABA735881583915985428", "minzoom": 2, "maxzoom": 8 }, "properties": { "halo": 0.8, "title": "罗昂", "fontsize": 12, "tyid": "304000", "oid": "103:1576575141458", "color": "#202020" }, "geometry": { "type": "Point", "coordinates": [ 89.208984, 29.152161 ] } }
{ "type": "Feature", "tippecanoe": { "layer": "2AFCABA735881583915985428", "minzoom": 2, "maxzoom": 8 }, "properties": { "halo": 0.8, "title": "藏", "fontsize": 12, "tyid": "304000", "oid": "103:1576575141449", "color": "#202020" }, "geometry": { "type": "Point", "coordinates": [ 89.736328, 28.844674 ] } }
{ "type": "Feature", "tippecanoe": { "layer": "2AFCABA735881583915985428", "minzoom": 2, "maxzoom": 8 }, "properties": { "halo": 0.8, "title": "卓木南木松", "fontsize": 12, "tyid": "304000", "oid": "103:1576575141453", "color": "#202020" }, "geometry": { "type": "Point", "coordinates": [ 88.945312, 27.839076 ] } }
{ "type": "Feature", "tippecanoe": { "layer": "2AFCABA735881583915985428", "minzoom": 2, "maxzoom": 8 }, "properties": { "halo": 0.8, "title": "阿拉帕王朝", "fontsize": 12, "tyid": "304000", "oid": "103:1576575141934", "color": "#202020" }, "geometry": { "type": "Point", "coordinates": [ 75.322266, 12.811801 ] } }
{ "type": "Feature", "tippecanoe": { "layer": "2AFCABA735881583915985428", "minzoom": 2, "maxzoom": 8 }, "properties": { "halo": 0.8, "title": "西恒伽王朝", "fontsize": 12, "tyid": "304000", "oid": "103:1576575141475", "color": "#202020" }, "geometry": { "type": "Point", "coordinates": [ 76.464844, 12.125264 ] } }
{ "type": "Feature", "tippecanoe": { "layer": "2AFCABA735881583915985428", "minzoom": 2, "maxzoom": 8 }, "properties": { "halo": 0.8, "title": "吉", "fontsize": 12, "tyid": "304000", "oid": "103:1576575141456", "color": "#202020" }, "geometry": { "type": "Point", "coordinates": [ 91.406250, 29.764377 ] } }
{ "type": "Feature", "tippecanoe": { "layer": "2AFCABA735881583915985428", "minzoom": 2, "maxzoom": 8 }, "properties": { "halo": 0.8, "title": "琛", "fontsize": 12, "tyid": "304000", "oid": "103:1576575141454", "color": "#202020" }, "geometry": { "type": "Point", "coordinates": [ 91.230469, 29.382175 ] } }
{ "type": "Feature", "tippecanoe": { "layer": "2AFCABA735881583915985428", "minzoom": 2, "maxzoom": 8 }, "properties": { "halo": 0.8, "title": "悉补野", "fontsize": 12, "tyid": "304000", "oid": "103:1576575141451", "color": "#202020" }, "geometry": { "type": "Point", "coordinates": [ 91.845703, 29.152161 ] } }
{ "type": "Feature", "tippecanoe": { "layer": "2AFCABA735881583915985428", "minzoom": 2, "maxzoom": 8 }, "properties": { "halo": 0.8, "title": "俄玉邦噶", "fontsize": 12, "tyid": "304000", "oid": "103:1576575141461", "color": "#202020" }, "geometry": { "type": "Point", "coordinates": [ 92.548828, 29.152161 ] } }
{ "type": "Feature", "tippecanoe": { "layer": "2AFCABA735881583915985428", "minzoom": 2, "maxzoom": 8 }, "properties": { "halo": 0.8, "title": "娘", "fontsize": 12, "tyid": "304000", "oid": "103:1576575141462", "color": "#202020" }, "geometry": { "type": "Point", "coordinates": [ 93.339844, 29.916852 ] } }
{ "type": "Feature", "tippecanoe": { "layer": "2AFCABA735881583915985428", "minzoom": 2, "maxzoom": 8 }, "properties": { "halo": 0.8, "title": "贡", "fontsize": 12, "tyid": "304000", "oid": "103:1576575141459", "color": "#202020" }, "geometry": { "type": "Point", "coordinates": [ 94.482422, 29.688053 ] } }
{ "type": "Feature", "tippecanoe": { "layer": "2AFCABA735881583915985428", "minzoom": 2, "maxzoom": 8 }, "properties": { "halo": 0.8, "title": "达", "fontsize": 12, "tyid": "304000", "oid": "103:1576575141465", "color": "#202020" }, "geometry": { "type": "Point", "coordinates": [ 93.603516, 29.152161 ] } }
{ "type": "Feature", "tippecanoe": { "layer": "2AFCABA735881583915985428", "minzoom": 2, "maxzoom": 8 }, "properties": { "halo": 0.8, "title": "迦托诃国", "fontsize": 12, "tyid": "304000", "oid": "103:1576575141366", "color": "#202020" }, "geometry": { "type": "Point", "coordinates": [ 100.283203, 6.315299 ] } }
{ "type": "Feature", "tippecanoe": { "layer": "2AFCABA735881583915985428", "minzoom": 2, "maxzoom": 8 }, "properties": { "halo": 0.8, "title": "狼牙脩国", "fontsize": 12, "tyid": "304000", "oid": "103:1576575141490", "color": "#202020" }, "geometry": { "type": "Point", "coordinates": [ 100.898438, 6.053161 ] } }
{ "type": "Feature", "tippecanoe": { "layer": "2AFCABA735881583915985428", "minzoom": 2, "maxzoom": 8 }, "properties": { "halo": 0.8, "title": "刚迦王国", "fontsize": 12, "tyid": "304000", "oid": "103:1576575141489", "color": "#202020" }, "geometry": { "type": "Point", "coordinates": [ 101.074219, 4.828260 ] } }
{ "type": "Feature", "tippecanoe": { "layer": "2AFCABA735881583915985428", "minzoom": 2, "maxzoom": 8 }, "properties": { "halo": 0.8, "title": "丹丹国", "fontsize": 12, "tyid": "304000", "oid": "103:1576575141710", "color": "#202020" }, "geometry": { "type": "Point", "coordinates": [ 103.359375, 2.108899 ] } }
{ "type": "Feature", "tippecanoe": { "layer": "2AFCABA735881583915985428", "minzoom": 2, "maxzoom": 8 }, "properties": { "halo": 0.8, "title": "番仔园文化", "fontsize": 12, "tyid": "304002", "oid": "103:1576575141469", "color": "#262626" }, "geometry": { "type": "Point", "coordinates": [ 120.673828, 24.287027 ] } }
{ "type": "Feature", "tippecanoe": { "layer": "2AFCABA735881583915985428", "minzoom": 2, "maxzoom": 8 }, "properties": { "halo": 0.8, "title": "茑松文化", "fontsize": 12, "tyid": "304002", "oid": "103:1576575141493", "color": "#262626" }, "geometry": { "type": "Point", "coordinates": [ 120.322266, 23.079732 ] } }
{ "type": "Feature", "tippecanoe": { "layer": "2AFCABA735881583915985428", "minzoom": 2, "maxzoom": 8 }, "properties": { "halo": 0.8, "title": "龟山文化", "fontsize": 12, "tyid": "304002", "oid": "103:1576575141499", "color": "#262626" }, "geometry": { "type": "Point", "coordinates": [ 120.673828, 22.512557 ] } }
{ "type": "Feature", "tippecanoe": { "layer": "2AFCABA735881583915985428", "minzoom": 2, "maxzoom": 8 }, "properties": { "halo": 0.8, "title": "十三行文化", "fontsize": 12, "tyid": "304002", "oid": "103:1576575141502", "color": "#262626" }, "geometry": { "type": "Point", "coordinates": [ 121.376953, 24.846565 ] } }
{ "type": "Feature", "tippecanoe": { "layer": "2AFCABA735881583915985428", "minzoom": 2, "maxzoom": 8 }, "properties": { "halo": 0.8, "title": "静浦文化", "fontsize": 12, "tyid": "304002", "oid": "103:1576575141497", "color": "#262626" }, "geometry": { "type": "Point", "coordinates": [ 121.025391, 22.917923 ] } }
{ "type": "Feature", "tippecanoe": { "layer": "2AFCABA735881583915985428", "minzoom": 2, "maxzoom": 8 }, "properties": { "halo": 0.8, "title": "雅美文化", "fontsize": 12, "tyid": "304002", "oid": "103:1576575141700", "color": "#262626" }, "geometry": { "type": "Point", "coordinates": [ 121.464844, 22.105999 ] } }
{ "type": "Feature", "tippecanoe": { "layer": "2AFCABA735881583915985428", "minzoom": 2, "maxzoom": 8 }, "properties": { "halo": 0.8, "title": "耽罗国", "fontsize": 12, "tyid": "304000", "oid": "103:1576575141467", "color": "#202020" }, "geometry": { "type": "Point", "coordinates": [ 126.474609, 33.431441 ] } }
{ "type": "Feature", "tippecanoe": { "layer": "2AFCABA735881583915985428", "minzoom": 2, "maxzoom": 8 }, "properties": { "halo": 0.8, "title": "隼人", "fontsize": 12, "tyid": "304001", "oid": "103:1576575141476", "color": "#262626" }, "geometry": { "type": "Point", "coordinates": [ 130.869141, 32.026706 ] } }
{ "type": "Feature", "tippecanoe": { "layer": "2AFCABA735881583915985428", "minzoom": 2, "maxzoom": 8 }, "properties": { "halo": 0.8, "title": "尼格利陀人", "fontsize": 12, "tyid": "304001", "oid": "103:1576575141634", "color": "#262626" }, "geometry": { "type": "Point", "coordinates": [ 122.431641, 11.264612 ] } }
{ "type": "Feature", "tippecanoe": { "layer": "2AFCABA735881583915985428", "minzoom": 2, "maxzoom": 8 }, "properties": { "halo": 0.8, "title": "渤泥国", "fontsize": 12, "tyid": "304000", "oid": "103:1576575141639", "color": "#202020" }, "geometry": { "type": "Point", "coordinates": [ 114.785156, 4.302591 ] } }
{ "type": "Feature", "tippecanoe": { "layer": "2AFCABA735881583915985428", "minzoom": 2, "maxzoom": 8 }, "properties": { "halo": 0.8, "title": "塔卢马王国", "fontsize": 12, "tyid": "304000", "oid": "103:1576575141638", "color": "#202020" }, "geometry": { "type": "Point", "coordinates": [ 106.787109, -6.402648 ] } }
{ "type": "Feature", "tippecanoe": { "layer": "2AFCABA735881583915985428", "minzoom": 2, "maxzoom": 8 }, "properties": { "halo": 0.8, "title": "托雷斯海峡岛民", "fontsize": 12, "tyid": "304001", "oid": "103:1576575141633", "color": "#262626" }, "geometry": { "type": "Point", "coordinates": [ 142.382812, -11.264612 ] } }
{ "type": "Feature", "tippecanoe": { "layer": "2AFCABA73D301583915985425", "minzoom": 2, "maxzoom": 8 }, "properties": { "halo": 0.8, "title": "诺顿文化", "fontsize": 12, "tyid": "304002", "oid": "103:1576575141713", "color": "#262626" }, "geometry": { "type": "Point", "coordinates": [ -162.949219, 65.403445 ] } }
{ "type": "Feature", "tippecanoe": { "layer": "2AFCABA73D301583915985425", "minzoom": 2, "maxzoom": 8 }, "properties": { "halo": 0.8, "title": "圣路易斯雷伊文化", "fontsize": 12, "tyid": "304002", "oid": "103:1576575141748", "color": "#262626" }, "geometry": { "type": "Point", "coordinates": [ -118.916016, 34.597042 ] } }
{ "type": "Feature", "tippecanoe": { "layer": "2AFCABA73D301583915985425", "minzoom": 2, "maxzoom": 8 }, "properties": { "halo": 0.8, "title": "维珍阿纳萨齐人", "fontsize": 12, "tyid": "304001", "oid": "103:1576575141990", "color": "#262626" }, "geometry": { "type": "Point", "coordinates": [ -113.818359, 36.879621 ] } }
{ "type": "Feature", "tippecanoe": { "layer": "2AFCABA73D301583915985425", "minzoom": 2, "maxzoom": 8 }, "properties": { "halo": 0.8, "title": "霍霍卡姆文化", "fontsize": 12, "tyid": "304002", "oid": "103:1576575141531", "color": "#262626" }, "geometry": { "type": "Point", "coordinates": [ -112.851562, 32.768800 ] } }
{ "type": "Feature", "tippecanoe": { "layer": "2AFCABA73D301583915985425", "minzoom": 2, "maxzoom": 8 }, "properties": { "halo": 0.8, "title": "科蒙德文化", "fontsize": 12, "tyid": "304002", "oid": "103:1576575141356", "color": "#262626" }, "geometry": { "type": "Point", "coordinates": [ -114.169922, 28.921631 ] } }
{ "type": "Feature", "tippecanoe": { "layer": "2AFCABA73D301583915985425", "minzoom": 2, "maxzoom": 8 }, "properties": { "halo": 0.8, "title": "弗里蒙特文化", "fontsize": 12, "tyid": "304002", "oid": "103:1576575141798", "color": "#262626" }, "geometry": { "type": "Point", "coordinates": [ -111.533203, 38.134557 ] } }
{ "type": "Feature", "tippecanoe": { "layer": "2AFCABA73D301583915985425", "minzoom": 2, "maxzoom": 8 }, "properties": { "halo": 0.8, "title": "斯内瓜文化", "fontsize": 12, "tyid": "304002", "oid": "103:1576575141545", "color": "#262626" }, "geometry": { "type": "Point", "coordinates": [ -111.357422, 34.379713 ] } }
{ "type": "Feature", "tippecanoe": { "layer": "2AFCABA73D301583915985425", "minzoom": 2, "maxzoom": 8 }, "properties": { "halo": 0.8, "title": "莫戈隆文化", "fontsize": 12, "tyid": "304002", "oid": "103:1576575141567", "color": "#262626" }, "geometry": { "type": "Point", "coordinates": [ -108.808594, 31.802893 ] } }
{ "type": "Feature", "tippecanoe": { "layer": "2AFCABA73D301583915985425", "minzoom": 2, "maxzoom": 8 }, "properties": { "halo": 0.8, "title": "瓜伊库拉人", "fontsize": 12, "tyid": "304001", "oid": "103:1576575141801", "color": "#262626" }, "geometry": { "type": "Point", "coordinates": [ -111.621094, 25.165173 ] } }
{ "type": "Feature", "tippecanoe": { "layer": "2AFCABA73D301583915985425", "minzoom": 2, "maxzoom": 8 }, "properties": { "halo": 0.8, "title": "堪萨斯城霍普韦尔文化", "fontsize": 12, "tyid": "304002", "oid": "103:1576575141570", "color": "#262626" }, "geometry": { "type": "Point", "coordinates": [ -93.427734, 38.685510 ] } }
{ "type": "Feature", "tippecanoe": { "layer": "2AFCABA73D301583915985425", "minzoom": 2, "maxzoom": 8 }, "properties": { "halo": 0.8, "title": "福切马里尼文化", "fontsize": 12, "tyid": "304002", "oid": "103:1576575141615", "color": "#262626" }, "geometry": { "type": "Point", "coordinates": [ -94.042969, 33.358062 ] } }
{ "type": "Feature", "tippecanoe": { "layer": "2AFCABA73D301583915985425", "minzoom": 2, "maxzoom": 8 }, "properties": { "halo": 0.8, "title": "喀多语密西西比文化", "fontsize": 12, "tyid": "304002", "oid": "103:1576575141851", "color": "#262626" }, "geometry": { "type": "Point", "coordinates": [ -92.812500, 35.960223 ] } }
{ "type": "Feature", "tippecanoe": { "layer": "2AFCABA73D301583915985425", "minzoom": 2, "maxzoom": 8 }, "properties": { "halo": 0.8, "title": "贝敦文化", "fontsize": 12, "tyid": "304002", "oid": "103:1576575141431", "color": "#262626" }, "geometry": { "type": "Point", "coordinates": [ -90.703125, 34.379713 ] } }
{ "type": "Feature", "tippecanoe": { "layer": "2AFCABA73D301583915985425", "minzoom": 2, "maxzoom": 8 }, "properties": { "halo": 0.8, "title": "华斯塔克文明", "fontsize": 12, "tyid": "304002", "oid": "103:1576575141482", "color": "#262626" }, "geometry": { "type": "Point", "coordinates": [ -98.613281, 22.105999 ] } }
{ "type": "Feature", "tippecanoe": { "layer": "2AFCABA73D301583915985425", "minzoom": 2, "maxzoom": 8 }, "properties": { "halo": 0.8, "title": "奇蒂玛察人", "fontsize": 12, "tyid": "304001", "oid": "103:1576575141436", "color": "#262626" }, "geometry": { "type": "Point", "coordinates": [ -91.582031, 30.448674 ] } }
{ "type": "Feature", "tippecanoe": { "layer": "2AFCABA73D301583915985425", "minzoom": 2, "maxzoom": 8 }, "properties": { "halo": 0.8, "title": "萨波特克文明", "fontsize": 12, "tyid": "304002", "oid": "103:1576575141620", "color": "#262626" }, "geometry": { "type": "Point", "coordinates": [ -96.064453, 16.888660 ] } }
{ "type": "Feature", "tippecanoe": { "layer": "2AFCABA73D301583915985425", "minzoom": 2, "maxzoom": 8 }, "properties": { "halo": 0.8, "title": "贝奥图克人", "fontsize": 12, "tyid": "304001", "oid": "103:1576575141669", "color": "#262626" }, "geometry": { "type": "Point", "coordinates": [ -56.074219, 48.748945 ] } }
{ "type": "Feature", "tippecanoe": { "layer": "2AFCABA73D301583915985425", "minzoom": 2, "maxzoom": 8 }, "properties": { "halo": 0.8, "title": "米勒文化", "fontsize": 12, "tyid": "304002", "oid": "103:1576575141744", "color": "#262626" }, "geometry": { "type": "Point", "coordinates": [ -87.802734, 34.379713 ] } }
{ "type": "Feature", "tippecanoe": { "layer": "2AFCABA73D301583915985425", "minzoom": 2, "maxzoom": 8 }, "properties": { "halo": 0.8, "title": "特洛伊维尔文化", "fontsize": 12, "tyid": "304002", "oid": "103:1576575141514", "color": "#262626" }, "geometry": { "type": "Point", "coordinates": [ -89.912109, 32.101190 ] } }
{ "type": "Feature", "tippecanoe": { "layer": "2AFCABA73D301583915985425", "minzoom": 2, "maxzoom": 8 }, "properties": { "halo": 0.8, "title": "斯威夫特溪文化", "fontsize": 12, "tyid": "304002", "oid": "103:1576575141426", "color": "#262626" }, "geometry": { "type": "Point", "coordinates": [ -84.814453, 32.175612 ] } }
{ "type": "Feature", "tippecanoe": { "layer": "2AFCABA73D301583915985425", "minzoom": 2, "maxzoom": 8 }, "properties": { "halo": 0.8, "title": "丹河文化", "fontsize": 12, "tyid": "304002", "oid": "103:1576575141891", "color": "#262626" }, "geometry": { "type": "Point", "coordinates": [ -81.914062, 37.509726 ] } }
{ "type": "Feature", "tippecanoe": { "layer": "2AFCABA73D301583915985425", "minzoom": 2, "maxzoom": 8 }, "properties": { "halo": 0.8, "title": "德普特福德文化", "fontsize": 12, "tyid": "304002", "oid": "103:1576575141603", "color": "#262626" }, "geometry": { "type": "Point", "coordinates": [ -79.628906, 33.431441 ] } }
{ "type": "Feature", "tippecanoe": { "layer": "2AFCABA73D301583915985425", "minzoom": 2, "maxzoom": 8 }, "properties": { "halo": 0.8, "title": "圣罗莎-斯威夫特溪文化", "fontsize": 12, "tyid": "304002", "oid": "103:1576575141588", "color": "#262626" }, "geometry": { "type": "Point", "coordinates": [ -86.748047, 30.977609 ] } }
{ "type": "Feature", "tippecanoe": { "layer": "2AFCABA73D301583915985425", "minzoom": 2, "maxzoom": 8 }, "properties": { "halo": 0.8, "title": "维登岛文化", "fontsize": 12, "tyid": "304002", "oid": "103:1576575141597", "color": "#262626" }, "geometry": { "type": "Point", "coordinates": [ -84.902344, 30.524413 ] } }
{ "type": "Feature", "tippecanoe": { "layer": "2AFCABA73D301583915985425", "minzoom": 2, "maxzoom": 8 }, "properties": { "halo": 0.8, "title": "泰诺人", "fontsize": 12, "tyid": "304001", "oid": "103:1576575141485", "color": "#262626" }, "geometry": { "type": "Point", "coordinates": [ -79.628906, 22.105999 ] } }
{ "type": "Feature", "tippecanoe": { "layer": "2AFCABA73D301583915985425", "minzoom": 2, "maxzoom": 8 }, "properties": { "halo": 0.8, "title": "佩奇人", "fontsize": 12, "tyid": "304001", "oid": "103:1576575141536", "color": "#262626" }, "geometry": { "type": "Point", "coordinates": [ -84.814453, 15.368950 ] } }
{ "type": "Feature", "tippecanoe": { "layer": "2AFCABA73D301583915985425", "minzoom": 2, "maxzoom": 8 }, "properties": { "halo": 0.8, "title": "兹努文化", "fontsize": 12, "tyid": "304002", "oid": "103:1576575141809", "color": "#262626" }, "geometry": { "type": "Point", "coordinates": [ -75.585938, 8.581021 ] } }
{ "type": "Feature", "tippecanoe": { "layer": "2AFCABA73D301583915985425", "minzoom": 2, "maxzoom": 8 }, "properties": { "halo": 0.8, "title": "埃雷拉时期", "fontsize": 12, "tyid": "304002", "oid": "103:1576575141595", "color": "#262626" }, "geometry": { "type": "Point", "coordinates": [ -73.037109, 5.965754 ] } }
{ "type": "Feature", "tippecanoe": { "layer": "2AFCABA73D301583915985425", "minzoom": 2, "maxzoom": 8 }, "properties": { "halo": 0.8, "title": "伊奈里人", "fontsize": 12, "tyid": "304001", "oid": "103:1576575141590", "color": "#262626" }, "geometry": { "type": "Point", "coordinates": [ -61.787109, 8.754795 ] } }
{ "type": "Feature", "tippecanoe": { "layer": "2AFCABA73D301583915985425", "minzoom": 2, "maxzoom": 8 }, "properties": { "halo": 0.8, "title": "达尔里阿达王国", "fontsize": 12, "tyid": "304000", "oid": "103:1576575141874", "color": "#202020" }, "geometry": { "type": "Point", "coordinates": [ -5.009766, 56.072035 ] } }
{ "type": "Feature", "tippecanoe": { "layer": "2AFCABA73D301583915985425", "minzoom": 2, "maxzoom": 8 }, "properties": { "halo": 0.8, "title": "皮克特诸王国", "fontsize": 12, "tyid": "304000", "oid": "103:1576575141825", "color": "#202020" }, "geometry": { "type": "Point", "coordinates": [ -3.691406, 57.040730 ] } }
{ "type": "Feature", "tippecanoe": { "layer": "2AFCABA73D301583915985425", "minzoom": 2, "maxzoom": 8 }, "properties": { "halo": 0.8, "title": "康诺特诸王国", "fontsize": 12, "tyid": "304000", "oid": "103:1576575141909", "color": "#202020" }, "geometry": { "type": "Point", "coordinates": [ -8.876953, 53.800651 ] } }
{ "type": "Feature", "tippecanoe": { "layer": "2AFCABA73D301583915985425", "minzoom": 2, "maxzoom": 8 }, "properties": { "halo": 0.8, "title": "盖尔人", "fontsize": 12, "tyid": "304001", "oid": "103:1576575141611", "color": "#262626" }, "geometry": { "type": "Point", "coordinates": [ -6.943359, 53.173119 ] } }
{ "type": "Feature", "tippecanoe": { "layer": "2AFCABA73D301583915985425", "minzoom": 2, "maxzoom": 8 }, "properties": { "halo": 0.8, "title": "明斯特王国", "fontsize": 12, "tyid": "304000", "oid": "103:1576575141534", "color": "#202020" }, "geometry": { "type": "Point", "coordinates": [ -8.701172, 52.375599 ] } }
{ "type": "Feature", "tippecanoe": { "layer": "2AFCABA73D301583915985425", "minzoom": 2, "maxzoom": 8 }, "properties": { "halo": 0.8, "title": "凯尔特布立吞人", "fontsize": 12, "tyid": "304001", "oid": "103:1576575141695", "color": "#262626" }, "geometry": { "type": "Point", "coordinates": [ -2.285156, 53.904338 ] } }
{ "type": "Feature", "tippecanoe": { "layer": "2AFCABA73D301583915985425", "minzoom": 2, "maxzoom": 8 }, "properties": { "halo": 0.8, "title": "盎格鲁-撒克逊人", "fontsize": 12, "tyid": "304001", "oid": "103:1576575141627", "color": "#262626" }, "geometry": { "type": "Point", "coordinates": [ -0.263672, 52.429222 ] } }
{ "type": "Feature", "tippecanoe": { "layer": "2AFCABA73D301583915985425", "minzoom": 2, "maxzoom": 8 }, "properties": { "halo": 0.8, "title": "苏维汇王国", "fontsize": 12, "tyid": "304000", "oid": "103:1576575141606", "color": "#202020" }, "geometry": { "type": "Point", "coordinates": [ -7.646484, 41.640078 ] } }
{ "type": "Feature", "tippecanoe": { "layer": "2AFCABA73D301583915985425", "minzoom": 2, "maxzoom": 8 }, "properties": { "halo": 0.8, "title": "杰内-杰诺文化三期", "fontsize": 12, "tyid": "304002", "oid": "103:1576575141853", "color": "#262626" }, "geometry": { "type": "Point", "coordinates": [ -3.955078, 14.093957 ] } }
{ "type": "Feature", "tippecanoe": { "layer": "2AFCABA73D301583915985425", "minzoom": 2, "maxzoom": 8 }, "properties": { "halo": 0.8, "title": "米拉格罗-克韦多文化", "fontsize": 12, "tyid": "304002", "oid": "103:1576575141808", "color": "#262626" }, "geometry": { "type": "Point", "coordinates": [ -79.980469, -1.669686 ] } }
{ "type": "Feature", "tippecanoe": { "layer": "2AFCABA73D301583915985425", "minzoom": 2, "maxzoom": 8 }, "properties": { "halo": 0.8, "title": "基图文化", "fontsize": 12, "tyid": "304002", "oid": "103:1576575141574", "color": "#262626" }, "geometry": { "type": "Point", "coordinates": [ -78.222656, -0.966751 ] } }
{ "type": "Feature", "tippecanoe": { "layer": "2AFCABA73D301583915985425", "minzoom": 2, "maxzoom": 8 }, "properties": { "halo": 0.8, "title": "阿塔卡马人", "fontsize": 12, "tyid": "304001", "oid": "103:1576575141405", "color": "#262626" }, "geometry": { "type": "Point", "coordinates": [ -69.082031, -25.085599 ] } }
{ "type": "Feature", "tippecanoe": { "layer": "2AFCABA73D301583915985425", "minzoom": 2, "maxzoom": 8 }, "properties": { "halo": 0.8, "title": "昌戈人", "fontsize": 12, "tyid": "304001", "oid": "103:1576575141526", "color": "#262626" }, "geometry": { "type": "Point", "coordinates": [ -70.136719, -26.902477 ] } }
{ "type": "Feature", "tippecanoe": { "layer": "2AFCABA73D301583915985425", "minzoom": 2, "maxzoom": 8 }, "properties": { "halo": 0.8, "title": "阿拉米托文化", "fontsize": 12, "tyid": "304002", "oid": "103:1576575141869", "color": "#262626" }, "geometry": { "type": "Point", "coordinates": [ -67.851562, -26.588527 ] } }
{ "type": "Feature", "tippecanoe": { "layer": "2AFCABA73D301583915985425", "minzoom": 2, "maxzoom": 8 }, "properties": { "halo": 0.8, "title": "埃尔莫尔文化", "fontsize": 12, "tyid": "304002", "oid": "103:1576575141435", "color": "#262626" }, "geometry": { "type": "Point", "coordinates": [ -70.927734, -30.675715 ] } }
{ "type": "Feature", "tippecanoe": { "layer": "2AFCABA73D301583915985425", "minzoom": 2, "maxzoom": 8 }, "properties": { "halo": 0.8, "title": "洛勒洛文化", "fontsize": 12, "tyid": "304002", "oid": "103:1576575141805", "color": "#262626" }, "geometry": { "type": "Point", "coordinates": [ -70.664062, -33.724340 ] } }
{ "type": "Feature", "tippecanoe": { "layer": "2AFCABA73D301583915985425", "minzoom": 2, "maxzoom": 8 }, "properties": { "halo": 0.8, "title": "马普切人", "fontsize": 12, "tyid": "304001", "oid": "103:1576575141910", "color": "#262626" }, "geometry": { "type": "Point", "coordinates": [ -71.455078, -38.959409 ] } }
{ "type": "Feature", "tippecanoe": { "layer": "2AFCABA73D301583915985425", "minzoom": 2, "maxzoom": 8 }, "properties": { "halo": 0.8, "title": "希德拉里卡文化", "fontsize": 12, "tyid": "304002", "oid": "103:1576575141585", "color": "#262626" }, "geometry": { "type": "Point", "coordinates": [ -66.005859, -12.297068 ] } }
{ "type": "Feature", "tippecanoe": { "layer": "2AFCABA73D301583915985425", "minzoom": 2, "maxzoom": 8 }, "properties": { "halo": 0.8, "title": "摩克索人", "fontsize": 12, "tyid": "304001", "oid": "103:1576575141741", "color": "#262626" }, "geometry": { "type": "Point", "coordinates": [ -65.830078, -13.923404 ] } }
{ "type": "Feature", "tippecanoe": { "layer": "2AFCABA73D301583915985425", "minzoom": 2, "maxzoom": 8 }, "properties": { "halo": 0.8, "title": "马拉约文化", "fontsize": 12, "tyid": "304002", "oid": "103:1576575141391", "color": "#262626" }, "geometry": { "type": "Point", "coordinates": [ -50.712891, -2.723583 ] } }
{ "type": "Feature", "tippecanoe": { "layer": "2AFCABA73D301583915985425", "minzoom": 2, "maxzoom": 8 }, "properties": { "halo": 0.8, "title": "沙内斯人", "fontsize": 12, "tyid": "304001", "oid": "103:1576575141524", "color": "#262626" }, "geometry": { "type": "Point", "coordinates": [ -65.917969, -22.105999 ] } }
{ "type": "Feature", "tippecanoe": { "layer": "2AFCABA73D301583915985425", "minzoom": 2, "maxzoom": 8 }, "properties": { "halo": 0.8, "title": "拉坎德拉里亚文化", "fontsize": 12, "tyid": "304002", "oid": "103:1576575141886", "color": "#262626" }, "geometry": { "type": "Point", "coordinates": [ -65.390625, -25.720735 ] } }
{ "type": "Feature", "tippecanoe": { "layer": "2AFCABA73D301583915985425", "minzoom": 2, "maxzoom": 8 }, "properties": { "halo": 0.8, "title": "康多拉瓦西文化", "fontsize": 12, "tyid": "304002", "oid": "103:1576575141668", "color": "#262626" }, "geometry": { "type": "Point", "coordinates": [ -66.708984, -27.293689 ] } }
{ "type": "Feature", "tippecanoe": { "layer": "2AFCABA73D301583915985425", "minzoom": 2, "maxzoom": 8 }, "properties": { "halo": 0.8, "title": "拉斯梅塞德斯文化", "fontsize": 12, "tyid": "304002", "oid": "103:1576575141411", "color": "#262626" }, "geometry": { "type": "Point", "coordinates": [ -63.808594, -27.605671 ] } }
{ "type": "Feature", "tippecanoe": { "layer": "2AFCABA73D301583915985425", "minzoom": 2, "maxzoom": 8 }, "properties": { "halo": 0.8, "title": "特胡尔切人", "fontsize": 12, "tyid": "304001", "oid": "103:1576575141360", "color": "#262626" }, "geometry": { "type": "Point", "coordinates": [ -70.751953, -50.176898 ] } }
{ "type": "Feature", "tippecanoe": { "layer": "2AFCABA73D301583915985425", "minzoom": 2, "maxzoom": 8 }, "properties": { "halo": 0.8, "title": "塞尔克南人", "fontsize": 12, "tyid": "304001", "oid": "103:1576575141477", "color": "#262626" }, "geometry": { "type": "Point", "coordinates": [ -68.378906, -53.696706 ] } }
{ "type": "Feature", "tippecanoe": { "layer": "2AFCABA73D301583915985425", "minzoom": 2, "maxzoom": 8 }, "properties": { "halo": 0.8, "title": "雅干人", "fontsize": 12, "tyid": "304001", "oid": "103:1576575141600", "color": "#262626" }, "geometry": { "type": "Point", "coordinates": [ -68.554688, -54.521081 ] } }
{ "type": "Feature", "tippecanoe": { "layer": "2AFCABA73D301583915985425", "minzoom": 2, "maxzoom": 8 }, "properties": { "halo": 0.8, "title": "朱特人", "fontsize": 12, "tyid": "304001", "oid": "103:1576575141562", "color": "#262626" }, "geometry": { "type": "Point", "coordinates": [ 9.316406, 56.267761 ] } }
{ "type": "Feature", "tippecanoe": { "layer": "2AFCABA73D301583915985425", "minzoom": 2, "maxzoom": 8 }, "properties": { "halo": 0.8, "title": "耶阿特人", "fontsize": 12, "tyid": "304001", "oid": "103:1576575141626", "color": "#262626" }, "geometry": { "type": "Point", "coordinates": [ 13.710938, 57.657158 ] } }
{ "type": "Feature", "tippecanoe": { "layer": "2AFCABA73D301583915985425", "minzoom": 2, "maxzoom": 8 }, "properties": { "halo": 0.8, "title": "丹麦人", "fontsize": 12, "tyid": "304001", "oid": "103:1576575141672", "color": "#262626" }, "geometry": { "type": "Point", "coordinates": [ 13.447266, 55.875311 ] } }
{ "type": "Feature", "tippecanoe": { "layer": "2AFCABA73D301583915985425", "minzoom": 2, "maxzoom": 8 }, "properties": { "halo": 0.8, "title": "库洛尼亚人", "fontsize": 12, "tyid": "304001", "oid": "103:1576575141812", "color": "#262626" }, "geometry": { "type": "Point", "coordinates": [ 21.972656, 56.607885 ] } }
{ "type": "Feature", "tippecanoe": { "layer": "2AFCABA73D301583915985425", "minzoom": 2, "maxzoom": 8 }, "properties": { "halo": 0.8, "title": "萨克森人", "fontsize": 12, "tyid": "304001", "oid": "103:1576575141601", "color": "#262626" }, "geometry": { "type": "Point", "coordinates": [ 8.876953, 52.855864 ] } }
{ "type": "Feature", "tippecanoe": { "layer": "2AFCABA73D301583915985425", "minzoom": 2, "maxzoom": 8 }, "properties": { "halo": 0.8, "title": "图林根人", "fontsize": 12, "tyid": "304001", "oid": "103:1576575141821", "color": "#262626" }, "geometry": { "type": "Point", "coordinates": [ 10.546875, 52.106505 ] } }
{ "type": "Feature", "tippecanoe": { "layer": "2AFCABA73D301583915985425", "minzoom": 2, "maxzoom": 8 }, "properties": { "halo": 0.8, "title": "欧波里特人", "fontsize": 12, "tyid": "304001", "oid": "103:1576575141824", "color": "#262626" }, "geometry": { "type": "Point", "coordinates": [ 11.689453, 53.748711 ] } }
{ "type": "Feature", "tippecanoe": { "layer": "2AFCABA73D301583915985425", "minzoom": 2, "maxzoom": 8 }, "properties": { "halo": 0.8, "title": "维莱蒂人", "fontsize": 12, "tyid": "304001", "oid": "103:1576575141815", "color": "#262626" }, "geometry": { "type": "Point", "coordinates": [ 13.095703, 52.589701 ] } }
{ "type": "Feature", "tippecanoe": { "layer": "2AFCABA73D301583915985425", "minzoom": 2, "maxzoom": 8 }, "properties": { "halo": 0.8, "title": "波美拉尼亚人", "fontsize": 12, "tyid": "304001", "oid": "103:1576575141622", "color": "#262626" }, "geometry": { "type": "Point", "coordinates": [ 16.611328, 53.748711 ] } }
{ "type": "Feature", "tippecanoe": { "layer": "2AFCABA73D301583915985425", "minzoom": 2, "maxzoom": 8 }, "properties": { "halo": 0.8, "title": "白塞尔维亚人", "fontsize": 12, "tyid": "304001", "oid": "103:1576575141609", "color": "#262626" }, "geometry": { "type": "Point", "coordinates": [ 14.677734, 51.454007 ] } }
{ "type": "Feature", "tippecanoe": { "layer": "2AFCABA73D301583915985425", "minzoom": 2, "maxzoom": 8 }, "properties": { "halo": 0.8, "title": "波西米亚人", "fontsize": 12, "tyid": "304001", "oid": "103:1576575141929", "color": "#262626" }, "geometry": { "type": "Point", "coordinates": [ 15.205078, 49.667628 ] } }
{ "type": "Feature", "tippecanoe": { "layer": "2AFCABA73D301583915985425", "minzoom": 2, "maxzoom": 8 }, "properties": { "halo": 0.8, "title": "古普鲁士人", "fontsize": 12, "tyid": "304001", "oid": "103:1576575141864", "color": "#262626" }, "geometry": { "type": "Point", "coordinates": [ 20.478516, 54.162434 ] } }
{ "type": "Feature", "tippecanoe": { "layer": "2AFCABA73D301583915985425", "minzoom": 2, "maxzoom": 8 }, "properties": { "halo": 0.8, "title": "西波里安人", "fontsize": 12, "tyid": "304001", "oid": "103:1576575141560", "color": "#262626" }, "geometry": { "type": "Point", "coordinates": [ 16.962891, 51.781436 ] } }
{ "type": "Feature", "tippecanoe": { "layer": "2AFCABA73D301583915985425", "minzoom": 2, "maxzoom": 8 }, "properties": { "halo": 0.8, "title": "马索维亚人", "fontsize": 12, "tyid": "304001", "oid": "103:1576575141839", "color": "#262626" }, "geometry": { "type": "Point", "coordinates": [ 20.039062, 52.321911 ] } }
{ "type": "Feature", "tippecanoe": { "layer": "2AFCABA73D301583915985425", "minzoom": 2, "maxzoom": 8 }, "properties": { "halo": 0.8, "title": "伦代斯人", "fontsize": 12, "tyid": "304001", "oid": "103:1576575141403", "color": "#262626" }, "geometry": { "type": "Point", "coordinates": [ 21.357422, 51.234407 ] } }
{ "type": "Feature", "tippecanoe": { "layer": "2AFCABA73D301583915985425", "minzoom": 2, "maxzoom": 8 }, "properties": { "halo": 0.8, "title": "维斯图兰人", "fontsize": 12, "tyid": "304001", "oid": "103:1576575141571", "color": "#262626" }, "geometry": { "type": "Point", "coordinates": [ 21.445312, 50.064192 ] } }
{ "type": "Feature", "tippecanoe": { "layer": "2AFCABA73D301583915985425", "minzoom": 2, "maxzoom": 8 }, "properties": { "halo": 0.8, "title": "巴伐利亚公国", "fontsize": 12, "tyid": "304000", "oid": "103:1576575141957", "color": "#202020" }, "geometry": { "type": "Point", "coordinates": [ 13.535156, 48.048710 ] } }
{ "type": "Feature", "tippecanoe": { "layer": "2AFCABA73D301583915985425", "minzoom": 2, "maxzoom": 8 }, "properties": { "halo": 0.8, "title": "斯洛伐克人", "fontsize": 12, "tyid": "304001", "oid": "103:1576575141926", "color": "#262626" }, "geometry": { "type": "Point", "coordinates": [ 19.248047, 48.806863 ] } }
{ "type": "Feature", "tippecanoe": { "layer": "2AFCABA73D301583915985425", "minzoom": 2, "maxzoom": 8 }, "properties": { "halo": 0.8, "title": "古爱沙尼亚人", "fontsize": 12, "tyid": "304001", "oid": "103:1576575141866", "color": "#262626" }, "geometry": { "type": "Point", "coordinates": [ 25.576172, 58.995311 ] } }
{ "type": "Feature", "tippecanoe": { "layer": "2AFCABA73D301583915985425", "minzoom": 2, "maxzoom": 8 }, "properties": { "halo": 0.8, "title": "利沃尼亚人", "fontsize": 12, "tyid": "304001", "oid": "103:1576575141376", "color": "#262626" }, "geometry": { "type": "Point", "coordinates": [ 26.191406, 58.077876 ] } }
{ "type": "Feature", "tippecanoe": { "layer": "2AFCABA73D301583915985425", "minzoom": 2, "maxzoom": 8 }, "properties": { "halo": 0.8, "title": "拉特加莱人", "fontsize": 12, "tyid": "304001", "oid": "103:1576575141870", "color": "#262626" }, "geometry": { "type": "Point", "coordinates": [ 26.542969, 56.944974 ] } }
{ "type": "Feature", "tippecanoe": { "layer": "2AFCABA73D301583915985425", "minzoom": 2, "maxzoom": 8 }, "properties": { "halo": 0.8, "title": "沃茨人", "fontsize": 12, "tyid": "304001", "oid": "103:1576575141511", "color": "#262626" }, "geometry": { "type": "Point", "coordinates": [ 29.794922, 59.040555 ] } }
{ "type": "Feature", "tippecanoe": { "layer": "2AFCABA73D301583915985425", "minzoom": 2, "maxzoom": 8 }, "properties": { "halo": 0.8, "title": "克里维奇人", "fontsize": 12, "tyid": "304001", "oid": "103:1576575141419", "color": "#262626" }, "geometry": { "type": "Point", "coordinates": [ 31.201172, 56.944974 ] } }
{ "type": "Feature", "tippecanoe": { "layer": "2AFCABA73D301583915985425", "minzoom": 2, "maxzoom": 8 }, "properties": { "halo": 0.8, "title": "莫拉玛人", "fontsize": 12, "tyid": "304001", "oid": "103:1576575141521", "color": "#262626" }, "geometry": { "type": "Point", "coordinates": [ 42.187500, 55.875311 ] } }
{ "type": "Feature", "tippecanoe": { "layer": "2AFCABA73D301583915985425", "minzoom": 2, "maxzoom": 8 }, "properties": { "halo": 0.8, "title": "萨莫吉希亚人", "fontsize": 12, "tyid": "304001", "oid": "103:1576575141811", "color": "#262626" }, "geometry": { "type": "Point", "coordinates": [ 23.203125, 55.578345 ] } }
{ "type": "Feature", "tippecanoe": { "layer": "2AFCABA73D301583915985425", "minzoom": 2, "maxzoom": 8 }, "properties": { "halo": 0.8, "title": "古立陶宛人", "fontsize": 12, "tyid": "304001", "oid": "103:1576575141872", "color": "#262626" }, "geometry": { "type": "Point", "coordinates": [ 25.224609, 54.265224 ] } }
{ "type": "Feature", "tippecanoe": { "layer": "2AFCABA73D301583915985425", "minzoom": 2, "maxzoom": 8 }, "properties": { "halo": 0.8, "title": "约特文基人", "fontsize": 12, "tyid": "304001", "oid": "103:1576575141877", "color": "#262626" }, "geometry": { "type": "Point", "coordinates": [ 23.027344, 53.956086 ] } }
{ "type": "Feature", "tippecanoe": { "layer": "2AFCABA73D301583915985425", "minzoom": 2, "maxzoom": 8 }, "properties": { "halo": 0.8, "title": "奥克施泰提亚人", "fontsize": 12, "tyid": "304001", "oid": "103:1576575141876", "color": "#262626" }, "geometry": { "type": "Point", "coordinates": [ 27.070312, 55.078367 ] } }
{ "type": "Feature", "tippecanoe": { "layer": "2AFCABA73D301583915985425", "minzoom": 2, "maxzoom": 8 }, "properties": { "halo": 0.8, "title": "斯拉夫人", "fontsize": 12, "tyid": "304001", "oid": "103:1576575141370", "color": "#262626" }, "geometry": { "type": "Point", "coordinates": [ 27.509766, 53.067627 ] } }
{ "type": "Feature", "tippecanoe": { "layer": "2AFCABA73D301583915985425", "minzoom": 2, "maxzoom": 8 }, "properties": { "halo": 0.8, "title": "沃里尼亚人", "fontsize": 12, "tyid": "304001", "oid": "103:1576575141401", "color": "#262626" }, "geometry": { "type": "Point", "coordinates": [ 25.488281, 51.289406 ] } }
{ "type": "Feature", "tippecanoe": { "layer": "2AFCABA73D301583915985425", "minzoom": 2, "maxzoom": 8 }, "properties": { "halo": 0.8, "title": "安特人", "fontsize": 12, "tyid": "304001", "oid": "103:1576575141578", "color": "#262626" }, "geometry": { "type": "Point", "coordinates": [ 27.773438, 49.325122 ] } }
{ "type": "Feature", "tippecanoe": { "layer": "2AFCABA73D301583915985425", "minzoom": 2, "maxzoom": 8 }, "properties": { "halo": 0.8, "title": "第聂伯河波罗的人", "fontsize": 12, "tyid": "304001", "oid": "103:1576575141558", "color": "#262626" }, "geometry": { "type": "Point", "coordinates": [ 30.498047, 54.927142 ] } }
{ "type": "Feature", "tippecanoe": { "layer": "2AFCABA73D301583915985425", "minzoom": 2, "maxzoom": 8 }, "properties": { "halo": 0.8, "title": "拉迪米奇人", "fontsize": 12, "tyid": "304001", "oid": "103:1576575141539", "color": "#262626" }, "geometry": { "type": "Point", "coordinates": [ 32.255859, 52.802761 ] } }
{ "type": "Feature", "tippecanoe": { "layer": "2AFCABA73D301583915985425", "minzoom": 2, "maxzoom": 8 }, "properties": { "halo": 0.8, "title": "德列夫利安人", "fontsize": 12, "tyid": "304001", "oid": "103:1576575141417", "color": "#262626" }, "geometry": { "type": "Point", "coordinates": [ 28.300781, 51.289406 ] } }
{ "type": "Feature", "tippecanoe": { "layer": "2AFCABA73D301583915985425", "minzoom": 2, "maxzoom": 8 }, "properties": { "halo": 0.8, "title": "东波里安人", "fontsize": 12, "tyid": "304001", "oid": "103:1576575141395", "color": "#262626" }, "geometry": { "type": "Point", "coordinates": [ 31.376953, 50.345460 ] } }
{ "type": "Feature", "tippecanoe": { "layer": "2AFCABA73D301583915985425", "minzoom": 2, "maxzoom": 8 }, "properties": { "halo": 0.8, "title": "斯科拉维尼人", "fontsize": 12, "tyid": "304001", "oid": "103:1576575141507", "color": "#262626" }, "geometry": { "type": "Point", "coordinates": [ 27.246094, 45.951150 ] } }
{ "type": "Feature", "tippecanoe": { "layer": "2AFCABA73D301583915985425", "minzoom": 2, "maxzoom": 8 }, "properties": { "halo": 0.8, "title": "东加林迪亚人", "fontsize": 12, "tyid": "304001", "oid": "103:1576575141518", "color": "#262626" }, "geometry": { "type": "Point", "coordinates": [ 33.837891, 55.028022 ] } }
{ "type": "Feature", "tippecanoe": { "layer": "2AFCABA73D301583915985425", "minzoom": 2, "maxzoom": 8 }, "properties": { "halo": 0.8, "title": "米舒拉人", "fontsize": 12, "tyid": "304001", "oid": "103:1576575141378", "color": "#262626" }, "geometry": { "type": "Point", "coordinates": [ 38.583984, 54.724620 ] } }
{ "type": "Feature", "tippecanoe": { "layer": "2AFCABA73D301583915985425", "minzoom": 2, "maxzoom": 8 }, "properties": { "halo": 0.8, "title": "欧诺古尔人", "fontsize": 12, "tyid": "304001", "oid": "103:1576575141408", "color": "#262626" }, "geometry": { "type": "Point", "coordinates": [ 38.583984, 51.289406 ] } }
{ "type": "Feature", "tippecanoe": { "layer": "2AFCABA73D301583915985425", "minzoom": 2, "maxzoom": 8 }, "properties": { "halo": 0.8, "title": "莫尔多维亚人", "fontsize": 12, "tyid": "304001", "oid": "103:1576575141608", "color": "#262626" }, "geometry": { "type": "Point", "coordinates": [ 44.296875, 54.927142 ] } }
{ "type": "Feature", "tippecanoe": { "layer": "2AFCABA73D301583915985425", "minzoom": 2, "maxzoom": 8 }, "properties": { "halo": 0.8, "title": "克里米亚哥特人", "fontsize": 12, "tyid": "304001", "oid": "103:1576575141688", "color": "#262626" }, "geometry": { "type": "Point", "coordinates": [ 34.189453, 46.073231 ] } }
{ "type": "Feature", "tippecanoe": { "layer": "2AFCABA73D301583915985425", "minzoom": 2, "maxzoom": 8 }, "properties": { "halo": 0.8, "title": "库特里格斯人", "fontsize": 12, "tyid": "304001", "oid": "103:1576575141390", "color": "#262626" }, "geometry": { "type": "Point", "coordinates": [ 39.111328, 48.341646 ] } }
{ "type": "Feature", "tippecanoe": { "layer": "2AFCABA73D301583915985425", "minzoom": 2, "maxzoom": 8 }, "properties": { "halo": 0.8, "title": "乌提格尔人", "fontsize": 12, "tyid": "304001", "oid": "103:1576575141517", "color": "#262626" }, "geometry": { "type": "Point", "coordinates": [ 41.572266, 46.619261 ] } }
{ "type": "Feature", "tippecanoe": { "layer": "2AFCABA73D301583915985425", "minzoom": 2, "maxzoom": 8 }, "properties": { "halo": 0.8, "title": "切尔克斯人", "fontsize": 12, "tyid": "304001", "oid": "103:1576575141678", "color": "#262626" }, "geometry": { "type": "Point", "coordinates": [ 40.781250, 44.276671 ] } }
{ "type": "Feature", "tippecanoe": { "layer": "2AFCABA73D301583915985425", "minzoom": 2, "maxzoom": 8 }, "properties": { "halo": 0.8, "title": "萨拉格尔人", "fontsize": 12, "tyid": "304001", "oid": "103:1576575141818", "color": "#262626" }, "geometry": { "type": "Point", "coordinates": [ 44.912109, 44.590467 ] } }
{ "type": "Feature", "tippecanoe": { "layer": "2AFCABA73D301583915985425", "minzoom": 2, "maxzoom": 8 }, "properties": { "halo": 0.8, "title": "阿兰人", "fontsize": 12, "tyid": "304001", "oid": "103:1576575141833", "color": "#262626" }, "geometry": { "type": "Point", "coordinates": [ 44.824219, 43.133061 ] } }
{ "type": "Feature", "tippecanoe": { "layer": "2AFCABA73D301583915985425", "minzoom": 2, "maxzoom": 8 }, "properties": { "halo": 0.8, "title": "拉基卡王国", "fontsize": 12, "tyid": "304000", "oid": "103:1576575141964", "color": "#202020" }, "geometry": { "type": "Point", "coordinates": [ 42.275391, 42.553080 ] } }
{ "type": "Feature", "tippecanoe": { "layer": "2AFCABA73D301583915985425", "minzoom": 2, "maxzoom": 8 }, "properties": { "halo": 0.8, "title": "萨珊伊比利亚", "fontsize": 12, "tyid": "304000", "oid": "103:1576575141983", "color": "#202020" }, "geometry": { "type": "Point", "coordinates": [ 44.121094, 41.771312 ] } }
{ "type": "Feature", "tippecanoe": { "layer": "2AFCABA73D301583915985425", "minzoom": 2, "maxzoom": 8 }, "properties": { "halo": 0.8, "title": "马乌鲁-罗马王国", "fontsize": 12, "tyid": "304000", "oid": "103:1576575141413", "color": "#202020" }, "geometry": { "type": "Point", "coordinates": [ 0.966797, 35.245619 ] } }
{ "type": "Feature", "tippecanoe": { "layer": "2AFCABA73D301583915985425", "minzoom": 2, "maxzoom": 8 }, "properties": { "halo": 0.8, "title": "盖图里人", "fontsize": 12, "tyid": "304001", "oid": "103:1576575141746", "color": "#262626" }, "geometry": { "type": "Point", "coordinates": [ 4.218750, 34.524661 ] } }
{ "type": "Feature", "tippecanoe": { "layer": "2AFCABA73D301583915985425", "minzoom": 2, "maxzoom": 8 }, "properties": { "halo": 0.8, "title": "拉古阿坦部落联盟", "fontsize": 12, "tyid": "304001", "oid": "103:1576575141966", "color": "#262626" }, "geometry": { "type": "Point", "coordinates": [ 21.357422, 32.026706 ] } }
{ "type": "Feature", "tippecanoe": { "layer": "2AFCABA73D301583915985425", "minzoom": 2, "maxzoom": 8 }, "properties": { "halo": 0.8, "title": "加拉曼特王国", "fontsize": 12, "tyid": "304000", "oid": "103:1576575141651", "color": "#202020" }, "geometry": { "type": "Point", "coordinates": [ 13.886719, 26.902477 ] } }
{ "type": "Feature", "tippecanoe": { "layer": "2AFCABA73D301583915985425", "minzoom": 2, "maxzoom": 8 }, "properties": { "halo": 0.8, "title": "布拉-阿辛达-西卡文化", "fontsize": 12, "tyid": "304002", "oid": "103:1576575141858", "color": "#262626" }, "geometry": { "type": "Point", "coordinates": [ 1.757812, 12.983148 ] } }
{ "type": "Feature", "tippecanoe": { "layer": "2AFCABA73D301583915985425", "minzoom": 2, "maxzoom": 8 }, "properties": { "halo": 0.8, "title": "约鲁巴人", "fontsize": 12, "tyid": "304001", "oid": "103:1576575141661", "color": "#262626" }, "geometry": { "type": "Point", "coordinates": [ 3.779297, 7.885147 ] } }
{ "type": "Feature", "tippecanoe": { "layer": "2AFCABA73D301583915985425", "minzoom": 2, "maxzoom": 8 }, "properties": { "halo": 0.8, "title": "伊博人", "fontsize": 12, "tyid": "304001", "oid": "103:1576575141643", "color": "#262626" }, "geometry": { "type": "Point", "coordinates": [ 9.492188, 5.878332 ] } }
{ "type": "Feature", "tippecanoe": { "layer": "2AFCABA73D301583915985425", "minzoom": 2, "maxzoom": 8 }, "properties": { "halo": 0.8, "title": "奥邦奥孔伊塔王国", "fontsize": 12, "tyid": "304000", "oid": "103:1576575141605", "color": "#202020" }, "geometry": { "type": "Point", "coordinates": [ 7.558594, 5.441022 ] } }
{ "type": "Feature", "tippecanoe": { "layer": "2AFCABA73D301583915985425", "minzoom": 2, "maxzoom": 8 }, "properties": { "halo": 0.8, "title": "萨珊亚美尼亚", "fontsize": 12, "tyid": "304000", "oid": "103:1576575141984", "color": "#202020" }, "geometry": { "type": "Point", "coordinates": [ 43.505859, 39.639538 ] } }
{ "type": "Feature", "tippecanoe": { "layer": "2AFCABA73D301583915985425", "minzoom": 2, "maxzoom": 8 }, "properties": { "halo": 0.8, "title": "瓦努席法尔", "fontsize": 12, "tyid": "304001", "oid": "103:1576575141665", "color": "#262626" }, "geometry": { "type": "Point", "coordinates": [ 39.111328, 24.686952 ] } }
{ "type": "Feature", "tippecanoe": { "layer": "2AFCABA73D301583915985425", "minzoom": 2, "maxzoom": 8 }, "properties": { "halo": 0.8, "title": "赫多凡部落", "fontsize": 12, "tyid": "304001", "oid": "103:1576575141854", "color": "#262626" }, "geometry": { "type": "Point", "coordinates": [ 41.396484, 26.509905 ] } }
{ "type": "Feature", "tippecanoe": { "layer": "2AFCABA73D301583915985425", "minzoom": 2, "maxzoom": 8 }, "properties": { "halo": 0.8, "title": "瓦努哈瓦兹", "fontsize": 12, "tyid": "304001", "oid": "103:1576575141640", "color": "#262626" }, "geometry": { "type": "Point", "coordinates": [ 40.781250, 23.322080 ] } }
{ "type": "Feature", "tippecanoe": { "layer": "2AFCABA73D301583915985425", "minzoom": 2, "maxzoom": 8 }, "properties": { "halo": 0.8, "title": "富尔人", "fontsize": 12, "tyid": "304001", "oid": "103:1576575141648", "color": "#262626" }, "geometry": { "type": "Point", "coordinates": [ 26.015625, 14.519780 ] } }
{ "type": "Feature", "tippecanoe": { "layer": "2AFCABA73D301583915985425", "minzoom": 2, "maxzoom": 8 }, "properties": { "halo": 0.8, "title": "努贝舍王国", "fontsize": 12, "tyid": "304000", "oid": "103:1576575141358", "color": "#202020" }, "geometry": { "type": "Point", "coordinates": [ 31.992188, 21.861499 ] } }
{ "type": "Feature", "tippecanoe": { "layer": "2AFCABA73D301583915985425", "minzoom": 2, "maxzoom": 8 }, "properties": { "halo": 0.8, "title": "马库里亚王国", "fontsize": 12, "tyid": "304000", "oid": "103:1576575141438", "color": "#202020" }, "geometry": { "type": "Point", "coordinates": [ 32.167969, 19.145168 ] } }
{ "type": "Feature", "tippecanoe": { "layer": "2AFCABA73D301583915985425", "minzoom": 2, "maxzoom": 8 }, "properties": { "halo": 0.8, "title": "努比亚人", "fontsize": 12, "tyid": "304001", "oid": "103:1576575141645", "color": "#262626" }, "geometry": { "type": "Point", "coordinates": [ 31.816406, 16.045813 ] } }
{ "type": "Feature", "tippecanoe": { "layer": "2AFCABA73D301583915985425", "minzoom": 2, "maxzoom": 8 }, "properties": { "halo": 0.8, "title": "贝扎人", "fontsize": 12, "tyid": "304001", "oid": "103:1576575141829", "color": "#262626" }, "geometry": { "type": "Point", "coordinates": [ 35.419922, 21.371244 ] } }
{ "type": "Feature", "tippecanoe": { "layer": "2AFCABA73D301583915985425", "minzoom": 2, "maxzoom": 8 }, "properties": { "halo": 0.8, "title": "马里人", "fontsize": 12, "tyid": "304001", "oid": "103:1576575141836", "color": "#262626" }, "geometry": { "type": "Point", "coordinates": [ 46.845703, 57.326521 ] } }
{ "type": "Feature", "tippecanoe": { "layer": "2AFCABA73D301583915985425", "minzoom": 2, "maxzoom": 8 }, "properties": { "halo": 0.8, "title": "伊曼科夫文化", "fontsize": 12, "tyid": "304002", "oid": "103:1576575141527", "color": "#262626" }, "geometry": { "type": "Point", "coordinates": [ 47.548828, 54.977614 ] } }
{ "type": "Feature", "tippecanoe": { "layer": "2AFCABA73D301583915985425", "minzoom": 2, "maxzoom": 8 }, "properties": { "halo": 0.8, "title": "布尔塔斯人", "fontsize": 12, "tyid": "304001", "oid": "103:1576575141624", "color": "#262626" }, "geometry": { "type": "Point", "coordinates": [ 48.955078, 53.173119 ] } }
{ "type": "Feature", "tippecanoe": { "layer": "2AFCABA73D301583915985425", "minzoom": 2, "maxzoom": 8 }, "properties": { "halo": 0.8, "title": "库什纳伦科沃文化", "fontsize": 12, "tyid": "304002", "oid": "103:1576575141918", "color": "#262626" }, "geometry": { "type": "Point", "coordinates": [ 54.140625, 54.977614 ] } }
{ "type": "Feature", "tippecanoe": { "layer": "2AFCABA73D301583915985425", "minzoom": 2, "maxzoom": 8 }, "properties": { "halo": 0.8, "title": "乌古尔人", "fontsize": 12, "tyid": "304001", "oid": "103:1576575141367", "color": "#262626" }, "geometry": { "type": "Point", "coordinates": [ 46.054688, 46.679594 ] } }
{ "type": "Feature", "tippecanoe": { "layer": "2AFCABA73D301583915985425", "minzoom": 2, "maxzoom": 8 }, "properties": { "halo": 0.8, "title": "萨里尔王国", "fontsize": 12, "tyid": "304000", "oid": "103:1576575141684", "color": "#202020" }, "geometry": { "type": "Point", "coordinates": [ 47.109375, 42.228517 ] } }
{ "type": "Feature", "tippecanoe": { "layer": "2AFCABA73D301583915985425", "minzoom": 2, "maxzoom": 8 }, "properties": { "halo": 0.8, "title": "图巴斯利文化", "fontsize": 12, "tyid": "304001", "oid": "103:1576575141572", "color": "#262626" }, "geometry": { "type": "Point", "coordinates": [ 57.128906, 55.677584 ] } }
{ "type": "Feature", "tippecanoe": { "layer": "2AFCABA73D301583915985425", "minzoom": 2, "maxzoom": 8 }, "properties": { "halo": 0.8, "title": "阿夫里格王朝", "fontsize": 12, "tyid": "304000", "oid": "103:1576575141959", "color": "#202020" }, "geometry": { "type": "Point", "coordinates": [ 60.029297, 42.617791 ] } }
{ "type": "Feature", "tippecanoe": { "layer": "2AFCABA73D301583915985425", "minzoom": 2, "maxzoom": 8 }, "properties": { "halo": 0.8, "title": "焉耆国", "fontsize": 12, "tyid": "304000", "oid": "103:1576575141941", "color": "#202020" }, "geometry": { "type": "Point", "coordinates": [ 86.308594, 41.836828 ] } }
{ "type": "Feature", "tippecanoe": { "layer": "2AFCABA73D301583915985425", "minzoom": 2, "maxzoom": 8 }, "properties": { "halo": 0.8, "title": "麴氏高昌国", "fontsize": 12, "tyid": "304000", "oid": "103:1576575141971", "color": "#202020" }, "geometry": { "type": "Point", "coordinates": [ 89.648438, 42.747012 ] } }
{ "type": "Feature", "tippecanoe": { "layer": "2AFCABA73D301583915985425", "minzoom": 2, "maxzoom": 8 }, "properties": { "halo": 0.8, "title": "高加索阿尔巴尼亚王国", "fontsize": 12, "tyid": "304000", "oid": "103:1576575141985", "color": "#202020" }, "geometry": { "type": "Point", "coordinates": [ 46.845703, 40.647304 ] } }
{ "type": "Feature", "tippecanoe": { "layer": "2AFCABA73D301583915985425", "minzoom": 2, "maxzoom": 8 }, "properties": { "halo": 0.8, "title": "阿兹达巴部落", "fontsize": 12, "tyid": "304001", "oid": "103:1576575141415", "color": "#262626" }, "geometry": { "type": "Point", "coordinates": [ 58.798828, 22.268764 ] } }
{ "type": "Feature", "tippecanoe": { "layer": "2AFCABA73D301583915985425", "minzoom": 2, "maxzoom": 8 }, "properties": { "halo": 0.8, "title": "狼揭罗国", "fontsize": 12, "tyid": "304000", "oid": "103:1576575141720", "color": "#202020" }, "geometry": { "type": "Point", "coordinates": [ 64.335938, 27.605671 ] } }
{ "type": "Feature", "tippecanoe": { "layer": "2AFCABA73D301583915985425", "minzoom": 2, "maxzoom": 8 }, "properties": { "halo": 0.8, "title": "拔汗那国", "fontsize": 12, "tyid": "304000", "oid": "103:1576575141940", "color": "#202020" }, "geometry": { "type": "Point", "coordinates": [ 71.806641, 40.647304 ] } }
{ "type": "Feature", "tippecanoe": { "layer": "2AFCABA73D301583915985425", "minzoom": 2, "maxzoom": 8 }, "properties": { "halo": 0.8, "title": "内扎克匈奴", "fontsize": 12, "tyid": "304000", "oid": "103:1576575141930", "color": "#202020" }, "geometry": { "type": "Point", "coordinates": [ 68.291016, 33.724340 ] } }
{ "type": "Feature", "tippecanoe": { "layer": "2AFCABA73D301583915985425", "minzoom": 2, "maxzoom": 8 }, "properties": { "halo": 0.8, "title": "乌苌国", "fontsize": 12, "tyid": "304000", "oid": "103:1576575141763", "color": "#202020" }, "geometry": { "type": "Point", "coordinates": [ 72.949219, 35.173808 ] } }
{ "type": "Feature", "tippecanoe": { "layer": "2AFCABA73D301583915985425", "minzoom": 2, "maxzoom": 8 }, "properties": { "halo": 0.8, "title": "健驮逻国", "fontsize": 12, "tyid": "304000", "oid": "103:1576575141721", "color": "#202020" }, "geometry": { "type": "Point", "coordinates": [ 71.367188, 33.797409 ] } }
{ "type": "Feature", "tippecanoe": { "layer": "2AFCABA73D301583915985425", "minzoom": 2, "maxzoom": 8 }, "properties": { "halo": 0.8, "title": "疏勒国", "fontsize": 12, "tyid": "304000", "oid": "103:1576575141952", "color": "#202020" }, "geometry": { "type": "Point", "coordinates": [ 75.410156, 39.368279 ] } }
{ "type": "Feature", "tippecanoe": { "layer": "2AFCABA73D301583915985425", "minzoom": 2, "maxzoom": 8 }, "properties": { "halo": 0.8, "title": "勃律国", "fontsize": 12, "tyid": "304000", "oid": "103:1576575141764", "color": "#202020" }, "geometry": { "type": "Point", "coordinates": [ 75.058594, 35.603719 ] } }
{ "type": "Feature", "tippecanoe": { "layer": "2AFCABA73D301583915985425", "minzoom": 2, "maxzoom": 8 }, "properties": { "halo": 0.8, "title": "屈露多国", "fontsize": 12, "tyid": "304000", "oid": "103:1576575141718", "color": "#202020" }, "geometry": { "type": "Point", "coordinates": [ 76.552734, 32.101190 ] } }
{ "type": "Feature", "tippecanoe": { "layer": "2AFCABA73D301583915985425", "minzoom": 2, "maxzoom": 8 }, "properties": { "halo": 0.8, "title": "拉伊王朝", "fontsize": 12, "tyid": "304000", "oid": "103:1576575141791", "color": "#202020" }, "geometry": { "type": "Point", "coordinates": [ 68.203125, 27.449790 ] } }
{ "type": "Feature", "tippecanoe": { "layer": "2AFCABA73D301583915985425", "minzoom": 2, "maxzoom": 8 }, "properties": { "halo": 0.8, "title": "茂罗三部卢国", "fontsize": 12, "tyid": "304000", "oid": "103:1576575141786", "color": "#202020" }, "geometry": { "type": "Point", "coordinates": [ 71.103516, 29.840644 ] } }
{ "type": "Feature", "tippecanoe": { "layer": "2AFCABA73D301583915985425", "minzoom": 2, "maxzoom": 8 }, "properties": { "halo": 0.8, "title": "磔迦国", "fontsize": 12, "tyid": "304000", "oid": "103:1576575141792", "color": "#202020" }, "geometry": { "type": "Point", "coordinates": [ 72.685547, 31.802893 ] } }
{ "type": "Feature", "tippecanoe": { "layer": "2AFCABA73D301583915985425", "minzoom": 2, "maxzoom": 8 }, "properties": { "halo": 0.8, "title": "臂多势罗国", "fontsize": 12, "tyid": "304000", "oid": "103:1576575141979", "color": "#202020" }, "geometry": { "type": "Point", "coordinates": [ 68.818359, 25.005973 ] } }
{ "type": "Feature", "tippecanoe": { "layer": "2AFCABA73D301583915985425", "minzoom": 2, "maxzoom": 8 }, "properties": { "halo": 0.8, "title": "阿舆荼国", "fontsize": 12, "tyid": "304000", "oid": "103:1576575141981", "color": "#202020" }, "geometry": { "type": "Point", "coordinates": [ 68.906250, 26.352498 ] } }
{ "type": "Feature", "tippecanoe": { "layer": "2AFCABA73D301583915985425", "minzoom": 2, "maxzoom": 8 }, "properties": { "halo": 0.8, "title": "普西亚布蒂王朝", "fontsize": 12, "tyid": "304000", "oid": "103:1576575141788", "color": "#202020" }, "geometry": { "type": "Point", "coordinates": [ 77.255859, 29.535230 ] } }
{ "type": "Feature", "tippecanoe": { "layer": "2AFCABA73D301583915985425", "minzoom": 2, "maxzoom": 8 }, "properties": { "halo": 0.8, "title": "梅特拉卡王朝", "fontsize": 12, "tyid": "304000", "oid": "103:1576575141933", "color": "#202020" }, "geometry": { "type": "Point", "coordinates": [ 74.794922, 22.917923 ] } }
{ "type": "Feature", "tippecanoe": { "layer": "2AFCABA73D301583915985425", "minzoom": 2, "maxzoom": 8 }, "properties": { "halo": 0.8, "title": "龟兹国", "fontsize": 12, "tyid": "304000", "oid": "103:1576575141954", "color": "#202020" }, "geometry": { "type": "Point", "coordinates": [ 81.035156, 40.913513 ] } }
{ "type": "Feature", "tippecanoe": { "layer": "2AFCABA73D301583915985425", "minzoom": 2, "maxzoom": 8 }, "properties": { "halo": 0.8, "title": "尼波罗国", "fontsize": 12, "tyid": "304000", "oid": "103:1576575141706", "color": "#202020" }, "geometry": { "type": "Point", "coordinates": [ 84.199219, 28.071980 ] } }
{ "type": "Feature", "tippecanoe": { "layer": "2AFCABA73D301583915985425", "minzoom": 2, "maxzoom": 8 }, "properties": { "halo": 0.8, "title": "穆克里王朝", "fontsize": 12, "tyid": "304000", "oid": "103:1576575141795", "color": "#202020" }, "geometry": { "type": "Point", "coordinates": [ 80.068359, 26.824071 ] } }
{ "type": "Feature", "tippecanoe": { "layer": "2AFCABA73D301583915985425", "minzoom": 2, "maxzoom": 8 }, "properties": { "halo": 0.8, "title": "梅卡拉潘都瓦湿王朝", "fontsize": 12, "tyid": "304000", "oid": "103:1576575141800", "color": "#202020" }, "geometry": { "type": "Point", "coordinates": [ 82.529297, 22.268764 ] } }
{ "type": "Feature", "tippecanoe": { "layer": "2AFCABA73D301583915985425", "minzoom": 2, "maxzoom": 8 }, "properties": { "halo": 0.8, "title": "耽摩栗底国", "fontsize": 12, "tyid": "304000", "oid": "103:1576575141468", "color": "#202020" }, "geometry": { "type": "Point", "coordinates": [ 88.593750, 22.593726 ] } }
{ "type": "Feature", "tippecanoe": { "layer": "2AFCABA73D301583915985425", "minzoom": 2, "maxzoom": 8 }, "properties": { "halo": 0.8, "title": "卡拉波拉王朝", "fontsize": 12, "tyid": "304000", "oid": "103:1576575141492", "color": "#202020" }, "geometry": { "type": "Point", "coordinates": [ 77.783203, 10.833306 ] } }
{ "type": "Feature", "tippecanoe": { "layer": "2AFCABA73D301583915985425", "minzoom": 2, "maxzoom": 8 }, "properties": { "halo": 0.8, "title": "那拉王朝", "fontsize": 12, "tyid": "304000", "oid": "103:1576575141794", "color": "#202020" }, "geometry": { "type": "Point", "coordinates": [ 81.474609, 19.559790 ] } }
{ "type": "Feature", "tippecanoe": { "layer": "2AFCABA73D301583915985425", "minzoom": 2, "maxzoom": 8 }, "properties": { "halo": 0.8, "title": "韦湿奴甘地那王朝", "fontsize": 12, "tyid": "304000", "oid": "103:1576575141703", "color": "#202020" }, "geometry": { "type": "Point", "coordinates": [ 80.332031, 17.056785 ] } }
{ "type": "Feature", "tippecanoe": { "layer": "2AFCABA73D301583915985425", "minzoom": 2, "maxzoom": 8 }, "properties": { "halo": 0.8, "title": "帕拉瓦王朝", "fontsize": 12, "tyid": "304000", "oid": "103:1576575141491", "color": "#202020" }, "geometry": { "type": "Point", "coordinates": [ 79.189453, 14.519780 ] } }
{ "type": "Feature", "tippecanoe": { "layer": "2AFCABA73D301583915985425", "minzoom": 2, "maxzoom": 8 }, "properties": { "halo": 0.8, "title": "沙罗哈瓦王朝", "fontsize": 12, "tyid": "304000", "oid": "103:1576575141797", "color": "#202020" }, "geometry": { "type": "Point", "coordinates": [ 84.726562, 19.890723 ] } }
{ "type": "Feature", "tippecanoe": { "layer": "2AFCABA73D301583915985425", "minzoom": 2, "maxzoom": 8 }, "properties": { "halo": 0.8, "title": "阿努拉德普勒王国", "fontsize": 12, "tyid": "304000", "oid": "103:1576575141448", "color": "#202020" }, "geometry": { "type": "Point", "coordinates": [ 80.683594, 7.623887 ] } }
{ "type": "Feature", "tippecanoe": { "layer": "2AFCABA73D301583915985425", "minzoom": 2, "maxzoom": 8 }, "properties": { "halo": 0.8, "title": "地豆于", "fontsize": 12, "tyid": "304001", "oid": "103:1576575141730", "color": "#262626" }, "geometry": { "type": "Point", "coordinates": [ 117.421875, 45.583290 ] } }
{ "type": "Feature", "tippecanoe": { "layer": "2AFCABA73D301583915985425", "minzoom": 2, "maxzoom": 8 }, "properties": { "halo": 0.8, "title": "库莫奚", "fontsize": 12, "tyid": "304001", "oid": "103:1576575141473", "color": "#262626" }, "geometry": { "type": "Point", "coordinates": [ 118.828125, 42.940339 ] } }
{ "type": "Feature", "tippecanoe": { "layer": "2AFCABA73D301583915985425", "minzoom": 2, "maxzoom": 8 }, "properties": { "halo": 0.8, "title": "契丹", "fontsize": 12, "tyid": "304001", "oid": "103:1576575141474", "color": "#262626" }, "geometry": { "type": "Point", "coordinates": [ 122.343750, 43.771094 ] } }
{ "type": "Feature", "tippecanoe": { "layer": "2AFCABA73D301583915985425", "minzoom": 2, "maxzoom": 8 }, "properties": { "halo": 0.8, "title": "瓦曼王朝", "fontsize": 12, "tyid": "304000", "oid": "103:1576575141731", "color": "#202020" }, "geometry": { "type": "Point", "coordinates": [ 90.439453, 25.482951 ] } }
{ "type": "Feature", "tippecanoe": { "layer": "2AFCABA73D301583915985425", "minzoom": 2, "maxzoom": 8 }, "properties": { "halo": 0.8, "title": "三摩呾吒国", "fontsize": 12, "tyid": "304000", "oid": "103:1576575141466", "color": "#202020" }, "geometry": { "type": "Point", "coordinates": [ 90.791016, 23.322080 ] } }
{ "type": "Feature", "tippecanoe": { "layer": "2AFCABA73D301583915985425", "minzoom": 2, "maxzoom": 8 }, "properties": { "halo": 0.8, "title": "古曼尼普尔王国", "fontsize": 12, "tyid": "304000", "oid": "103:1576575141471", "color": "#202020" }, "geometry": { "type": "Point", "coordinates": [ 93.867188, 24.766785 ] } }
{ "type": "Feature", "tippecanoe": { "layer": "2AFCABA73D301583915985425", "minzoom": 2, "maxzoom": 8 }, "properties": { "halo": 0.8, "title": "附国", "fontsize": 12, "tyid": "304001", "oid": "103:1576575141783", "color": "#262626" }, "geometry": { "type": "Point", "coordinates": [ 100.458984, 31.802893 ] } }
{ "type": "Feature", "tippecanoe": { "layer": "2AFCABA73D301583915985425", "minzoom": 2, "maxzoom": 8 }, "properties": { "halo": 0.8, "title": "西梁", "fontsize": 12, "tyid": "304000", "oid": "103:1576575141974", "color": "#202020" }, "geometry": { "type": "Point", "coordinates": [ 112.148438, 29.458731 ] } }
{ "type": "Feature", "tippecanoe": { "layer": "2AFCABA73D301583915985425", "minzoom": 2, "maxzoom": 8 }, "properties": { "halo": 0.8, "title": "谢氏", "fontsize": 12, "tyid": "304002", "oid": "103:1576575141972", "color": "#262626" }, "geometry": { "type": "Point", "coordinates": [ 107.226562, 26.273714 ] } }
{ "type": "Feature", "tippecanoe": { "layer": "2AFCABA73D301583915985425", "minzoom": 2, "maxzoom": 8 }, "properties": { "halo": 0.8, "title": "达雅瓦底王国", "fontsize": 12, "tyid": "304000", "oid": "103:1576575141774", "color": "#202020" }, "geometry": { "type": "Point", "coordinates": [ 93.339844, 20.550509 ] } }
{ "type": "Feature", "tippecanoe": { "layer": "2AFCABA73D301583915985425", "minzoom": 2, "maxzoom": 8 }, "properties": { "halo": 0.8, "title": "直通王国", "fontsize": 12, "tyid": "304000", "oid": "103:1576575141736", "color": "#202020" }, "geometry": { "type": "Point", "coordinates": [ 95.185547, 17.056785 ] } }
{ "type": "Feature", "tippecanoe": { "layer": "2AFCABA73D301583915985425", "minzoom": 2, "maxzoom": 8 }, "properties": { "halo": 0.8, "title": "骠国", "fontsize": 12, "tyid": "304000", "oid": "103:1576575141697", "color": "#202020" }, "geometry": { "type": "Point", "coordinates": [ 95.888672, 21.125498 ] } }
{ "type": "Feature", "tippecanoe": { "layer": "2AFCABA73D301583915985425", "minzoom": 2, "maxzoom": 8 }, "properties": { "halo": 0.8, "title": "罗涡国", "fontsize": 12, "tyid": "304000", "oid": "103:1576575141771", "color": "#202020" }, "geometry": { "type": "Point", "coordinates": [ 100.019531, 16.130262 ] } }
{ "type": "Feature", "tippecanoe": { "layer": "2AFCABA73D301583915985425", "minzoom": 2, "maxzoom": 8 }, "properties": { "halo": 0.8, "title": "陀罗钵地王国", "fontsize": 12, "tyid": "304000", "oid": "103:1576575141352", "color": "#202020" }, "geometry": { "type": "Point", "coordinates": [ 99.140625, 13.068777 ] } }
{ "type": "Feature", "tippecanoe": { "layer": "2AFCABA73D301583915985425", "minzoom": 2, "maxzoom": 8 }, "properties": { "halo": 0.8, "title": "盘盘国", "fontsize": 12, "tyid": "304000", "oid": "103:1576575141711", "color": "#202020" }, "geometry": { "type": "Point", "coordinates": [ 99.404297, 8.581021 ] } }
{ "type": "Feature", "tippecanoe": { "layer": "2AFCABA73D301583915985425", "minzoom": 2, "maxzoom": 8 }, "properties": { "halo": 0.8, "title": "野能国", "fontsize": 12, "tyid": "304000", "oid": "103:1576575141777", "color": "#202020" }, "geometry": { "type": "Point", "coordinates": [ 105.556641, 19.890723 ] } }
{ "type": "Feature", "tippecanoe": { "layer": "2AFCABA73D301583915985425", "minzoom": 2, "maxzoom": 8 }, "properties": { "halo": 0.8, "title": "真腊王国", "fontsize": 12, "tyid": "304000", "oid": "103:1576575141734", "color": "#202020" }, "geometry": { "type": "Point", "coordinates": [ 106.259766, 13.923404 ] } }
{ "type": "Feature", "tippecanoe": { "layer": "2AFCABA73D301583915985425", "minzoom": 2, "maxzoom": 8 }, "properties": { "halo": 0.8, "title": "林邑国", "fontsize": 12, "tyid": "304000", "oid": "103:1576575141629", "color": "#202020" }, "geometry": { "type": "Point", "coordinates": [ 107.578125, 16.299051 ] } }
{ "type": "Feature", "tippecanoe": { "layer": "2AFCABA73D301583915985425", "minzoom": 2, "maxzoom": 8 }, "properties": { "halo": 0.8, "title": "赤土国", "fontsize": 12, "tyid": "304000", "oid": "103:1576575141712", "color": "#202020" }, "geometry": { "type": "Point", "coordinates": [ 102.304688, 5.353521 ] } }
{ "type": "Feature", "tippecanoe": { "layer": "2AFCABA73D301583915985425", "minzoom": 2, "maxzoom": 8 }, "properties": { "halo": 0.8, "title": "婆皇国", "fontsize": 12, "tyid": "304000", "oid": "103:1576575141773", "color": "#202020" }, "geometry": { "type": "Point", "coordinates": [ 102.480469, 3.776559 ] } }
{ "type": "Feature", "tippecanoe": { "layer": "2AFCABA73D301583915985425", "minzoom": 2, "maxzoom": 8 }, "properties": { "halo": 0.8, "title": "百济", "fontsize": 12, "tyid": "304000", "oid": "103:1576575141494", "color": "#202020" }, "geometry": { "type": "Point", "coordinates": [ 127.529297, 36.527295 ] } }
{ "type": "Feature", "tippecanoe": { "layer": "2AFCABA73D301583915985425", "minzoom": 2, "maxzoom": 8 }, "properties": { "halo": 0.8, "title": "新罗", "fontsize": 12, "tyid": "304000", "oid": "103:1576575141923", "color": "#202020" }, "geometry": { "type": "Point", "coordinates": [ 128.759766, 36.315125 ] } }
{ "type": "Feature", "tippecanoe": { "layer": "2AFCABA73D301583915985425", "minzoom": 2, "maxzoom": 8 }, "properties": { "halo": 0.8, "title": "尼夫赫人", "fontsize": 12, "tyid": "304001", "oid": "103:1576575141440", "color": "#262626" }, "geometry": { "type": "Point", "coordinates": [ 142.646484, 50.345460 ] } }
{ "type": "Feature", "tippecanoe": { "layer": "2AFCABA73D301583915985425", "minzoom": 2, "maxzoom": 8 }, "properties": { "halo": 0.8, "title": "绳文人", "fontsize": 12, "tyid": "304001", "oid": "103:1576575141443", "color": "#262626" }, "geometry": { "type": "Point", "coordinates": [ 142.558594, 43.389082 ] } }
{ "type": "Feature", "tippecanoe": { "layer": "2AFCABA73D301583915985425", "minzoom": 2, "maxzoom": 8 }, "properties": { "halo": 0.8, "title": "日高见国", "fontsize": 12, "tyid": "304000", "oid": "103:1576575141725", "color": "#202020" }, "geometry": { "type": "Point", "coordinates": [ 140.712891, 39.504041 ] } }
{ "type": "Feature", "tippecanoe": { "layer": "2AFCABA73D301583915985425", "minzoom": 2, "maxzoom": 8 }, "properties": { "halo": 0.8, "title": "艾布兰文化五期", "fontsize": 12, "tyid": "304002", "oid": "103:1576575141899", "color": "#262626" }, "geometry": { "type": "Point", "coordinates": [ 36.474609, -0.175781 ] } }
{ "type": "Feature", "tippecanoe": { "layer": "2AFCABA73D301583915985425", "minzoom": 2, "maxzoom": 8 }, "properties": { "halo": 0.8, "title": "斯瓦西里人", "fontsize": 12, "tyid": "304001", "oid": "103:1576575141677", "color": "#262626" }, "geometry": { "type": "Point", "coordinates": [ 39.375000, -16.214675 ] } }
{ "type": "Feature", "tippecanoe": { "layer": "2AFCABA73D301583915985425", "minzoom": 2, "maxzoom": 8 }, "properties": { "halo": 0.8, "title": "末罗瑜王国", "fontsize": 12, "tyid": "304000", "oid": "103:1576575141472", "color": "#202020" }, "geometry": { "type": "Point", "coordinates": [ 103.623047, -2.460181 ] } }
{ "type": "Feature", "tippecanoe": { "layer": "2AFCABA73D301583915985425", "minzoom": 2, "maxzoom": 8 }, "properties": { "halo": 0.8, "title": "库泰王国", "fontsize": 12, "tyid": "304000", "oid": "103:1576575141637", "color": "#202020" }, "geometry": { "type": "Point", "coordinates": [ 116.191406, 0.000000 ] } }
{ "type": "Feature", "tippecanoe": { "layer": "2AFCABA73D301583915985425", "minzoom": 2, "maxzoom": 8 }, "properties": { "halo": 0.8, "title": "巴拉瓦人", "fontsize": 12, "tyid": "304001", "oid": "103:1576575141636", "color": "#262626" }, "geometry": { "type": "Point", "coordinates": [ 146.513672, -41.967659 ] } }
{ "type": "Feature", "tippecanoe": { "layer": "2AFCABB1DE801583915985443", "minzoom": 2, "maxzoom": 8 }, "properties": { "halo": 1.6, "title": "古白令海文化", "fontsize": 12, "tyid": "304002", "oid": "103:1576575141738", "color": "#0056E7" }, "geometry": { "type": "Point", "coordinates": [ -170.332031, 63.470145 ] } }
{ "type": "Feature", "tippecanoe": { "layer": "2AFCABB1DE801583915985443", "minzoom": 2, "maxzoom": 8 }, "properties": { "halo": 1.6, "title": "梅奥人", "fontsize": 12, "tyid": "304001", "oid": "103:1576575141906", "color": "#0056E7" }, "geometry": { "type": "Point", "coordinates": [ -109.160156, 26.667096 ] } }
{ "type": "Feature", "tippecanoe": { "layer": "2AFCABB1DE801583915985443", "minzoom": 2, "maxzoom": 8 }, "properties": { "halo": 1.6, "title": "查尔奇维特斯文化", "fontsize": 12, "tyid": "304002", "oid": "103:1576575141896", "color": "#0056E7" }, "geometry": { "type": "Point", "coordinates": [ -103.974609, 23.483401 ] } }
{ "type": "Feature", "tippecanoe": { "layer": "2AFCABB1DE801583915985443", "minzoom": 2, "maxzoom": 8 }, "properties": { "halo": 1.6, "title": "巴希奥文化", "fontsize": 12, "tyid": "304002", "oid": "103:1576575141619", "color": "#0056E7" }, "geometry": { "type": "Point", "coordinates": [ -99.931641, 20.961440 ] } }
{ "type": "Feature", "tippecanoe": { "layer": "2AFCABB1DE801583915985443", "minzoom": 2, "maxzoom": 8 }, "properties": { "halo": 1.6, "title": "特奥蒂瓦坎", "fontsize": 12, "tyid": "304002", "oid": "103:1576575141580", "color": "#0056E7" }, "geometry": { "type": "Point", "coordinates": [ -99.404297, 19.808054 ] } }
{ "type": "Feature", "tippecanoe": { "layer": "2AFCABB1DE801583915985443", "minzoom": 2, "maxzoom": 8 }, "properties": { "halo": 1.6, "title": "圣米格尔伊克帕坦文化", "fontsize": 12, "tyid": "304002", "oid": "103:1576575141889", "color": "#0056E7" },