{"year": "AD600",  "type": "Feature", "tippecanoe": { "layer": "2AFC9FCCE0F01583915868196", "minzoom": 2, "maxzoom": 8 }, "properties": { "halo": 0.8, "title": "诺顿文化", "fontsize": 12, "tyid": "304002", "oid": "103:1576922417065", "color": "#262626" }, "geometry": { "type": "Point", "coordinates": [ -162.949219, 65.403445 ] } }
{"year": "AD600",  "type": "Feature", "tippecanoe": { "layer": "2AFC9FCCE0F01583915868196", "minzoom": 2, "maxzoom": 8 }, "properties": { "halo": 0.8, "title": "圣路易斯雷伊文化", "fontsize": 12, "tyid": "304002", "oid": "103:1576922417015", "color": "#262626" }, "geometry": { "type": "Point", "coordinates": [ -118.916016, 34.597042 ] } }
{"year": "AD600",  "type": "Feature", "tippecanoe": { "layer": "2AFC9FCCE0F01583915868196", "minzoom": 2, "maxzoom": 8 }, "properties": { "halo": 0.8, "title": "维珍阿纳萨齐人", "fontsize": 12, "tyid": "304001", "oid": "103:1576922417059", "color": "#262626" }, "geometry": { "type": "Point", "coordinates": [ -113.818359, 36.879621 ] } }
{"year": "AD600",  "type": "Feature", "tippecanoe": { "layer": "2AFC9FCCE0F01583915868196", "minzoom": 2, "maxzoom": 8 }, "properties": { "halo": 0.8, "title": "霍霍卡姆文化", "fontsize": 12, "tyid": "304002", "oid": "103:1576922417120", "color": "#262626" }, "geometry": { "type": "Point", "coordinates": [ -116.103516, 35.746512 ] } }
{"year": "AD600",  "type": "Feature", "tippecanoe": { "layer": "2AFC9FCCE0F01583915868196", "minzoom": 2, "maxzoom": 8 }, "properties": { "halo": 0.8, "title": "科蒙德文化", "fontsize": 12, "tyid": "304002", "oid": "103:1576922417152", "color": "#262626" }, "geometry": { "type": "Point", "coordinates": [ -114.169922, 28.921631 ] } }
{"year": "AD600",  "type": "Feature", "tippecanoe": { "layer": "2AFC9FCCE0F01583915868196", "minzoom": 2, "maxzoom": 8 }, "properties": { "halo": 0.8, "title": "弗里蒙特文化", "fontsize": 12, "tyid": "304002", "oid": "103:1576922417056", "color": "#262626" }, "geometry": { "type": "Point", "coordinates": [ -111.533203, 38.134557 ] } }
{"year": "AD600",  "type": "Feature", "tippecanoe": { "layer": "2AFC9FCCE0F01583915868196", "minzoom": 2, "maxzoom": 8 }, "properties": { "halo": 0.8, "title": "斯内瓜文化", "fontsize": 12, "tyid": "304002", "oid": "103:1576922417389", "color": "#262626" }, "geometry": { "type": "Point", "coordinates": [ -111.357422, 34.379713 ] } }
{"year": "AD600",  "type": "Feature", "tippecanoe": { "layer": "2AFC9FCCE0F01583915868196", "minzoom": 2, "maxzoom": 8 }, "properties": { "halo": 0.8, "title": "瓜伊库拉人", "fontsize": 12, "tyid": "304001", "oid": "103:1576922417030", "color": "#262626" }, "geometry": { "type": "Point", "coordinates": [ -111.621094, 25.165173 ] } }
{"year": "AD600",  "type": "Feature", "tippecanoe": { "layer": "2AFC9FCCE0F01583915868196", "minzoom": 2, "maxzoom": 8 }, "properties": { "halo": 0.8, "title": "堪萨斯城霍普韦尔文化", "fontsize": 12, "tyid": "304002", "oid": "103:1576922417406", "color": "#262626" }, "geometry": { "type": "Point", "coordinates": [ -93.427734, 38.685510 ] } }
{"year": "AD600",  "type": "Feature", "tippecanoe": { "layer": "2AFC9FCCE0F01583915868196", "minzoom": 2, "maxzoom": 8 }, "properties": { "halo": 0.8, "title": "福切马里尼文化", "fontsize": 12, "tyid": "304002", "oid": "103:1576922417006", "color": "#262626" }, "geometry": { "type": "Point", "coordinates": [ -94.042969, 33.358062 ] } }
{"year": "AD600",  "type": "Feature", "tippecanoe": { "layer": "2AFC9FCCE0F01583915868196", "minzoom": 2, "maxzoom": 8 }, "properties": { "halo": 0.8, "title": "喀多语密西西比文化", "fontsize": 12, "tyid": "304002", "oid": "103:1576922417086", "color": "#262626" }, "geometry": { "type": "Point", "coordinates": [ -92.812500, 35.960223 ] } }
{"year": "AD600",  "type": "Feature", "tippecanoe": { "layer": "2AFC9FCCE0F01583915868196", "minzoom": 2, "maxzoom": 8 }, "properties": { "halo": 0.8, "title": "贝敦文化", "fontsize": 12, "tyid": "304002", "oid": "103:1576922417186", "color": "#262626" }, "geometry": { "type": "Point", "coordinates": [ -90.703125, 34.379713 ] } }
{"year": "AD600",  "type": "Feature", "tippecanoe": { "layer": "2AFC9FCCE0F01583915868196", "minzoom": 2, "maxzoom": 8 }, "properties": { "halo": 0.8, "title": "奇奇梅克人", "fontsize": 12, "tyid": "304001", "oid": "103:1576922417464", "color": "#262626" }, "geometry": { "type": "Point", "coordinates": [ -101.162109, 22.512557 ] } }
{"year": "AD600",  "type": "Feature", "tippecanoe": { "layer": "2AFC9FCCE0F01583915868196", "minzoom": 2, "maxzoom": 8 }, "properties": { "halo": 0.8, "title": "华斯塔克文明", "fontsize": 12, "tyid": "304002", "oid": "103:1576922417228", "color": "#262626" }, "geometry": { "type": "Point", "coordinates": [ -98.613281, 22.105999 ] } }
{"year": "AD600",  "type": "Feature", "tippecanoe": { "layer": "2AFC9FCCE0F01583915868196", "minzoom": 2, "maxzoom": 8 }, "properties": { "halo": 0.8, "title": "奇蒂玛察人", "fontsize": 12, "tyid": "304001", "oid": "103:1576922417265", "color": "#262626" }, "geometry": { "type": "Point", "coordinates": [ -91.582031, 30.448674 ] } }
{"year": "AD600",  "type": "Feature", "tippecanoe": { "layer": "2AFC9FCCE0F01583915868196", "minzoom": 2, "maxzoom": 8 }, "properties": { "halo": 0.8, "title": "萨波特克文明", "fontsize": 12, "tyid": "304002", "oid": "103:1576922417165", "color": "#262626" }, "geometry": { "type": "Point", "coordinates": [ -96.064453, 16.888660 ] } }
{"year": "AD600",  "type": "Feature", "tippecanoe": { "layer": "2AFC9FCCE0F01583915868196", "minzoom": 2, "maxzoom": 8 }, "properties": { "halo": 0.8, "title": "贝奥图克人", "fontsize": 12, "tyid": "304001", "oid": "103:1576922417267", "color": "#262626" }, "geometry": { "type": "Point", "coordinates": [ -56.074219, 48.748945 ] } }
{"year": "AD600",  "type": "Feature", "tippecanoe": { "layer": "2AFC9FCCE0F01583915868196", "minzoom": 2, "maxzoom": 8 }, "properties": { "halo": 0.8, "title": "米勒文化", "fontsize": 12, "tyid": "304002", "oid": "103:1576922417188", "color": "#262626" }, "geometry": { "type": "Point", "coordinates": [ -87.802734, 34.379713 ] } }
{"year": "AD600",  "type": "Feature", "tippecanoe": { "layer": "2AFC9FCCE0F01583915868196", "minzoom": 2, "maxzoom": 8 }, "properties": { "halo": 0.8, "title": "特洛伊维尔文化", "fontsize": 12, "tyid": "304002", "oid": "103:1576922417336", "color": "#262626" }, "geometry": { "type": "Point", "coordinates": [ -89.912109, 32.101190 ] } }
{"year": "AD600",  "type": "Feature", "tippecanoe": { "layer": "2AFC9FCCE0F01583915868196", "minzoom": 2, "maxzoom": 8 }, "properties": { "halo": 0.8, "title": "斯威夫特溪文化", "fontsize": 12, "tyid": "304002", "oid": "103:1576922417177", "color": "#262626" }, "geometry": { "type": "Point", "coordinates": [ -84.814453, 32.175612 ] } }
{"year": "AD600",  "type": "Feature", "tippecanoe": { "layer": "2AFC9FCCE0F01583915868196", "minzoom": 2, "maxzoom": 8 }, "properties": { "halo": 0.8, "title": "丹河文化", "fontsize": 12, "tyid": "304002", "oid": "103:1576922417066", "color": "#262626" }, "geometry": { "type": "Point", "coordinates": [ -81.914062, 37.509726 ] } }
{"year": "AD600",  "type": "Feature", "tippecanoe": { "layer": "2AFC9FCCE0F01583915868196", "minzoom": 2, "maxzoom": 8 }, "properties": { "halo": 0.8, "title": "德普特福德文化", "fontsize": 12, "tyid": "304002", "oid": "103:1576922417038", "color": "#262626" }, "geometry": { "type": "Point", "coordinates": [ -79.628906, 33.431441 ] } }
{"year": "AD600",  "type": "Feature", "tippecanoe": { "layer": "2AFC9FCCE0F01583915868196", "minzoom": 2, "maxzoom": 8 }, "properties": { "halo": 0.8, "title": "圣罗莎-斯威夫特溪文化", "fontsize": 12, "tyid": "304002", "oid": "103:1576922417222", "color": "#262626" }, "geometry": { "type": "Point", "coordinates": [ -86.748047, 30.977609 ] } }
{"year": "AD600",  "type": "Feature", "tippecanoe": { "layer": "2AFC9FCCE0F01583915868196", "minzoom": 2, "maxzoom": 8 }, "properties": { "halo": 0.8, "title": "维登岛文化", "fontsize": 12, "tyid": "304002", "oid": "103:1576922417216", "color": "#262626" }, "geometry": { "type": "Point", "coordinates": [ -84.902344, 30.524413 ] } }
{"year": "AD600",  "type": "Feature", "tippecanoe": { "layer": "2AFC9FCCE0F01583915868196", "minzoom": 2, "maxzoom": 8 }, "properties": { "halo": 0.8, "title": "泰诺人", "fontsize": 12, "tyid": "304001", "oid": "103:1576922417274", "color": "#262626" }, "geometry": { "type": "Point", "coordinates": [ -79.628906, 22.105999 ] } }
{"year": "AD600",  "type": "Feature", "tippecanoe": { "layer": "2AFC9FCCE0F01583915868196", "minzoom": 2, "maxzoom": 8 }, "properties": { "halo": 0.8, "title": "佩奇人", "fontsize": 12, "tyid": "304001", "oid": "103:1576922417468", "color": "#262626" }, "geometry": { "type": "Point", "coordinates": [ -84.814453, 15.368950 ] } }
{"year": "AD600",  "type": "Feature", "tippecanoe": { "layer": "2AFC9FCCE0F01583915868196", "minzoom": 2, "maxzoom": 8 }, "properties": { "halo": 0.8, "title": "兹努文化", "fontsize": 12, "tyid": "304002", "oid": "103:1576922416958", "color": "#262626" }, "geometry": { "type": "Point", "coordinates": [ -75.585938, 8.581021 ] } }
{"year": "AD600",  "type": "Feature", "tippecanoe": { "layer": "2AFC9FCCE0F01583915868196", "minzoom": 2, "maxzoom": 8 }, "properties": { "halo": 0.8, "title": "埃雷拉时期", "fontsize": 12, "tyid": "304002", "oid": "103:1576922417473", "color": "#262626" }, "geometry": { "type": "Point", "coordinates": [ -73.037109, 5.965754 ] } }
{"year": "AD600",  "type": "Feature", "tippecanoe": { "layer": "2AFC9FCCE0F01583915868196", "minzoom": 2, "maxzoom": 8 }, "properties": { "halo": 0.8, "title": "伊奈里人", "fontsize": 12, "tyid": "304001", "oid": "103:1576922417254", "color": "#262626" }, "geometry": { "type": "Point", "coordinates": [ -61.787109, 8.754795 ] } }
{"year": "AD600",  "type": "Feature", "tippecanoe": { "layer": "2AFC9FCCE0F01583915868196", "minzoom": 2, "maxzoom": 8 }, "properties": { "halo": 0.8, "title": "达尔里阿达王国", "fontsize": 12, "tyid": "304000", "oid": "103:1535120127653", "color": "#202020" }, "geometry": { "type": "Point", "coordinates": [ -5.009766, 56.072035 ] } }
{"year": "AD600",  "type": "Feature", "tippecanoe": { "layer": "2AFC9FCCE0F01583915868196", "minzoom": 2, "maxzoom": 8 }, "properties": { "halo": 0.8, "title": "皮克特诸王国", "fontsize": 12, "tyid": "304000", "oid": "103:1535120127650", "color": "#202020" }, "geometry": { "type": "Point", "coordinates": [ -3.691406, 57.040730 ] } }
{"year": "AD600",  "type": "Feature", "tippecanoe": { "layer": "2AFC9FCCE0F01583915868196", "minzoom": 2, "maxzoom": 8 }, "properties": { "halo": 0.8, "title": "康诺特诸王国", "fontsize": 12, "tyid": "304000", "oid": "103:1576922416944", "color": "#202020" }, "geometry": { "type": "Point", "coordinates": [ -8.876953, 53.800651 ] } }
{"year": "AD600",  "type": "Feature", "tippecanoe": { "layer": "2AFC9FCCE0F01583915868196", "minzoom": 2, "maxzoom": 8 }, "properties": { "halo": 0.8, "title": "盖尔人", "fontsize": 12, "tyid": "304001", "oid": "103:1576922417128", "color": "#262626" }, "geometry": { "type": "Point", "coordinates": [ -6.943359, 53.173119 ] } }
{"year": "AD600",  "type": "Feature", "tippecanoe": { "layer": "2AFC9FCCE0F01583915868196", "minzoom": 2, "maxzoom": 8 }, "properties": { "halo": 0.8, "title": "明斯特王国", "fontsize": 12, "tyid": "304000", "oid": "103:1576922417095", "color": "#202020" }, "geometry": { "type": "Point", "coordinates": [ -8.701172, 52.375599 ] } }
{"year": "AD600",  "type": "Feature", "tippecanoe": { "layer": "2AFC9FCCE0F01583915868196", "minzoom": 2, "maxzoom": 8 }, "properties": { "halo": 0.8, "title": "凯尔特布立吞人", "fontsize": 12, "tyid": "304001", "oid": "103:1535120127646", "color": "#262626" }, "geometry": { "type": "Point", "coordinates": [ -2.548828, 53.120405 ] } }
{"year": "AD600",  "type": "Feature", "tippecanoe": { "layer": "2AFC9FCCE0F01583915868196", "minzoom": 2, "maxzoom": 8 }, "properties": { "halo": 0.8, "title": "盎格鲁-撒克逊人", "fontsize": 12, "tyid": "304001", "oid": "103:1576922417132", "color": "#262626" }, "geometry": { "type": "Point", "coordinates": [ -1.757812, 51.289406 ] } }
{"year": "AD600",  "type": "Feature", "tippecanoe": { "layer": "2AFC9FCCE0F01583915868196", "minzoom": 2, "maxzoom": 8 }, "properties": { "halo": 0.8, "title": "杰内-杰诺文化三期", "fontsize": 12, "tyid": "304002", "oid": "103:1576922417237", "color": "#262626" }, "geometry": { "type": "Point", "coordinates": [ -3.779297, 13.923404 ] } }
{"year": "AD600",  "type": "Feature", "tippecanoe": { "layer": "2AFC9FCCE0F01583915868196", "minzoom": 2, "maxzoom": 8 }, "properties": { "halo": 0.8, "title": "米拉格罗-克韦多文化", "fontsize": 12, "tyid": "304002", "oid": "103:1576922416969", "color": "#262626" }, "geometry": { "type": "Point", "coordinates": [ -79.804688, -2.108899 ] } }
{"year": "AD600",  "type": "Feature", "tippecanoe": { "layer": "2AFC9FCCE0F01583915868196", "minzoom": 2, "maxzoom": 8 }, "properties": { "halo": 0.8, "title": "基图文化", "fontsize": 12, "tyid": "304002", "oid": "103:1576922416934", "color": "#262626" }, "geometry": { "type": "Point", "coordinates": [ -78.222656, -0.966751 ] } }
{"year": "AD600",  "type": "Feature", "tippecanoe": { "layer": "2AFC9FCCE0F01583915868196", "minzoom": 2, "maxzoom": 8 }, "properties": { "halo": 0.8, "title": "阿塔卡马人", "fontsize": 12, "tyid": "304001", "oid": "103:1576922417074", "color": "#262626" }, "geometry": { "type": "Point", "coordinates": [ -69.082031, -25.085599 ] } }
{"year": "AD600",  "type": "Feature", "tippecanoe": { "layer": "2AFC9FCCE0F01583915868196", "minzoom": 2, "maxzoom": 8 }, "properties": { "halo": 0.8, "title": "昌戈人", "fontsize": 12, "tyid": "304001", "oid": "103:1576922417377", "color": "#262626" }, "geometry": { "type": "Point", "coordinates": [ -70.136719, -26.902477 ] } }
{"year": "AD600",  "type": "Feature", "tippecanoe": { "layer": "2AFC9FCCE0F01583915868196", "minzoom": 2, "maxzoom": 8 }, "properties": { "halo": 0.8, "title": "阿拉米托文化", "fontsize": 12, "tyid": "304002", "oid": "103:1576922417073", "color": "#262626" }, "geometry": { "type": "Point", "coordinates": [ -67.851562, -26.588527 ] } }
{"year": "AD600",  "type": "Feature", "tippecanoe": { "layer": "2AFC9FCCE0F01583915868196", "minzoom": 2, "maxzoom": 8 }, "properties": { "halo": 0.8, "title": "埃尔莫尔文化", "fontsize": 12, "tyid": "304002", "oid": "103:1576922417368", "color": "#262626" }, "geometry": { "type": "Point", "coordinates": [ -70.927734, -30.675715 ] } }
{"year": "AD600",  "type": "Feature", "tippecanoe": { "layer": "2AFC9FCCE0F01583915868196", "minzoom": 2, "maxzoom": 8 }, "properties": { "halo": 0.8, "title": "洛勒洛文化", "fontsize": 12, "tyid": "304002", "oid": "103:1576922417378", "color": "#262626" }, "geometry": { "type": "Point", "coordinates": [ -70.664062, -33.724340 ] } }
{"year": "AD600",  "type": "Feature", "tippecanoe": { "layer": "2AFC9FCCE0F01583915868196", "minzoom": 2, "maxzoom": 8 }, "properties": { "halo": 0.8, "title": "马普切人", "fontsize": 12, "tyid": "304001", "oid": "103:1576922417333", "color": "#262626" }, "geometry": { "type": "Point", "coordinates": [ -71.455078, -38.959409 ] } }
{"year": "AD600",  "type": "Feature", "tippecanoe": { "layer": "2AFC9FCCE0F01583915868196", "minzoom": 2, "maxzoom": 8 }, "properties": { "halo": 0.8, "title": "希德拉里卡文化", "fontsize": 12, "tyid": "304002", "oid": "103:1576922417242", "color": "#262626" }, "geometry": { "type": "Point", "coordinates": [ -66.005859, -12.297068 ] } }
{"year": "AD600",  "type": "Feature", "tippecanoe": { "layer": "2AFC9FCCE0F01583915868196", "minzoom": 2, "maxzoom": 8 }, "properties": { "halo": 0.8, "title": "摩克索人", "fontsize": 12, "tyid": "304001", "oid": "103:1576922417467", "color": "#262626" }, "geometry": { "type": "Point", "coordinates": [ -65.830078, -13.923404 ] } }
{"year": "AD600",  "type": "Feature", "tippecanoe": { "layer": "2AFC9FCCE0F01583915868196", "minzoom": 2, "maxzoom": 8 }, "properties": { "halo": 0.8, "title": "马拉约文化", "fontsize": 12, "tyid": "304002", "oid": "103:1576922417280", "color": "#262626" }, "geometry": { "type": "Point", "coordinates": [ -50.712891, -2.723583 ] } }
{"year": "AD600",  "type": "Feature", "tippecanoe": { "layer": "2AFC9FCCE0F01583915868196", "minzoom": 2, "maxzoom": 8 }, "properties": { "halo": 0.8, "title": "沙内斯人", "fontsize": 12, "tyid": "304001", "oid": "103:1576922417153", "color": "#262626" }, "geometry": { "type": "Point", "coordinates": [ -65.917969, -22.105999 ] } }
{"year": "AD600",  "type": "Feature", "tippecanoe": { "layer": "2AFC9FCCE0F01583915868196", "minzoom": 2, "maxzoom": 8 }, "properties": { "halo": 0.8, "title": "拉坎德拉里亚文化", "fontsize": 12, "tyid": "304002", "oid": "103:1576922417054", "color": "#262626" }, "geometry": { "type": "Point", "coordinates": [ -65.390625, -25.720735 ] } }
{"year": "AD600",  "type": "Feature", "tippecanoe": { "layer": "2AFC9FCCE0F01583915868196", "minzoom": 2, "maxzoom": 8 }, "properties": { "halo": 0.8, "title": "康多拉瓦西文化", "fontsize": 12, "tyid": "304002", "oid": "103:1576922417479", "color": "#262626" }, "geometry": { "type": "Point", "coordinates": [ -66.708984, -27.293689 ] } }
{"year": "AD600",  "type": "Feature", "tippecanoe": { "layer": "2AFC9FCCE0F01583915868196", "minzoom": 2, "maxzoom": 8 }, "properties": { "halo": 0.8, "title": "拉加瓜文化", "fontsize": 12, "tyid": "304002", "oid": "103:1576922417171", "color": "#262626" }, "geometry": { "type": "Point", "coordinates": [ -66.796875, -29.458731 ] } }
{"year": "AD600",  "type": "Feature", "tippecanoe": { "layer": "2AFC9FCCE0F01583915868196", "minzoom": 2, "maxzoom": 8 }, "properties": { "halo": 0.8, "title": "拉斯梅塞德斯文化", "fontsize": 12, "tyid": "304002", "oid": "103:1576922417185", "color": "#262626" }, "geometry": { "type": "Point", "coordinates": [ -63.808594, -27.605671 ] } }
{"year": "AD600",  "type": "Feature", "tippecanoe": { "layer": "2AFC9FCCE0F01583915868196", "minzoom": 2, "maxzoom": 8 }, "properties": { "halo": 0.8, "title": "特胡尔切人", "fontsize": 12, "tyid": "304001", "oid": "103:1576922417149", "color": "#262626" }, "geometry": { "type": "Point", "coordinates": [ -70.751953, -50.176898 ] } }
{"year": "AD600",  "type": "Feature", "tippecanoe": { "layer": "2AFC9FCCE0F01583915868196", "minzoom": 2, "maxzoom": 8 }, "properties": { "halo": 0.8, "title": "塞尔克南人", "fontsize": 12, "tyid": "304001", "oid": "103:1576922417033", "color": "#262626" }, "geometry": { "type": "Point", "coordinates": [ -68.378906, -53.696706 ] } }
{"year": "AD600",  "type": "Feature", "tippecanoe": { "layer": "2AFC9FCCE0F01583915868196", "minzoom": 2, "maxzoom": 8 }, "properties": { "halo": 0.8, "title": "雅干人", "fontsize": 12, "tyid": "304001", "oid": "103:1576922417365", "color": "#262626" }, "geometry": { "type": "Point", "coordinates": [ -68.554688, -54.521081 ] } }
{"year": "AD600",  "type": "Feature", "tippecanoe": { "layer": "2AFC9FCCE0F01583915868196", "minzoom": 2, "maxzoom": 8 }, "properties": { "halo": 0.8, "title": "朱特人", "fontsize": 12, "tyid": "304001", "oid": "103:1576922417041", "color": "#262626" }, "geometry": { "type": "Point", "coordinates": [ 9.316406, 56.267761 ] } }
{"year": "AD600",  "type": "Feature", "tippecanoe": { "layer": "2AFC9FCCE0F01583915868196", "minzoom": 2, "maxzoom": 8 }, "properties": { "halo": 0.8, "title": "耶阿特人", "fontsize": 12, "tyid": "304001", "oid": "103:1576922416946", "color": "#262626" }, "geometry": { "type": "Point", "coordinates": [ 13.710938, 57.657158 ] } }
{"year": "AD600",  "type": "Feature", "tippecanoe": { "layer": "2AFC9FCCE0F01583915868196", "minzoom": 2, "maxzoom": 8 }, "properties": { "halo": 0.8, "title": "丹麦人", "fontsize": 12, "tyid": "304001", "oid": "103:1576922417331", "color": "#262626" }, "geometry": { "type": "Point", "coordinates": [ 13.447266, 55.875311 ] } }
{"year": "AD600",  "type": "Feature", "tippecanoe": { "layer": "2AFC9FCCE0F01583915868196", "minzoom": 2, "maxzoom": 8 }, "properties": { "halo": 0.8, "title": "库洛尼亚人", "fontsize": 12, "tyid": "304001", "oid": "103:1576922417046", "color": "#262626" }, "geometry": { "type": "Point", "coordinates": [ 21.972656, 56.607885 ] } }
{"year": "AD600",  "type": "Feature", "tippecanoe": { "layer": "2AFC9FCCE0F01583915868196", "minzoom": 2, "maxzoom": 8 }, "properties": { "halo": 0.8, "title": "萨克森人", "fontsize": 12, "tyid": "304001", "oid": "103:1535120127574", "color": "#262626" }, "geometry": { "type": "Point", "coordinates": [ 8.789062, 52.749594 ] } }
{"year": "AD600",  "type": "Feature", "tippecanoe": { "layer": "2AFC9FCCE0F01583915868196", "minzoom": 2, "maxzoom": 8 }, "properties": { "halo": 0.8, "title": "图林根人", "fontsize": 12, "tyid": "304001", "oid": "103:1576922416897", "color": "#262626" }, "geometry": { "type": "Point", "coordinates": [ 10.546875, 52.106505 ] } }
{"year": "AD600",  "type": "Feature", "tippecanoe": { "layer": "2AFC9FCCE0F01583915868196", "minzoom": 2, "maxzoom": 8 }, "properties": { "halo": 0.8, "title": "欧波里特人", "fontsize": 12, "tyid": "304001", "oid": "103:1576922417110", "color": "#262626" }, "geometry": { "type": "Point", "coordinates": [ 11.689453, 53.748711 ] } }
{"year": "AD600",  "type": "Feature", "tippecanoe": { "layer": "2AFC9FCCE0F01583915868196", "minzoom": 2, "maxzoom": 8 }, "properties": { "halo": 0.8, "title": "维莱蒂人", "fontsize": 12, "tyid": "304001", "oid": "103:1576922416904", "color": "#262626" }, "geometry": { "type": "Point", "coordinates": [ 13.095703, 52.589701 ] } }
{"year": "AD600",  "type": "Feature", "tippecanoe": { "layer": "2AFC9FCCE0F01583915868196", "minzoom": 2, "maxzoom": 8 }, "properties": { "halo": 0.8, "title": "波美拉尼亚人", "fontsize": 12, "tyid": "304001", "oid": "103:1576922417158", "color": "#262626" }, "geometry": { "type": "Point", "coordinates": [ 16.611328, 53.748711 ] } }
{"year": "AD600",  "type": "Feature", "tippecanoe": { "layer": "2AFC9FCCE0F01583915868196", "minzoom": 2, "maxzoom": 8 }, "properties": { "halo": 0.8, "title": "白塞尔维亚人", "fontsize": 12, "tyid": "304001", "oid": "103:1576922417408", "color": "#262626" }, "geometry": { "type": "Point", "coordinates": [ 14.677734, 51.454007 ] } }
{"year": "AD600",  "type": "Feature", "tippecanoe": { "layer": "2AFC9FCCE0F01583915868196", "minzoom": 2, "maxzoom": 8 }, "properties": { "halo": 0.8, "title": "波西米亚人", "fontsize": 12, "tyid": "304001", "oid": "103:1576922416901", "color": "#262626" }, "geometry": { "type": "Point", "coordinates": [ 14.414062, 49.894634 ] } }
{"year": "AD600",  "type": "Feature", "tippecanoe": { "layer": "2AFC9FCCE0F01583915868196", "minzoom": 2, "maxzoom": 8 }, "properties": { "halo": 0.8, "title": "西里西亚人", "fontsize": 12, "tyid": "304001", "oid": "103:1576922417453", "color": "#262626" }, "geometry": { "type": "Point", "coordinates": [ 16.787109, 50.736455 ] } }
{"year": "AD600",  "type": "Feature", "tippecanoe": { "layer": "2AFC9FCCE0F01583915868196", "minzoom": 2, "maxzoom": 8 }, "properties": { "halo": 0.8, "title": "古普鲁士人", "fontsize": 12, "tyid": "304001", "oid": "103:1576922417172", "color": "#262626" }, "geometry": { "type": "Point", "coordinates": [ 20.478516, 54.162434 ] } }
{"year": "AD600",  "type": "Feature", "tippecanoe": { "layer": "2AFC9FCCE0F01583915868196", "minzoom": 2, "maxzoom": 8 }, "properties": { "halo": 0.8, "title": "西波里安人", "fontsize": 12, "tyid": "304001", "oid": "103:1576922417457", "color": "#262626" }, "geometry": { "type": "Point", "coordinates": [ 17.138672, 52.052490 ] } }
{"year": "AD600",  "type": "Feature", "tippecanoe": { "layer": "2AFC9FCCE0F01583915868196", "minzoom": 2, "maxzoom": 8 }, "properties": { "halo": 0.8, "title": "摩拉维亚人", "fontsize": 12, "tyid": "304001", "oid": "103:1576922416906", "color": "#262626" }, "geometry": { "type": "Point", "coordinates": [ 16.875000, 49.152970 ] } }
{"year": "AD600",  "type": "Feature", "tippecanoe": { "layer": "2AFC9FCCE0F01583915868196", "minzoom": 2, "maxzoom": 8 }, "properties": { "halo": 0.8, "title": "马索维亚人", "fontsize": 12, "tyid": "304001", "oid": "103:1576922417338", "color": "#262626" }, "geometry": { "type": "Point", "coordinates": [ 20.039062, 52.321911 ] } }
{"year": "AD600",  "type": "Feature", "tippecanoe": { "layer": "2AFC9FCCE0F01583915868196", "minzoom": 2, "maxzoom": 8 }, "properties": { "halo": 0.8, "title": "维斯图兰人", "fontsize": 12, "tyid": "304001", "oid": "103:1576922417085", "color": "#262626" }, "geometry": { "type": "Point", "coordinates": [ 20.742188, 50.401515 ] } }
{"year": "AD600",  "type": "Feature", "tippecanoe": { "layer": "2AFC9FCCE0F01583915868196", "minzoom": 2, "maxzoom": 8 }, "properties": { "halo": 0.8, "title": "巴伐利亚公国", "fontsize": 12, "tyid": "304000", "oid": "103:1576922416902", "color": "#202020" }, "geometry": { "type": "Point", "coordinates": [ 13.359375, 47.872144 ] } }
{"year": "AD600",  "type": "Feature", "tippecanoe": { "layer": "2AFC9FCCE0F01583915868196", "minzoom": 2, "maxzoom": 8 }, "properties": { "halo": 0.8, "title": "古爱沙尼亚人", "fontsize": 12, "tyid": "304001", "oid": "103:1576922417010", "color": "#262626" }, "geometry": { "type": "Point", "coordinates": [ 25.576172, 58.995311 ] } }
{"year": "AD600",  "type": "Feature", "tippecanoe": { "layer": "2AFC9FCCE0F01583915868196", "minzoom": 2, "maxzoom": 8 }, "properties": { "halo": 0.8, "title": "利沃尼亚人", "fontsize": 12, "tyid": "304001", "oid": "103:1576922417051", "color": "#262626" }, "geometry": { "type": "Point", "coordinates": [ 26.191406, 58.077876 ] } }
{"year": "AD600",  "type": "Feature", "tippecanoe": { "layer": "2AFC9FCCE0F01583915868196", "minzoom": 2, "maxzoom": 8 }, "properties": { "halo": 0.8, "title": "拉特加莱人", "fontsize": 12, "tyid": "304001", "oid": "103:1576922417144", "color": "#262626" }, "geometry": { "type": "Point", "coordinates": [ 26.542969, 56.944974 ] } }
{"year": "AD600",  "type": "Feature", "tippecanoe": { "layer": "2AFC9FCCE0F01583915868196", "minzoom": 2, "maxzoom": 8 }, "properties": { "halo": 0.8, "title": "沃茨人", "fontsize": 12, "tyid": "304001", "oid": "103:1576922417256", "color": "#262626" }, "geometry": { "type": "Point", "coordinates": [ 29.794922, 59.040555 ] } }
{"year": "AD600",  "type": "Feature", "tippecanoe": { "layer": "2AFC9FCCE0F01583915868196", "minzoom": 2, "maxzoom": 8 }, "properties": { "halo": 0.8, "title": "克里维奇人", "fontsize": 12, "tyid": "304001", "oid": "103:1576922416960", "color": "#262626" }, "geometry": { "type": "Point", "coordinates": [ 31.201172, 56.944974 ] } }
{"year": "AD600",  "type": "Feature", "tippecanoe": { "layer": "2AFC9FCCE0F01583915868196", "minzoom": 2, "maxzoom": 8 }, "properties": { "halo": 0.8, "title": "莫拉玛人", "fontsize": 12, "tyid": "304001", "oid": "103:1576922417105", "color": "#262626" }, "geometry": { "type": "Point", "coordinates": [ 42.187500, 55.875311 ] } }
{"year": "AD600",  "type": "Feature", "tippecanoe": { "layer": "2AFC9FCCE0F01583915868196", "minzoom": 2, "maxzoom": 8 }, "properties": { "halo": 0.8, "title": "萨莫吉希亚人", "fontsize": 12, "tyid": "304001", "oid": "103:1576922417045", "color": "#262626" }, "geometry": { "type": "Point", "coordinates": [ 23.203125, 55.578345 ] } }
{"year": "AD600",  "type": "Feature", "tippecanoe": { "layer": "2AFC9FCCE0F01583915868196", "minzoom": 2, "maxzoom": 8 }, "properties": { "halo": 0.8, "title": "古立陶宛人", "fontsize": 12, "tyid": "304001", "oid": "103:1576922417394", "color": "#262626" }, "geometry": { "type": "Point", "coordinates": [ 25.224609, 54.265224 ] } }
{"year": "AD600",  "type": "Feature", "tippecanoe": { "layer": "2AFC9FCCE0F01583915868196", "minzoom": 2, "maxzoom": 8 }, "properties": { "halo": 0.8, "title": "约特文基人", "fontsize": 12, "tyid": "304001", "oid": "103:1576922417401", "color": "#262626" }, "geometry": { "type": "Point", "coordinates": [ 23.027344, 53.956086 ] } }
{"year": "AD600",  "type": "Feature", "tippecanoe": { "layer": "2AFC9FCCE0F01583915868196", "minzoom": 2, "maxzoom": 8 }, "properties": { "halo": 0.8, "title": "奥克施泰提亚人", "fontsize": 12, "tyid": "304001", "oid": "103:1576922416943", "color": "#262626" }, "geometry": { "type": "Point", "coordinates": [ 27.070312, 55.078367 ] } }
{"year": "AD600",  "type": "Feature", "tippecanoe": { "layer": "2AFC9FCCE0F01583915868196", "minzoom": 2, "maxzoom": 8 }, "properties": { "halo": 0.8, "title": "斯拉夫人", "fontsize": 12, "tyid": "304001", "oid": "103:1535120127645", "color": "#262626" }, "geometry": { "type": "Point", "coordinates": [ 27.509766, 53.067627 ] } }
{"year": "AD600",  "type": "Feature", "tippecanoe": { "layer": "2AFC9FCCE0F01583915868196", "minzoom": 2, "maxzoom": 8 }, "properties": { "halo": 0.8, "title": "伦代斯人", "fontsize": 12, "tyid": "304001", "oid": "103:1576922417118", "color": "#262626" }, "geometry": { "type": "Point", "coordinates": [ 23.027344, 51.289406 ] } }
{"year": "AD600",  "type": "Feature", "tippecanoe": { "layer": "2AFC9FCCE0F01583915868196", "minzoom": 2, "maxzoom": 8 }, "properties": { "halo": 0.8, "title": "沃里尼亚人", "fontsize": 12, "tyid": "304001", "oid": "103:1576922417103", "color": "#262626" }, "geometry": { "type": "Point", "coordinates": [ 25.488281, 51.289406 ] } }
{"year": "AD600",  "type": "Feature", "tippecanoe": { "layer": "2AFC9FCCE0F01583915868196", "minzoom": 2, "maxzoom": 8 }, "properties": { "halo": 0.8, "title": "第聂伯河波罗的人", "fontsize": 12, "tyid": "304001", "oid": "103:1576922417142", "color": "#262626" }, "geometry": { "type": "Point", "coordinates": [ 30.498047, 54.927142 ] } }
{"year": "AD600",  "type": "Feature", "tippecanoe": { "layer": "2AFC9FCCE0F01583915868196", "minzoom": 2, "maxzoom": 8 }, "properties": { "halo": 0.8, "title": "拉迪米奇人", "fontsize": 12, "tyid": "304001", "oid": "103:1576922417174", "color": "#262626" }, "geometry": { "type": "Point", "coordinates": [ 32.255859, 52.802761 ] } }
{"year": "AD600",  "type": "Feature", "tippecanoe": { "layer": "2AFC9FCCE0F01583915868196", "minzoom": 2, "maxzoom": 8 }, "properties": { "halo": 0.8, "title": "德列夫利安人", "fontsize": 12, "tyid": "304001", "oid": "103:1576922417139", "color": "#262626" }, "geometry": { "type": "Point", "coordinates": [ 28.300781, 51.289406 ] } }
{"year": "AD600",  "type": "Feature", "tippecanoe": { "layer": "2AFC9FCCE0F01583915868196", "minzoom": 2, "maxzoom": 8 }, "properties": { "halo": 0.8, "title": "东波里安人", "fontsize": 12, "tyid": "304001", "oid": "103:1576922417077", "color": "#262626" }, "geometry": { "type": "Point", "coordinates": [ 31.376953, 50.345460 ] } }
{"year": "AD600",  "type": "Feature", "tippecanoe": { "layer": "2AFC9FCCE0F01583915868196", "minzoom": 2, "maxzoom": 8 }, "properties": { "halo": 0.8, "title": "东加林迪亚人", "fontsize": 12, "tyid": "304001", "oid": "103:1576922417116", "color": "#262626" }, "geometry": { "type": "Point", "coordinates": [ 33.837891, 55.028022 ] } }
{"year": "AD600",  "type": "Feature", "tippecanoe": { "layer": "2AFC9FCCE0F01583915868196", "minzoom": 2, "maxzoom": 8 }, "properties": { "halo": 0.8, "title": "米舒拉人", "fontsize": 12, "tyid": "304001", "oid": "103:1576922417375", "color": "#262626" }, "geometry": { "type": "Point", "coordinates": [ 38.583984, 54.724620 ] } }
{"year": "AD600",  "type": "Feature", "tippecanoe": { "layer": "2AFC9FCCE0F01583915868196", "minzoom": 2, "maxzoom": 8 }, "properties": { "halo": 0.8, "title": "欧诺古尔人", "fontsize": 12, "tyid": "304001", "oid": "103:1576922417393", "color": "#262626" }, "geometry": { "type": "Point", "coordinates": [ 38.583984, 51.289406 ] } }
{"year": "AD600",  "type": "Feature", "tippecanoe": { "layer": "2AFC9FCCE0F01583915868196", "minzoom": 2, "maxzoom": 8 }, "properties": { "halo": 0.8, "title": "莫尔多维亚人", "fontsize": 12, "tyid": "304001", "oid": "103:1576922417220", "color": "#262626" }, "geometry": { "type": "Point", "coordinates": [ 44.296875, 54.927142 ] } }
{"year": "AD600",  "type": "Feature", "tippecanoe": { "layer": "2AFC9FCCE0F01583915868196", "minzoom": 2, "maxzoom": 8 }, "properties": { "halo": 0.8, "title": "克里米亚哥特人", "fontsize": 12, "tyid": "304001", "oid": "103:1576922417107", "color": "#262626" }, "geometry": { "type": "Point", "coordinates": [ 34.189453, 46.073231 ] } }
{"year": "AD600",  "type": "Feature", "tippecanoe": { "layer": "2AFC9FCCE0F01583915868196", "minzoom": 2, "maxzoom": 8 }, "properties": { "halo": 0.8, "title": "库特里格斯人", "fontsize": 12, "tyid": "304001", "oid": "103:1576922417219", "color": "#262626" }, "geometry": { "type": "Point", "coordinates": [ 39.111328, 48.341646 ] } }
{"year": "AD600",  "type": "Feature", "tippecanoe": { "layer": "2AFC9FCCE0F01583915868196", "minzoom": 2, "maxzoom": 8 }, "properties": { "halo": 0.8, "title": "乌提格尔人", "fontsize": 12, "tyid": "304001", "oid": "103:1576922417127", "color": "#262626" }, "geometry": { "type": "Point", "coordinates": [ 41.572266, 46.619261 ] } }
{"year": "AD600",  "type": "Feature", "tippecanoe": { "layer": "2AFC9FCCE0F01583915868196", "minzoom": 2, "maxzoom": 8 }, "properties": { "halo": 0.8, "title": "切尔克斯人", "fontsize": 12, "tyid": "304001", "oid": "103:1576922416937", "color": "#262626" }, "geometry": { "type": "Point", "coordinates": [ 40.781250, 44.276671 ] } }
{"year": "AD600",  "type": "Feature", "tippecanoe": { "layer": "2AFC9FCCE0F01583915868196", "minzoom": 2, "maxzoom": 8 }, "properties": { "halo": 0.8, "title": "萨拉格尔人", "fontsize": 12, "tyid": "304001", "oid": "103:1576922417126", "color": "#262626" }, "geometry": { "type": "Point", "coordinates": [ 44.912109, 44.590467 ] } }
{"year": "AD600",  "type": "Feature", "tippecanoe": { "layer": "2AFC9FCCE0F01583915868196", "minzoom": 2, "maxzoom": 8 }, "properties": { "halo": 0.8, "title": "阿兰人", "fontsize": 12, "tyid": "304001", "oid": "103:1576922417402", "color": "#262626" }, "geometry": { "type": "Point", "coordinates": [ 44.824219, 43.133061 ] } }
{"year": "AD600",  "type": "Feature", "tippecanoe": { "layer": "2AFC9FCCE0F01583915868196", "minzoom": 2, "maxzoom": 8 }, "properties": { "halo": 0.8, "title": "拉基卡王国", "fontsize": 12, "tyid": "304000", "oid": "103:1576922417608", "color": "#202020" }, "geometry": { "type": "Point", "coordinates": [ 42.275391, 42.553080 ] } }
{"year": "AD600",  "type": "Feature", "tippecanoe": { "layer": "2AFC9FCCE0F01583915868196", "minzoom": 2, "maxzoom": 8 }, "properties": { "halo": 0.8, "title": "奥赛尼斯王国", "fontsize": 12, "tyid": "304000", "oid": "103:1576922417240", "color": "#202020" }, "geometry": { "type": "Point", "coordinates": [ 1.406250, 35.603719 ] } }
{"year": "AD600",  "type": "Feature", "tippecanoe": { "layer": "2AFC9FCCE0F01583915868196", "minzoom": 2, "maxzoom": 8 }, "properties": { "halo": 0.8, "title": "盖图里人", "fontsize": 12, "tyid": "304001", "oid": "103:1576922417276", "color": "#262626" }, "geometry": { "type": "Point", "coordinates": [ 3.427734, 33.870416 ] } }
{"year": "AD600",  "type": "Feature", "tippecanoe": { "layer": "2AFC9FCCE0F01583915868196", "minzoom": 2, "maxzoom": 8 }, "properties": { "halo": 0.8, "title": "奥拉王国", "fontsize": 12, "tyid": "304000", "oid": "103:1576922417321", "color": "#202020" }, "geometry": { "type": "Point", "coordinates": [ 6.240234, 34.957995 ] } }
{"year": "AD600",  "type": "Feature", "tippecanoe": { "layer": "2AFC9FCCE0F01583915868196", "minzoom": 2, "maxzoom": 8 }, "properties": { "halo": 0.8, "title": "加拉曼特王国", "fontsize": 12, "tyid": "304000", "oid": "103:1576922417023", "color": "#202020" }, "geometry": { "type": "Point", "coordinates": [ 13.886719, 26.902477 ] } }
{"year": "AD600",  "type": "Feature", "tippecanoe": { "layer": "2AFC9FCCE0F01583915868196", "minzoom": 2, "maxzoom": 8 }, "properties": { "halo": 0.8, "title": "拉古阿坦部落联盟", "fontsize": 12, "tyid": "304001", "oid": "103:1576922417610", "color": "#262626" }, "geometry": { "type": "Point", "coordinates": [ 20.566406, 31.503629 ] } }
{"year": "AD600",  "type": "Feature", "tippecanoe": { "layer": "2AFC9FCCE0F01583915868196", "minzoom": 2, "maxzoom": 8 }, "properties": { "halo": 0.8, "title": "布拉-阿辛达-西卡文化", "fontsize": 12, "tyid": "304002", "oid": "103:1576922417191", "color": "#262626" }, "geometry": { "type": "Point", "coordinates": [ 1.757812, 12.983148 ] } }
{"year": "AD600",  "type": "Feature", "tippecanoe": { "layer": "2AFC9FCCE0F01583915868196", "minzoom": 2, "maxzoom": 8 }, "properties": { "halo": 0.8, "title": "约鲁巴人", "fontsize": 12, "tyid": "304001", "oid": "103:1576922417211", "color": "#262626" }, "geometry": { "type": "Point", "coordinates": [ 3.779297, 7.885147 ] } }
{"year": "AD600",  "type": "Feature", "tippecanoe": { "layer": "2AFC9FCCE0F01583915868196", "minzoom": 2, "maxzoom": 8 }, "properties": { "halo": 0.8, "title": "伊博人", "fontsize": 12, "tyid": "304001", "oid": "103:1576922417221", "color": "#262626" }, "geometry": { "type": "Point", "coordinates": [ 9.492188, 5.878332 ] } }
{"year": "AD600",  "type": "Feature", "tippecanoe": { "layer": "2AFC9FCCE0F01583915868196", "minzoom": 2, "maxzoom": 8 }, "properties": { "halo": 0.8, "title": "奥邦奥孔伊塔王国", "fontsize": 12, "tyid": "304000", "oid": "103:1576922417257", "color": "#202020" }, "geometry": { "type": "Point", "coordinates": [ 7.558594, 5.441022 ] } }
{"year": "AD600",  "type": "Feature", "tippecanoe": { "layer": "2AFC9FCCE0F01583915868196", "minzoom": 2, "maxzoom": 8 }, "properties": { "halo": 0.8, "title": "努贝舍王国", "fontsize": 12, "tyid": "304000", "oid": "103:1535120127582", "color": "#202020" }, "geometry": { "type": "Point", "coordinates": [ 31.816406, 22.024546 ] } }
{"year": "AD600",  "type": "Feature", "tippecanoe": { "layer": "2AFC9FCCE0F01583915868196", "minzoom": 2, "maxzoom": 8 }, "properties": { "halo": 0.8, "title": "萨珊亚美尼亚", "fontsize": 12, "tyid": "304000", "oid": "103:1576922417491", "color": "#202020" }, "geometry": { "type": "Point", "coordinates": [ 44.560547, 39.027719 ] } }
{"year": "AD600",  "type": "Feature", "tippecanoe": { "layer": "2AFC9FCCE0F01583915868196", "minzoom": 2, "maxzoom": 8 }, "properties": { "halo": 0.8, "title": "拉赫姆王国", "fontsize": 12, "tyid": "304000", "oid": "103:1535120127569", "color": "#202020" }, "geometry": { "type": "Point", "coordinates": [ 42.451172, 32.472695 ] } }
{"year": "AD600",  "type": "Feature", "tippecanoe": { "layer": "2AFC9FCCE0F01583915868196", "minzoom": 2, "maxzoom": 8 }, "properties": { "halo": 0.8, "title": "赛莫德人", "fontsize": 12, "tyid": "304001", "oid": "103:1576922417022", "color": "#262626" }, "geometry": { "type": "Point", "coordinates": [ 37.617188, 26.902477 ] } }
{"year": "AD600",  "type": "Feature", "tippecanoe": { "layer": "2AFC9FCCE0F01583915868196", "minzoom": 2, "maxzoom": 8 }, "properties": { "halo": 0.8, "title": "瓦努席法尔", "fontsize": 12, "tyid": "304001", "oid": "103:1576922417230", "color": "#262626" }, "geometry": { "type": "Point", "coordinates": [ 39.111328, 24.686952 ] } }
{"year": "AD600",  "type": "Feature", "tippecanoe": { "layer": "2AFC9FCCE0F01583915868196", "minzoom": 2, "maxzoom": 8 }, "properties": { "halo": 0.8, "title": "赫多凡部落", "fontsize": 12, "tyid": "304001", "oid": "103:1576922417021", "color": "#262626" }, "geometry": { "type": "Point", "coordinates": [ 41.396484, 26.509905 ] } }
{"year": "AD600",  "type": "Feature", "tippecanoe": { "layer": "2AFC9FCCE0F01583915868196", "minzoom": 2, "maxzoom": 8 }, "properties": { "halo": 0.8, "title": "瓦努哈瓦兹", "fontsize": 12, "tyid": "304001", "oid": "103:1576922417026", "color": "#262626" }, "geometry": { "type": "Point", "coordinates": [ 40.781250, 23.322080 ] } }
{"year": "AD600",  "type": "Feature", "tippecanoe": { "layer": "2AFC9FCCE0F01583915868196", "minzoom": 2, "maxzoom": 8 }, "properties": { "halo": 0.8, "title": "富尔人", "fontsize": 12, "tyid": "304001", "oid": "103:1576922417277", "color": "#262626" }, "geometry": { "type": "Point", "coordinates": [ 26.015625, 14.519780 ] } }
{"year": "AD600",  "type": "Feature", "tippecanoe": { "layer": "2AFC9FCCE0F01583915868196", "minzoom": 2, "maxzoom": 8 }, "properties": { "halo": 0.8, "title": "马库里亚王国", "fontsize": 12, "tyid": "304000", "oid": "103:1535120127585", "color": "#202020" }, "geometry": { "type": "Point", "coordinates": [ 32.255859, 19.145168 ] } }
{"year": "AD600",  "type": "Feature", "tippecanoe": { "layer": "2AFC9FCCE0F01583915868196", "minzoom": 2, "maxzoom": 8 }, "properties": { "halo": 0.8, "title": "贝扎人", "fontsize": 12, "tyid": "304001", "oid": "103:1576922417017", "color": "#262626" }, "geometry": { "type": "Point", "coordinates": [ 35.419922, 21.371244 ] } }
{"year": "AD600",  "type": "Feature", "tippecanoe": { "layer": "2AFC9FCCE0F01583915868196", "minzoom": 2, "maxzoom": 8 }, "properties": { "halo": 0.8, "title": "马里人", "fontsize": 12, "tyid": "304001", "oid": "103:1576922417123", "color": "#262626" }, "geometry": { "type": "Point", "coordinates": [ 46.845703, 57.326521 ] } }
{"year": "AD600",  "type": "Feature", "tippecanoe": { "layer": "2AFC9FCCE0F01583915868196", "minzoom": 2, "maxzoom": 8 }, "properties": { "halo": 0.8, "title": "伊曼科夫文化", "fontsize": 12, "tyid": "304002", "oid": "103:1576922417154", "color": "#262626" }, "geometry": { "type": "Point", "coordinates": [ 47.548828, 54.977614 ] } }
{"year": "AD600",  "type": "Feature", "tippecanoe": { "layer": "2AFC9FCCE0F01583915868196", "minzoom": 2, "maxzoom": 8 }, "properties": { "halo": 0.8, "title": "布尔塔斯人", "fontsize": 12, "tyid": "304001", "oid": "103:1576922417150", "color": "#262626" }, "geometry": { "type": "Point", "coordinates": [ 48.955078, 53.173119 ] } }
{"year": "AD600",  "type": "Feature", "tippecanoe": { "layer": "2AFC9FCCE0F01583915868196", "minzoom": 2, "maxzoom": 8 }, "properties": { "halo": 0.8, "title": "库什纳伦科沃文化", "fontsize": 12, "tyid": "304002", "oid": "103:1576922417159", "color": "#262626" }, "geometry": { "type": "Point", "coordinates": [ 54.140625, 54.977614 ] } }
{"year": "AD600",  "type": "Feature", "tippecanoe": { "layer": "2AFC9FCCE0F01583915868196", "minzoom": 2, "maxzoom": 8 }, "properties": { "halo": 0.8, "title": "乌古尔人", "fontsize": 12, "tyid": "304001", "oid": "103:1576922417145", "color": "#262626" }, "geometry": { "type": "Point", "coordinates": [ 46.054688, 46.679594 ] } }
{"year": "AD600",  "type": "Feature", "tippecanoe": { "layer": "2AFC9FCCE0F01583915868196", "minzoom": 2, "maxzoom": 8 }, "properties": { "halo": 0.8, "title": "萨里尔王国", "fontsize": 12, "tyid": "304000", "oid": "103:1576922416928", "color": "#202020" }, "geometry": { "type": "Point", "coordinates": [ 47.109375, 42.228517 ] } }
{"year": "AD600",  "type": "Feature", "tippecanoe": { "layer": "2AFC9FCCE0F01583915868196", "minzoom": 2, "maxzoom": 8 }, "properties": { "halo": 0.8, "title": "图巴斯利文化", "fontsize": 12, "tyid": "304001", "oid": "103:1576922417111", "color": "#262626" }, "geometry": { "type": "Point", "coordinates": [ 57.128906, 55.677584 ] } }
{"year": "AD600",  "type": "Feature", "tippecanoe": { "layer": "2AFC9FCCE0F01583915868196", "minzoom": 2, "maxzoom": 8 }, "properties": { "halo": 0.8, "title": "阿夫里格王朝", "fontsize": 12, "tyid": "304000", "oid": "103:1576922417521", "color": "#202020" }, "geometry": { "type": "Point", "coordinates": [ 60.029297, 42.617791 ] } }
{"year": "AD600",  "type": "Feature", "tippecanoe": { "layer": "2AFC9FCCE0F01583915868196", "minzoom": 2, "maxzoom": 8 }, "properties": { "halo": 0.8, "title": "焉耆国", "fontsize": 12, "tyid": "304000", "oid": "103:1576922417489", "color": "#202020" }, "geometry": { "type": "Point", "coordinates": [ 86.308594, 41.836828 ] } }
{"year": "AD600",  "type": "Feature", "tippecanoe": { "layer": "2AFC9FCCE0F01583915868196", "minzoom": 2, "maxzoom": 8 }, "properties": { "halo": 0.8, "title": "麴氏高昌国", "fontsize": 12, "tyid": "304000", "oid": "103:1576922417535", "color": "#202020" }, "geometry": { "type": "Point", "coordinates": [ 89.648438, 42.747012 ] } }
{"year": "AD600",  "type": "Feature", "tippecanoe": { "layer": "2AFC9FCCE0F01583915868196", "minzoom": 2, "maxzoom": 8 }, "properties": { "halo": 0.8, "title": "高加索阿尔巴尼亚王国", "fontsize": 12, "tyid": "304000", "oid": "103:1576922417492", "color": "#202020" }, "geometry": { "type": "Point", "coordinates": [ 46.757812, 40.713956 ] } }
{"year": "AD600",  "type": "Feature", "tippecanoe": { "layer": "2AFC9FCCE0F01583915868196", "minzoom": 2, "maxzoom": 8 }, "properties": { "halo": 0.8, "title": "梵衍那国", "fontsize": 12, "tyid": "304000", "oid": "103:1576922416983", "color": "#202020" }, "geometry": { "type": "Point", "coordinates": [ 67.324219, 34.741612 ] } }
{"year": "AD600",  "type": "Feature", "tippecanoe": { "layer": "2AFC9FCCE0F01583915868196", "minzoom": 2, "maxzoom": 8 }, "properties": { "halo": 0.8, "title": "阿兹达巴部落", "fontsize": 12, "tyid": "304001", "oid": "103:1576922417530", "color": "#262626" }, "geometry": { "type": "Point", "coordinates": [ 58.798828, 22.268764 ] } }
{"year": "AD600",  "type": "Feature", "tippecanoe": { "layer": "2AFC9FCCE0F01583915868196", "minzoom": 2, "maxzoom": 8 }, "properties": { "halo": 0.8, "title": "狼揭罗国", "fontsize": 12, "tyid": "304000", "oid": "103:1576922417585", "color": "#202020" }, "geometry": { "type": "Point", "coordinates": [ 64.335938, 27.605671 ] } }
{"year": "AD600",  "type": "Feature", "tippecanoe": { "layer": "2AFC9FCCE0F01583915868196", "minzoom": 2, "maxzoom": 8 }, "properties": { "halo": 0.8, "title": "拔汗那国", "fontsize": 12, "tyid": "304000", "oid": "103:1576922417597", "color": "#202020" }, "geometry": { "type": "Point", "coordinates": [ 71.806641, 40.647304 ] } }
{"year": "AD600",  "type": "Feature", "tippecanoe": { "layer": "2AFC9FCCE0F01583915868196", "minzoom": 2, "maxzoom": 8 }, "properties": { "halo": 0.8, "title": "迦毕试王国", "fontsize": 12, "tyid": "304000", "oid": "103:1576922417302", "color": "#202020" }, "geometry": { "type": "Point", "coordinates": [ 68.291016, 33.651208 ] } }
{"year": "AD600",  "type": "Feature", "tippecanoe": { "layer": "2AFC9FCCE0F01583915868196", "minzoom": 2, "maxzoom": 8 }, "properties": { "halo": 0.8, "title": "乌苌国", "fontsize": 12, "tyid": "304000", "oid": "103:1535120127483", "color": "#202020" }, "geometry": { "type": "Point", "coordinates": [ 72.949219, 35.173808 ] } }
{"year": "AD600",  "type": "Feature", "tippecanoe": { "layer": "2AFC9FCCE0F01583915868196", "minzoom": 2, "maxzoom": 8 }, "properties": { "halo": 0.8, "title": "健驮逻国", "fontsize": 12, "tyid": "304000", "oid": "103:1576922416977", "color": "#202020" }, "geometry": { "type": "Point", "coordinates": [ 71.367188, 33.797409 ] } }
{"year": "AD600",  "type": "Feature", "tippecanoe": { "layer": "2AFC9FCCE0F01583915868196", "minzoom": 2, "maxzoom": 8 }, "properties": { "halo": 0.8, "title": "疏勒国", "fontsize": 12, "tyid": "304000", "oid": "103:1576922417527", "color": "#202020" }, "geometry": { "type": "Point", "coordinates": [ 75.410156, 39.368279 ] } }
{"year": "AD600",  "type": "Feature", "tippecanoe": { "layer": "2AFC9FCCE0F01583915868196", "minzoom": 2, "maxzoom": 8 }, "properties": { "halo": 0.8, "title": "勃律国", "fontsize": 12, "tyid": "304000", "oid": "103:1576922417422", "color": "#202020" }, "geometry": { "type": "Point", "coordinates": [ 75.058594, 35.603719 ] } }
{"year": "AD600",  "type": "Feature", "tippecanoe": { "layer": "2AFC9FCCE0F01583915868196", "minzoom": 2, "maxzoom": 8 }, "properties": { "halo": 0.8, "title": "卡尔科塔王朝", "fontsize": 12, "tyid": "304000", "oid": "103:1576922416952", "color": "#202020" }, "geometry": { "type": "Point", "coordinates": [ 74.970703, 33.870416 ] } }
{"year": "AD600",  "type": "Feature", "tippecanoe": { "layer": "2AFC9FCCE0F01583915868196", "minzoom": 2, "maxzoom": 8 }, "properties": { "halo": 0.8, "title": "屈露多国", "fontsize": 12, "tyid": "304000", "oid": "103:1576922416950", "color": "#202020" }, "geometry": { "type": "Point", "coordinates": [ 76.552734, 32.101190 ] } }
{"year": "AD600",  "type": "Feature", "tippecanoe": { "layer": "2AFC9FCCE0F01583915868196", "minzoom": 2, "maxzoom": 8 }, "properties": { "halo": 0.8, "title": "拉伊王朝", "fontsize": 12, "tyid": "304000", "oid": "103:1535120127486", "color": "#202020" }, "geometry": { "type": "Point", "coordinates": [ 67.939453, 27.371767 ] } }
{"year": "AD600",  "type": "Feature", "tippecanoe": { "layer": "2AFC9FCCE0F01583915868196", "minzoom": 2, "maxzoom": 8 }, "properties": { "halo": 0.8, "title": "茂罗三部卢国", "fontsize": 12, "tyid": "304000", "oid": "103:1576922416980", "color": "#202020" }, "geometry": { "type": "Point", "coordinates": [ 71.103516, 29.840644 ] } }
{"year": "AD600",  "type": "Feature", "tippecanoe": { "layer": "2AFC9FCCE0F01583915868196", "minzoom": 2, "maxzoom": 8 }, "properties": { "halo": 0.8, "title": "磔迦国", "fontsize": 12, "tyid": "304000", "oid": "103:1576922416955", "color": "#202020" }, "geometry": { "type": "Point", "coordinates": [ 72.685547, 31.802893 ] } }
{"year": "AD600",  "type": "Feature", "tippecanoe": { "layer": "2AFC9FCCE0F01583915868196", "minzoom": 2, "maxzoom": 8 }, "properties": { "halo": 0.8, "title": "臂多势罗国", "fontsize": 12, "tyid": "304000", "oid": "103:1576922417536", "color": "#202020" }, "geometry": { "type": "Point", "coordinates": [ 68.818359, 25.005973 ] } }
{"year": "AD600",  "type": "Feature", "tippecanoe": { "layer": "2AFC9FCCE0F01583915868196", "minzoom": 2, "maxzoom": 8 }, "properties": { "halo": 0.8, "title": "阿舆荼国", "fontsize": 12, "tyid": "304000", "oid": "103:1576922417587", "color": "#202020" }, "geometry": { "type": "Point", "coordinates": [ 68.906250, 26.352498 ] } }
{"year": "AD600",  "type": "Feature", "tippecanoe": { "layer": "2AFC9FCCE0F01583915868196", "minzoom": 2, "maxzoom": 8 }, "properties": { "halo": 0.8, "title": "契吒国", "fontsize": 12, "tyid": "304000", "oid": "103:1576922416989", "color": "#202020" }, "geometry": { "type": "Point", "coordinates": [ 69.960938, 23.966176 ] } }
{"year": "AD600",  "type": "Feature", "tippecanoe": { "layer": "2AFC9FCCE0F01583915868196", "minzoom": 2, "maxzoom": 8 }, "properties": { "halo": 0.8, "title": "苏剌吒国", "fontsize": 12, "tyid": "304000", "oid": "103:1576922417504", "color": "#202020" }, "geometry": { "type": "Point", "coordinates": [ 70.927734, 22.105999 ] } }
{"year": "AD600",  "type": "Feature", "tippecanoe": { "layer": "2AFC9FCCE0F01583915868196", "minzoom": 2, "maxzoom": 8 }, "properties": { "halo": 0.8, "title": "梅特拉卡王朝", "fontsize": 12, "tyid": "304000", "oid": "103:1576922416895", "color": "#202020" }, "geometry": { "type": "Point", "coordinates": [ 72.597656, 22.836946 ] } }
{"year": "AD600",  "type": "Feature", "tippecanoe": { "layer": "2AFC9FCCE0F01583915868196", "minzoom": 2, "maxzoom": 8 }, "properties": { "halo": 0.8, "title": "普西亚布蒂王朝", "fontsize": 12, "tyid": "304000", "oid": "103:1576922417320", "color": "#202020" }, "geometry": { "type": "Point", "coordinates": [ 76.464844, 29.688053 ] } }
{"year": "AD600",  "type": "Feature", "tippecanoe": { "layer": "2AFC9FCCE0F01583915868196", "minzoom": 2, "maxzoom": 8 }, "properties": { "halo": 0.8, "title": "掷枳陀国", "fontsize": 12, "tyid": "304000", "oid": "103:1576922417314", "color": "#202020" }, "geometry": { "type": "Point", "coordinates": [ 74.531250, 25.085599 ] } }
{"year": "AD600",  "type": "Feature", "tippecanoe": { "layer": "2AFC9FCCE0F01583915868196", "minzoom": 2, "maxzoom": 8 }, "properties": { "halo": 0.8, "title": "邬阇衍那国", "fontsize": 12, "tyid": "304000", "oid": "103:1576922417290", "color": "#202020" }, "geometry": { "type": "Point", "coordinates": [ 75.673828, 23.644524 ] } }
{"year": "AD600",  "type": "Feature", "tippecanoe": { "layer": "2AFC9FCCE0F01583915868196", "minzoom": 2, "maxzoom": 8 }, "properties": { "halo": 0.8, "title": "波理夜呾罗国", "fontsize": 12, "tyid": "304000", "oid": "103:1576922417319", "color": "#202020" }, "geometry": { "type": "Point", "coordinates": [ 76.025391, 26.745610 ] } }
{"year": "AD600",  "type": "Feature", "tippecanoe": { "layer": "2AFC9FCCE0F01583915868196", "minzoom": 2, "maxzoom": 8 }, "properties": { "halo": 0.8, "title": "摩醯湿伐罗补罗国", "fontsize": 12, "tyid": "304000", "oid": "103:1576922417317", "color": "#202020" }, "geometry": { "type": "Point", "coordinates": [ 77.783203, 25.085599 ] } }
{"year": "AD600",  "type": "Feature", "tippecanoe": { "layer": "2AFC9FCCE0F01583915868196", "minzoom": 2, "maxzoom": 8 }, "properties": { "halo": 0.8, "title": "龟兹国", "fontsize": 12, "tyid": "304000", "oid": "103:1576922417490", "color": "#202020" }, "geometry": { "type": "Point", "coordinates": [ 81.035156, 40.913513 ] } }
{"year": "AD600",  "type": "Feature", "tippecanoe": { "layer": "2AFC9FCCE0F01583915868196", "minzoom": 2, "maxzoom": 8 }, "properties": { "halo": 0.8, "title": "婆罗吸摩补罗国", "fontsize": 12, "tyid": "304000", "oid": "103:1576922416954", "color": "#202020" }, "geometry": { "type": "Point", "coordinates": [ 79.277344, 29.993002 ] } }
{"year": "AD600",  "type": "Feature", "tippecanoe": { "layer": "2AFC9FCCE0F01583915868196", "minzoom": 2, "maxzoom": 8 }, "properties": { "halo": 0.8, "title": "尼波罗国", "fontsize": 12, "tyid": "304000", "oid": "103:1535120127529", "color": "#202020" }, "geometry": { "type": "Point", "coordinates": [ 83.759766, 28.149503 ] } }
{"year": "AD600",  "type": "Feature", "tippecanoe": { "layer": "2AFC9FCCE0F01583915868196", "minzoom": 2, "maxzoom": 8 }, "properties": { "halo": 0.8, "title": "穆克里王朝", "fontsize": 12, "tyid": "304000", "oid": "103:1576922417294", "color": "#202020" }, "geometry": { "type": "Point", "coordinates": [ 80.332031, 26.902477 ] } }
{"year": "AD600",  "type": "Feature", "tippecanoe": { "layer": "2AFC9FCCE0F01583915868196", "minzoom": 2, "maxzoom": 8 }, "properties": { "halo": 0.8, "title": "卡拉丘里王朝", "fontsize": 12, "tyid": "304000", "oid": "103:1537435936582", "color": "#202020" }, "geometry": { "type": "Point", "coordinates": [ 79.453125, 23.322080 ] } }
{"year": "AD600",  "type": "Feature", "tippecanoe": { "layer": "2AFC9FCCE0F01583915868196", "minzoom": 2, "maxzoom": 8 }, "properties": { "halo": 0.8, "title": "后笈多王朝", "fontsize": 12, "tyid": "304000", "oid": "103:1535120127498", "color": "#202020" }, "geometry": { "type": "Point", "coordinates": [ 84.111328, 25.641526 ] } }
{"year": "AD600",  "type": "Feature", "tippecanoe": { "layer": "2AFC9FCCE0F01583915868196", "minzoom": 2, "maxzoom": 8 }, "properties": { "halo": 0.8, "title": "婆罗痆斯国", "fontsize": 12, "tyid": "304000", "oid": "103:1576922417577", "color": "#202020" }, "geometry": { "type": "Point", "coordinates": [ 82.705078, 24.447150 ] } }
{"year": "AD600",  "type": "Feature", "tippecanoe": { "layer": "2AFC9FCCE0F01583915868196", "minzoom": 2, "maxzoom": 8 }, "properties": { "halo": 0.8, "title": "梅卡拉潘都瓦湿王朝", "fontsize": 12, "tyid": "304000", "oid": "103:1535120127503", "color": "#202020" }, "geometry": { "type": "Point", "coordinates": [ 82.529297, 22.268764 ] } }
{"year": "AD600",  "type": "Feature", "tippecanoe": { "layer": "2AFC9FCCE0F01583915868196", "minzoom": 2, "maxzoom": 8 }, "properties": { "halo": 0.8, "title": "奔那伐弹那国", "fontsize": 12, "tyid": "304000", "oid": "103:1576922417295", "color": "#202020" }, "geometry": { "type": "Point", "coordinates": [ 88.154297, 25.799891 ] } }
{"year": "AD600",  "type": "Feature", "tippecanoe": { "layer": "2AFC9FCCE0F01583915868196", "minzoom": 2, "maxzoom": 8 }, "properties": { "halo": 0.8, "title": "耽摩栗底国", "fontsize": 12, "tyid": "304000", "oid": "103:1576922417552", "color": "#202020" }, "geometry": { "type": "Point", "coordinates": [ 88.593750, 22.593726 ] } }
{"year": "AD600",  "type": "Feature", "tippecanoe": { "layer": "2AFC9FCCE0F01583915868196", "minzoom": 2, "maxzoom": 8 }, "properties": { "halo": 0.8, "title": "案达罗国", "fontsize": 12, "tyid": "304000", "oid": "103:1576922417285", "color": "#202020" }, "geometry": { "type": "Point", "coordinates": [ 78.486328, 17.727759 ] } }
{"year": "AD600",  "type": "Feature", "tippecanoe": { "layer": "2AFC9FCCE0F01583915868196", "minzoom": 2, "maxzoom": 8 }, "properties": { "halo": 0.8, "title": "恭建那补罗国", "fontsize": 12, "tyid": "304000", "oid": "103:1576922417283", "color": "#202020" }, "geometry": { "type": "Point", "coordinates": [ 76.289062, 14.944785 ] } }
{"year": "AD600",  "type": "Feature", "tippecanoe": { "layer": "2AFC9FCCE0F01583915868196", "minzoom": 2, "maxzoom": 8 }, "properties": { "halo": 0.8, "title": "帕拉瓦王朝", "fontsize": 12, "tyid": "304000", "oid": "103:1535120127522", "color": "#202020" }, "geometry": { "type": "Point", "coordinates": [ 77.958984, 12.640338 ] } }
{"year": "AD600",  "type": "Feature", "tippecanoe": { "layer": "2AFC9FCCE0F01583915868196", "minzoom": 2, "maxzoom": 8 }, "properties": { "halo": 0.8, "title": "哲罗国", "fontsize": 12, "tyid": "304000", "oid": "103:1576922417292", "color": "#202020" }, "geometry": { "type": "Point", "coordinates": [ 76.376953, 10.401378 ] } }
{"year": "AD600",  "type": "Feature", "tippecanoe": { "layer": "2AFC9FCCE0F01583915868196", "minzoom": 2, "maxzoom": 8 }, "properties": { "halo": 0.8, "title": "潘地亚王国", "fontsize": 12, "tyid": "304000", "oid": "103:1576922417449", "color": "#202020" }, "geometry": { "type": "Point", "coordinates": [ 77.958984, 9.535749 ] } }
{"year": "AD600",  "type": "Feature", "tippecanoe": { "layer": "2AFC9FCCE0F01583915868196", "minzoom": 2, "maxzoom": 8 }, "properties": { "halo": 0.8, "title": "南憍萨罗国", "fontsize": 12, "tyid": "304000", "oid": "103:1576922417287", "color": "#202020" }, "geometry": { "type": "Point", "coordinates": [ 80.507812, 20.303418 ] } }
{"year": "AD600",  "type": "Feature", "tippecanoe": { "layer": "2AFC9FCCE0F01583915868196", "minzoom": 2, "maxzoom": 8 }, "properties": { "halo": 0.8, "title": "韦湿奴甘地那王朝", "fontsize": 12, "tyid": "304000", "oid": "103:1535120127524", "color": "#202020" }, "geometry": { "type": "Point", "coordinates": [ 80.595703, 17.056785 ] } }
{"year": "AD600",  "type": "Feature", "tippecanoe": { "layer": "2AFC9FCCE0F01583915868196", "minzoom": 2, "maxzoom": 8 }, "properties": { "halo": 0.8, "title": "沙罗哈瓦王朝", "fontsize": 12, "tyid": "304000", "oid": "103:1535120127526", "color": "#202020" }, "geometry": { "type": "Point", "coordinates": [ 83.583984, 19.145168 ] } }
{"year": "AD600",  "type": "Feature", "tippecanoe": { "layer": "2AFC9FCCE0F01583915868196", "minzoom": 2, "maxzoom": 8 }, "properties": { "halo": 0.8, "title": "朱罗国", "fontsize": 12, "tyid": "304000", "oid": "103:1576922417293", "color": "#202020" }, "geometry": { "type": "Point", "coordinates": [ 79.541016, 14.859850 ] } }
{"year": "AD600",  "type": "Feature", "tippecanoe": { "layer": "2AFC9FCCE0F01583915868196", "minzoom": 2, "maxzoom": 8 }, "properties": { "halo": 0.8, "title": "乌荼国", "fontsize": 12, "tyid": "304000", "oid": "103:1576922417506", "color": "#202020" }, "geometry": { "type": "Point", "coordinates": [ 85.341797, 21.371244 ] } }
{"year": "AD600",  "type": "Feature", "tippecanoe": { "layer": "2AFC9FCCE0F01583915868196", "minzoom": 2, "maxzoom": 8 }, "properties": { "halo": 0.8, "title": "阿努拉德普勒王国", "fontsize": 12, "tyid": "304000", "oid": "103:1576922416919", "color": "#202020" }, "geometry": { "type": "Point", "coordinates": [ 80.683594, 7.623887 ] } }
{"year": "AD600",  "type": "Feature", "tippecanoe": { "layer": "2AFC9FCCE0F01583915868196", "minzoom": 2, "maxzoom": 8 }, "properties": { "halo": 0.8, "title": "库莫奚", "fontsize": 12, "tyid": "304001", "oid": "103:1535120127603", "color": "#262626" }, "geometry": { "type": "Point", "coordinates": [ 117.421875, 41.705729 ] } }
{"year": "AD600",  "type": "Feature", "tippecanoe": { "layer": "2AFC9FCCE0F01583915868196", "minzoom": 2, "maxzoom": 8 }, "properties": { "halo": 0.8, "title": "南室韦", "fontsize": 12, "tyid": "304001", "oid": "103:1576922416972", "color": "#262626" }, "geometry": { "type": "Point", "coordinates": [ 123.486328, 47.159840 ] } }
{"year": "AD600",  "type": "Feature", "tippecanoe": { "layer": "2AFC9FCCE0F01583915868196", "minzoom": 2, "maxzoom": 8 }, "properties": { "halo": 0.8, "title": "霫", "fontsize": 12, "tyid": "304001", "oid": "103:1535120127601", "color": "#262626" }, "geometry": { "type": "Point", "coordinates": [ 120.058594, 44.777936 ] } }
{"year": "AD600",  "type": "Feature", "tippecanoe": { "layer": "2AFC9FCCE0F01583915868196", "minzoom": 2, "maxzoom": 8 }, "properties": { "halo": 0.8, "title": "契丹", "fontsize": 12, "tyid": "304001", "oid": "103:1535120127599", "color": "#262626" }, "geometry": { "type": "Point", "coordinates": [ 120.849609, 42.682435 ] } }
{"year": "AD600",  "type": "Feature", "tippecanoe": { "layer": "2AFC9FCCE0F01583915868196", "minzoom": 2, "maxzoom": 8 }, "properties": { "halo": 0.8, "title": "深末怛室韦", "fontsize": 12, "tyid": "304001", "oid": "103:1576922417446", "color": "#262626" }, "geometry": { "type": "Point", "coordinates": [ 130.341797, 52.052490 ] } }
{"year": "AD600",  "type": "Feature", "tippecanoe": { "layer": "2AFC9FCCE0F01583915868196", "minzoom": 2, "maxzoom": 8 }, "properties": { "halo": 0.8, "title": "安车骨靺鞨", "fontsize": 12, "tyid": "304001", "oid": "103:1576922417437", "color": "#262626" }, "geometry": { "type": "Point", "coordinates": [ 127.617188, 45.460131 ] } }
{"year": "AD600",  "type": "Feature", "tippecanoe": { "layer": "2AFC9FCCE0F01583915868196", "minzoom": 2, "maxzoom": 8 }, "properties": { "halo": 0.8, "title": "伯咄靺鞨", "fontsize": 12, "tyid": "304001", "oid": "103:1576922417433", "color": "#262626" }, "geometry": { "type": "Point", "coordinates": [ 126.035156, 44.777936 ] } }
{"year": "AD600",  "type": "Feature", "tippecanoe": { "layer": "2AFC9FCCE0F01583915868196", "minzoom": 2, "maxzoom": 8 }, "properties": { "halo": 0.8, "title": "粟末靺鞨", "fontsize": 12, "tyid": "304001", "oid": "103:1576922417440", "color": "#262626" }, "geometry": { "type": "Point", "coordinates": [ 126.914062, 43.197167 ] } }
{"year": "AD600",  "type": "Feature", "tippecanoe": { "layer": "2AFC9FCCE0F01583915868196", "minzoom": 2, "maxzoom": 8 }, "properties": { "halo": 0.8, "title": "拂涅靺鞨", "fontsize": 12, "tyid": "304001", "oid": "103:1576922417441", "color": "#262626" }, "geometry": { "type": "Point", "coordinates": [ 130.253906, 45.089036 ] } }
{"year": "AD600",  "type": "Feature", "tippecanoe": { "layer": "2AFC9FCCE0F01583915868196", "minzoom": 2, "maxzoom": 8 }, "properties": { "halo": 0.8, "title": "白山靺鞨", "fontsize": 12, "tyid": "304001", "oid": "103:1576922416894", "color": "#262626" }, "geometry": { "type": "Point", "coordinates": [ 131.308594, 43.452919 ] } }
{"year": "AD600",  "type": "Feature", "tippecanoe": { "layer": "2AFC9FCCE0F01583915868196", "minzoom": 2, "maxzoom": 8 }, "properties": { "halo": 0.8, "title": "瓦曼王朝", "fontsize": 12, "tyid": "304000", "oid": "103:1576922417297", "color": "#202020" }, "geometry": { "type": "Point", "coordinates": [ 91.054688, 25.324167 ] } }
{"year": "AD600",  "type": "Feature", "tippecanoe": { "layer": "2AFC9FCCE0F01583915868196", "minzoom": 2, "maxzoom": 8 }, "properties": { "halo": 0.8, "title": "三摩呾吒国", "fontsize": 12, "tyid": "304000", "oid": "103:1576922417526", "color": "#202020" }, "geometry": { "type": "Point", "coordinates": [ 90.791016, 23.322080 ] } }
{"year": "AD600",  "type": "Feature", "tippecanoe": { "layer": "2AFC9FCCE0F01583915868196", "minzoom": 2, "maxzoom": 8 }, "properties": { "halo": 0.8, "title": "古曼尼普尔王国", "fontsize": 12, "tyid": "304000", "oid": "103:1576922417200", "color": "#202020" }, "geometry": { "type": "Point", "coordinates": [ 93.867188, 24.766785 ] } }
{"year": "AD600",  "type": "Feature", "tippecanoe": { "layer": "2AFC9FCCE0F01583915868196", "minzoom": 2, "maxzoom": 8 }, "properties": { "halo": 0.8, "title": "附国", "fontsize": 12, "tyid": "304001", "oid": "103:1535120127641", "color": "#262626" }, "geometry": { "type": "Point", "coordinates": [ 97.822266, 29.535230 ] } }
{"year": "AD600",  "type": "Feature", "tippecanoe": { "layer": "2AFC9FCCE0F01583915868196", "minzoom": 2, "maxzoom": 8 }, "properties": { "halo": 0.8, "title": "党项诸部", "fontsize": 12, "tyid": "304001", "oid": "103:1576922417450", "color": "#262626" }, "geometry": { "type": "Point", "coordinates": [ 100.458984, 31.802893 ] } }
{"year": "AD600",  "type": "Feature", "tippecanoe": { "layer": "2AFC9FCCE0F01583915868196", "minzoom": 2, "maxzoom": 8 }, "properties": { "halo": 0.8, "title": "濮部", "fontsize": 12, "tyid": "304001", "oid": "103:1535120127632", "color": "#262626" }, "geometry": { "type": "Point", "coordinates": [ 100.019531, 23.563987 ] } }
{"year": "AD600",  "type": "Feature", "tippecanoe": { "layer": "2AFC9FCCE0F01583915868196", "minzoom": 2, "maxzoom": 8 }, "properties": { "halo": 0.8, "title": "西爨", "fontsize": 12, "tyid": "304002", "oid": "103:1576922417497", "color": "#262626" }, "geometry": { "type": "Point", "coordinates": [ 102.744141, 24.527135 ] } }
{"year": "AD600",  "type": "Feature", "tippecanoe": { "layer": "2AFC9FCCE0F01583915868196", "minzoom": 2, "maxzoom": 8 }, "properties": { "halo": 0.8, "title": "东爨", "fontsize": 12, "tyid": "304002", "oid": "103:1576922417507", "color": "#262626" }, "geometry": { "type": "Point", "coordinates": [ 104.941406, 25.720735 ] } }
{"year": "AD600",  "type": "Feature", "tippecanoe": { "layer": "2AFC9FCCE0F01583915868196", "minzoom": 2, "maxzoom": 8 }, "properties": { "halo": 0.8, "title": "谢氏", "fontsize": 12, "tyid": "304002", "oid": "103:1576922417604", "color": "#262626" }, "geometry": { "type": "Point", "coordinates": [ 107.138672, 26.194877 ] } }
{"year": "AD600",  "type": "Feature", "tippecanoe": { "layer": "2AFC9FCCE0F01583915868196", "minzoom": 2, "maxzoom": 8 }, "properties": { "halo": 0.8, "title": "达雅瓦底王国", "fontsize": 12, "tyid": "304000", "oid": "103:1576922417207", "color": "#202020" }, "geometry": { "type": "Point", "coordinates": [ 93.339844, 20.550509 ] } }
{"year": "AD600",  "type": "Feature", "tippecanoe": { "layer": "2AFC9FCCE0F01583915868196", "minzoom": 2, "maxzoom": 8 }, "properties": { "halo": 0.8, "title": "直通王国", "fontsize": 12, "tyid": "304000", "oid": "103:1535120127544", "color": "#202020" }, "geometry": { "type": "Point", "coordinates": [ 95.185547, 17.056785 ] } }
{"year": "AD600",  "type": "Feature", "tippecanoe": { "layer": "2AFC9FCCE0F01583915868196", "minzoom": 2, "maxzoom": 8 }, "properties": { "halo": 0.8, "title": "骠国", "fontsize": 12, "tyid": "304000", "oid": "103:1535120127542", "color": "#202020" }, "geometry": { "type": "Point", "coordinates": [ 95.888672, 21.125498 ] } }
{"year": "AD600",  "type": "Feature", "tippecanoe": { "layer": "2AFC9FCCE0F01583915868196", "minzoom": 2, "maxzoom": 8 }, "properties": { "halo": 0.8, "title": "罗涡国", "fontsize": 12, "tyid": "304000", "oid": "103:1576922416999", "color": "#202020" }, "geometry": { "type": "Point", "coordinates": [ 100.019531, 16.130262 ] } }
{"year": "AD600",  "type": "Feature", "tippecanoe": { "layer": "2AFC9FCCE0F01583915868196", "minzoom": 2, "maxzoom": 8 }, "properties": { "halo": 0.8, "title": "陀罗钵地王国", "fontsize": 12, "tyid": "304000", "oid": "103:1535120127546", "color": "#202020" }, "geometry": { "type": "Point", "coordinates": [ 99.140625, 13.068777 ] } }
{"year": "AD600",  "type": "Feature", "tippecanoe": { "layer": "2AFC9FCCE0F01583915868196", "minzoom": 2, "maxzoom": 8 }, "properties": { "halo": 0.8, "title": "盘盘国", "fontsize": 12, "tyid": "304000", "oid": "103:1576922417300", "color": "#202020" }, "geometry": { "type": "Point", "coordinates": [ 98.876953, 9.449062 ] } }
{"year": "AD600",  "type": "Feature", "tippecanoe": { "layer": "2AFC9FCCE0F01583915868196", "minzoom": 2, "maxzoom": 8 }, "properties": { "halo": 0.8, "title": "丹马令国", "fontsize": 12, "tyid": "304000", "oid": "103:1576922417301", "color": "#202020" }, "geometry": { "type": "Point", "coordinates": [ 99.931641, 7.623887 ] } }
{"year": "AD600",  "type": "Feature", "tippecanoe": { "layer": "2AFC9FCCE0F01583915868196", "minzoom": 2, "maxzoom": 8 }, "properties": { "halo": 0.8, "title": "野能国", "fontsize": 12, "tyid": "304000", "oid": "103:1576922417498", "color": "#202020" }, "geometry": { "type": "Point", "coordinates": [ 105.732422, 20.138470 ] } }
{"year": "AD600",  "type": "Feature", "tippecanoe": { "layer": "2AFC9FCCE0F01583915868196", "minzoom": 2, "maxzoom": 8 }, "properties": { "halo": 0.8, "title": "真腊王国", "fontsize": 12, "tyid": "304000", "oid": "103:1576922417425", "color": "#202020" }, "geometry": { "type": "Point", "coordinates": [ 106.259766, 13.923404 ] } }
{"year": "AD600",  "type": "Feature", "tippecanoe": { "layer": "2AFC9FCCE0F01583915868196", "minzoom": 2, "maxzoom": 8 }, "properties": { "halo": 0.8, "title": "林邑国", "fontsize": 12, "tyid": "304000", "oid": "103:1576922417416", "color": "#202020" }, "geometry": { "type": "Point", "coordinates": [ 107.578125, 16.299051 ] } }
{"year": "AD600",  "type": "Feature", "tippecanoe": { "layer": "2AFC9FCCE0F01583915868196", "minzoom": 2, "maxzoom": 8 }, "properties": { "halo": 0.8, "title": "赤土国", "fontsize": 12, "tyid": "304000", "oid": "103:1576922417417", "color": "#202020" }, "geometry": { "type": "Point", "coordinates": [ 102.304688, 5.353521 ] } }
{"year": "AD600",  "type": "Feature", "tippecanoe": { "layer": "2AFC9FCCE0F01583915868196", "minzoom": 2, "maxzoom": 8 }, "properties": { "halo": 0.8, "title": "婆皇国", "fontsize": 12, "tyid": "304000", "oid": "103:1576922417430", "color": "#202020" }, "geometry": { "type": "Point", "coordinates": [ 102.480469, 3.776559 ] } }
{"year": "AD600",  "type": "Feature", "tippecanoe": { "layer": "2AFC9FCCE0F01583915868196", "minzoom": 2, "maxzoom": 8 }, "properties": { "halo": 0.8, "title": "百济", "fontsize": 12, "tyid": "304000", "oid": "103:1535120127559", "color": "#202020" }, "geometry": { "type": "Point", "coordinates": [ 127.089844, 36.102376 ] } }
{"year": "AD600",  "type": "Feature", "tippecanoe": { "layer": "2AFC9FCCE0F01583915868196", "minzoom": 2, "maxzoom": 8 }, "properties": { "halo": 0.8, "title": "新罗", "fontsize": 12, "tyid": "304000", "oid": "103:1535120127556", "color": "#202020" }, "geometry": { "type": "Point", "coordinates": [ 128.583984, 36.031332 ] } }
{"year": "AD600",  "type": "Feature", "tippecanoe": { "layer": "2AFC9FCCE0F01583915868196", "minzoom": 2, "maxzoom": 8 }, "properties": { "halo": 0.8, "title": "号室靺鞨", "fontsize": 12, "tyid": "304001", "oid": "103:1576922417442", "color": "#262626" }, "geometry": { "type": "Point", "coordinates": [ 135.263672, 45.951150 ] } }
{"year": "AD600",  "type": "Feature", "tippecanoe": { "layer": "2AFC9FCCE0F01583915868196", "minzoom": 2, "maxzoom": 8 }, "properties": { "halo": 0.8, "title": "绳文人", "fontsize": 12, "tyid": "304001", "oid": "103:1576922417395", "color": "#262626" }, "geometry": { "type": "Point", "coordinates": [ 142.294922, 43.325178 ] } }
{"year": "AD600",  "type": "Feature", "tippecanoe": { "layer": "2AFC9FCCE0F01583915868196", "minzoom": 2, "maxzoom": 8 }, "properties": { "halo": 0.8, "title": "日高见国", "fontsize": 12, "tyid": "304000", "oid": "103:1576922417421", "color": "#202020" }, "geometry": { "type": "Point", "coordinates": [ 140.712891, 39.504041 ] } }
{"year": "AD600",  "type": "Feature", "tippecanoe": { "layer": "2AFC9FCCE0F01583915868196", "minzoom": 2, "maxzoom": 8 }, "properties": { "halo": 0.8, "title": "艾布兰文化五期", "fontsize": 12, "tyid": "304002", "oid": "103:1576922417224", "color": "#262626" }, "geometry": { "type": "Point", "coordinates": [ 36.474609, -0.175781 ] } }
{"year": "AD600",  "type": "Feature", "tippecanoe": { "layer": "2AFC9FCCE0F01583915868196", "minzoom": 2, "maxzoom": 8 }, "properties": { "halo": 0.8, "title": "斯瓦西里人", "fontsize": 12, "tyid": "304001", "oid": "103:1576922417024", "color": "#262626" }, "geometry": { "type": "Point", "coordinates": [ 39.375000, -16.214675 ] } }
{"year": "AD600",  "type": "Feature", "tippecanoe": { "layer": "2AFC9FCCE0F01583915868196", "minzoom": 2, "maxzoom": 8 }, "properties": { "halo": 0.8, "title": "末罗瑜王国", "fontsize": 12, "tyid": "304000", "oid": "103:1576922417418", "color": "#202020" }, "geometry": { "type": "Point", "coordinates": [ 103.623047, -2.460181 ] } }
{"year": "AD600",  "type": "Feature", "tippecanoe": { "layer": "2AFC9FCCE0F01583915868196", "minzoom": 2, "maxzoom": 8 }, "properties": { "halo": 0.8, "title": "库泰王国", "fontsize": 12, "tyid": "304000", "oid": "103:1576922417002", "color": "#202020" }, "geometry": { "type": "Point", "coordinates": [ 116.191406, 0.000000 ] } }
{"year": "AD600",  "type": "Feature", "tippecanoe": { "layer": "2AFC9FCCE0F01583915868196", "minzoom": 2, "maxzoom": 8 }, "properties": { "halo": 0.8, "title": "巴拉瓦人", "fontsize": 12, "tyid": "304001", "oid": "103:1576922417208", "color": "#262626" }, "geometry": { "type": "Point", "coordinates": [ 146.513672, -41.967659 ] } }
{"year": "AD600",  "type": "Feature", "tippecanoe": { "layer": "2AFC9FCCE5F81583915868198", "minzoom": 2, "maxzoom": 8 }, "properties": { "halo": 0.8, "title": "古白令海文化", "fontsize": 12, "tyid": "304002", "oid": "103:1576922417268", "color": "#262626" }, "geometry": { "type": "Point", "coordinates": [ -170.332031, 63.470145 ] } }
{"year": "AD600",  "type": "Feature", "tippecanoe": { "layer": "2AFC9FCCE5F81583915868198", "minzoom": 2, "maxzoom": 8 }, "properties": { "halo": 0.8, "title": "梅奥人", "fontsize": 12, "tyid": "304001", "oid": "103:1576922417040", "color": "#262626" }, "geometry": { "type": "Point", "coordinates": [ -109.160156, 26.667096 ] } }
{"year": "AD600",  "type": "Feature", "tippecanoe": { "layer": "2AFC9FCCE5F81583915868198", "minzoom": 2, "maxzoom": 8 }, "properties": { "halo": 0.8, "title": "查尔奇维特斯文化", "fontsize": 12, "tyid": "304002", "oid": "103:1576922417383", "color": "#262626" }, "geometry": { "type": "Point", "coordinates": [ -103.974609, 23.483401 ] } }
{"year": "AD600",  "type": "Feature", "tippecanoe": { "layer": "2AFC9FCCE5F81583915868198", "minzoom": 2, "maxzoom": 8 }, "properties": { "halo": 0.8, "title": "查纳尔文化", "fontsize": 12, "tyid": "304002", "oid": "103:1576922417465", "color": "#262626" }, "geometry": { "type": "Point", "coordinates": [ -103.974609, 19.228177 ] } }
{"year": "AD600",  "type": "Feature", "tippecanoe": { "layer": "2AFC9FCCE5F81583915868198", "minzoom": 2, "maxzoom": 8 }, "properties": { "halo": 0.8, "title": "巴希奥文化", "fontsize": 12, "tyid": "304002", "oid": "103:1576922417090", "color": "#262626" }, "geometry": { "type": "Point", "coordinates": [ -99.931641, 20.879343 ] } }
{"year": "AD600",  "type": "Feature", "tippecanoe": { "layer": "2AFC9FCCE5F81583915868198", "minzoom": 2, "maxzoom": 8 }, "properties": { "halo": 0.8, "title": "特奥蒂瓦坎", "fontsize": 12, "tyid": "304002", "oid": "103:1535120127610", "color": "#262626" }, "geometry": { "type": "Point", "coordinates": [ -99.404297, 19.808054 ] } }
{"year": "AD600",  "type": "Feature", "tippecanoe": { "layer": "2AFC9FCCE5F81583915868198", "minzoom": 2, "maxzoom": 8 }, "properties": { "halo": 0.8, "title": "圣米格尔伊克帕坦文化", "fontsize": 12, "tyid": "304002", "oid": "103:1576922417167", "color": "#262626" }, "geometry": { "type": "Point", "coordinates": [ -100.019531, 19.062118 ] } }
{"year": "AD600",  "type": "Feature", "tippecanoe": { "layer": "2AFC9FCCE5F81583915868198", "minzoom": 2, "maxzoom": 8 }, "properties": { "halo": 0.8, "title": "科韦克卡-琼塔尔文化", "fontsize": 12, "tyid": "304002", "oid": "103:1576922417175", "color": "#262626" }, "geometry": { "type": "Point", "coordinates": [ -99.667969, 18.062312 ] } }
{"year": "AD600",  "type": "Feature", "tippecanoe": { "layer": "2AFC9FCCE5F81583915868198", "minzoom": 2, "maxzoom": 8 }, "properties": { "halo": 0.8, "title": "托托纳克人", "fontsize": 12, "tyid": "304001", "oid": "103:1576922416941", "color": "#262626" }, "geometry": { "type": "Point", "coordinates": [ -98.349609, 20.220966 ] } }
{"year": "AD600",  "type": "Feature", "tippecanoe": { "layer": "2AFC9FCCE5F81583915868198", "minzoom": 2, "maxzoom": 8 }, "properties": { "halo": 0.8, "title": "古韦拉克鲁斯文化", "fontsize": 12, "tyid": "304002", "oid": "103:1576922416966", "color": "#262626" }, "geometry": { "type": "Point", "coordinates": [ -96.767578, 19.642588 ] } }
{"year": "AD600",  "type": "Feature", "tippecanoe": { "layer": "2AFC9FCCE5F81583915868198", "minzoom": 2, "maxzoom": 8 }, "properties": { "halo": 0.8, "title": "米斯特克人", "fontsize": 12, "tyid": "304001", "oid": "103:1535120127612", "color": "#262626" }, "geometry": { "type": "Point", "coordinates": [ -98.349609, 17.224758 ] } }
{"year": "AD600",  "type": "Feature", "tippecanoe": { "layer": "2AFC9FCCE5F81583915868198", "minzoom": 2, "maxzoom": 8 }, "properties": { "halo": 0.8, "title": "特里克人", "fontsize": 12, "tyid": "304001", "oid": "103:1576922417162", "color": "#262626" }, "geometry": { "type": "Point", "coordinates": [ -97.382812, 17.811456 ] } }
{"year": "AD600",  "type": "Feature", "tippecanoe": { "layer": "2AFC9FCCE5F81583915868198", "minzoom": 2, "maxzoom": 8 }, "properties": { "halo": 0.8, "title": "洛瓦贾达斯文化", "fontsize": 12, "tyid": "304002", "oid": "103:1576922417048", "color": "#262626" }, "geometry": { "type": "Point", "coordinates": [ -96.416016, 19.145168 ] } }
{"year": "AD600",  "type": "Feature", "tippecanoe": { "layer": "2AFC9FCCE5F81583915868198", "minzoom": 2, "maxzoom": 8 }, "properties": { "halo": 0.8, "title": "麦克斯人", "fontsize": 12, "tyid": "304001", "oid": "103:1576922417357", "color": "#262626" }, "geometry": { "type": "Point", "coordinates": [ -96.503906, 18.312811 ] } }
{"year": "AD600",  "type": "Feature", "tippecanoe": { "layer": "2AFC9FCCE5F81583915868198", "minzoom": 2, "maxzoom": 8 }, "properties": { "halo": 0.8, "title": "佐齐尔人", "fontsize": 12, "tyid": "304001", "oid": "103:1576922417043", "color": "#262626" }, "geometry": { "type": "Point", "coordinates": [ -93.339844, 16.551962 ] } }
{"year": "AD600",  "type": "Feature", "tippecanoe": { "layer": "2AFC9FCCE5F81583915868198", "minzoom": 2, "maxzoom": 8 }, "properties": { "halo": 0.8, "title": "祖赫人", "fontsize": 12, "tyid": "304001", "oid": "103:1576922417269", "color": "#262626" }, "geometry": { "type": "Point", "coordinates": [ -92.109375, 16.045813 ] } }
{"year": "AD600",  "type": "Feature", "tippecanoe": { "layer": "2AFC9FCCE5F81583915868198", "minzoom": 2, "maxzoom": 8 }, "properties": { "halo": 0.8, "title": "基切人", "fontsize": 12, "tyid": "304001", "oid": "103:1576922417236", "color": "#262626" }, "geometry": { "type": "Point", "coordinates": [ -90.966797, 15.029686 ] } }
{"year": "AD600",  "type": "Feature", "tippecanoe": { "layer": "2AFC9FCCE5F81583915868198", "minzoom": 2, "maxzoom": 8 }, "properties": { "halo": 0.8, "title": "怒溪文化", "fontsize": 12, "tyid": "304002", "oid": "103:1576922417480", "color": "#262626" }, "geometry": { "type": "Point", "coordinates": [ -72.421875, 41.574361 ] } }
{"year": "AD600",  "type": "Feature", "tippecanoe": { "layer": "2AFC9FCCE5F81583915868198", "minzoom": 2, "maxzoom": 8 }, "properties": { "halo": 0.8, "title": "埃里森-拉莫特文化", "fontsize": 12, "tyid": "304002", "oid": "103:1576922417027", "color": "#262626" }, "geometry": { "type": "Point", "coordinates": [ -87.626953, 39.095963 ] } }
{"year": "AD600",  "type": "Feature", "tippecanoe": { "layer": "2AFC9FCCE5F81583915868198", "minzoom": 2, "maxzoom": 8 }, "properties": { "halo": 0.8, "title": "阿拉楚阿文化", "fontsize": 12, "tyid": "304002", "oid": "103:1576922417008", "color": "#262626" }, "geometry": { "type": "Point", "coordinates": [ -82.265625, 29.688053 ] } }
{"year": "AD600",  "type": "Feature", "tippecanoe": { "layer": "2AFC9FCCE5F81583915868198", "minzoom": 2, "maxzoom": 8 }, "properties": { "halo": 0.8, "title": "凯兹池塘文化", "fontsize": 12, "tyid": "304002", "oid": "103:1576922417359", "color": "#262626" }, "geometry": { "type": "Point", "coordinates": [ -82.265625, 29.152161 ] } }
{"year": "AD600",  "type": "Feature", "tippecanoe": { "layer": "2AFC9FCCE5F81583915868198", "minzoom": 2, "maxzoom": 8 }, "properties": { "halo": 0.8, "title": "玛纳索塔文化", "fontsize": 12, "tyid": "304002", "oid": "103:1576922417374", "color": "#262626" }, "geometry": { "type": "Point", "coordinates": [ -82.441406, 27.683528 ] } }
{"year": "AD600",  "type": "Feature", "tippecanoe": { "layer": "2AFC9FCCE5F81583915868198", "minzoom": 2, "maxzoom": 8 }, "properties": { "halo": 0.8, "title": "卡卢萨哈契文化", "fontsize": 12, "tyid": "304002", "oid": "103:1576922417016", "color": "#262626" }, "geometry": { "type": "Point", "coordinates": [ -81.650391, 27.137368 ] } }
{"year": "AD600",  "type": "Feature", "tippecanoe": { "layer": "2AFC9FCCE5F81583915868198", "minzoom": 2, "maxzoom": 8 }, "properties": { "halo": 0.8, "title": "圣约翰文化", "fontsize": 12, "tyid": "304002", "oid": "103:1576922417344", "color": "#262626" }, "geometry": { "type": "Point", "coordinates": [ -81.474609, 29.382175 ] } }
{"year": "AD600",  "type": "Feature", "tippecanoe": { "layer": "2AFC9FCCE5F81583915868198", "minzoom": 2, "maxzoom": 8 }, "properties": { "halo": 0.8, "title": "贝尔格莱德文化", "fontsize": 12, "tyid": "304002", "oid": "103:1576922417471", "color": "#262626" }, "geometry": { "type": "Point", "coordinates": [ -80.859375, 27.527758 ] } }
{"year": "AD600",  "type": "Feature", "tippecanoe": { "layer": "2AFC9FCCE5F81583915868198", "minzoom": 2, "maxzoom": 8 }, "properties": { "halo": 0.8, "title": "格莱兹文化", "fontsize": 12, "tyid": "304002", "oid": "103:1576922417250", "color": "#262626" }, "geometry": { "type": "Point", "coordinates": [ -80.859375, 26.037042 ] } }
{"year": "AD600",  "type": "Feature", "tippecanoe": { "layer": "2AFC9FCCE5F81583915868198", "minzoom": 2, "maxzoom": 8 }, "properties": { "halo": 0.8, "title": "德贵斯塔族", "fontsize": 12, "tyid": "304001", "oid": "103:1576922417194", "color": "#262626" }, "geometry": { "type": "Point", "coordinates": [ -80.419922, 25.641526 ] } }
{"year": "AD600",  "type": "Feature", "tippecanoe": { "layer": "2AFC9FCCE5F81583915868198", "minzoom": 2, "maxzoom": 8 }, "properties": { "halo": 0.8, "title": "卡卡普拉人", "fontsize": 12, "tyid": "304001", "oid": "103:1576922417075", "color": "#262626" }, "geometry": { "type": "Point", "coordinates": [ -88.154297, 13.838080 ] } }
{"year": "AD600",  "type": "Feature", "tippecanoe": { "layer": "2AFC9FCCE5F81583915868198", "minzoom": 2, "maxzoom": 8 }, "properties": { "halo": 0.8, "title": "雷卡人", "fontsize": 12, "tyid": "304001", "oid": "103:1576922417337", "color": "#262626" }, "geometry": { "type": "Point", "coordinates": [ -87.275391, 13.667338 ] } }
{"year": "AD600",  "type": "Feature", "tippecanoe": { "layer": "2AFC9FCCE5F81583915868198", "minzoom": 2, "maxzoom": 8 }, "properties": { "halo": 0.8, "title": "迪基斯文化", "fontsize": 12, "tyid": "304002", "oid": "103:1576922417013", "color": "#262626" }, "geometry": { "type": "Point", "coordinates": [ -83.320312, 8.928487 ] } }
{"year": "AD600",  "type": "Feature", "tippecanoe": { "layer": "2AFC9FCCE5F81583915868198", "minzoom": 2, "maxzoom": 8 }, "properties": { "halo": 0.8, "title": "格兰科克勒文化", "fontsize": 12, "tyid": "304002", "oid": "103:1576922417382", "color": "#262626" }, "geometry": { "type": "Point", "coordinates": [ -80.507812, 8.581021 ] } }
{"year": "AD600",  "type": "Feature", "tippecanoe": { "layer": "2AFC9FCCE5F81583915868198", "minzoom": 2, "maxzoom": 8 }, "properties": { "halo": 0.8, "title": "贾马科克文化", "fontsize": 12, "tyid": "304002", "oid": "103:1576922417385", "color": "#262626" }, "geometry": { "type": "Point", "coordinates": [ -79.277344, 0.703107 ] } }
{"year": "AD600",  "type": "Feature", "tippecanoe": { "layer": "2AFC9FCCE5F81583915868198", "minzoom": 2, "maxzoom": 8 }, "properties": { "halo": 0.8, "title": "泰罗纳", "fontsize": 12, "tyid": "304000", "oid": "103:1576922417475", "color": "#202020" }, "geometry": { "type": "Point", "coordinates": [ -73.564453, 10.833306 ] } }
{"year": "AD600",  "type": "Feature", "tippecanoe": { "layer": "2AFC9FCCE5F81583915868198", "minzoom": 2, "maxzoom": 8 }, "properties": { "halo": 0.8, "title": "约托科文化", "fontsize": 12, "tyid": "304002", "oid": "103:1576922417082", "color": "#262626" }, "geometry": { "type": "Point", "coordinates": [ -76.464844, 3.864255 ] } }
{"year": "AD600",  "type": "Feature", "tippecanoe": { "layer": "2AFC9FCCE5F81583915868198", "minzoom": 2, "maxzoom": 8 }, "properties": { "halo": 0.8, "title": "昆巴雅文明", "fontsize": 12, "tyid": "304002", "oid": "103:1576922417076", "color": "#262626" }, "geometry": { "type": "Point", "coordinates": [ -75.761719, 5.090944 ] } }
{"year": "AD600",  "type": "Feature", "tippecanoe": { "layer": "2AFC9FCCE5F81583915868198", "minzoom": 2, "maxzoom": 8 }, "properties": { "halo": 0.8, "title": "潘切人", "fontsize": 12, "tyid": "304001", "oid": "103:1576922417458", "color": "#262626" }, "geometry": { "type": "Point", "coordinates": [ -74.619141, 4.740675 ] } }
{"year": "AD600",  "type": "Feature", "tippecanoe": { "layer": "2AFC9FCCE5F81583915868198", "minzoom": 2, "maxzoom": 8 }, "properties": { "halo": 0.8, "title": "萨拉杜文化", "fontsize": 12, "tyid": "304002", "oid": "103:1576922417324", "color": "#262626" }, "geometry": { "type": "Point", "coordinates": [ -61.699219, 16.214675 ] } }
{"year": "AD600",  "type": "Feature", "tippecanoe": { "layer": "2AFC9FCCE5F81583915868198", "minzoom": 2, "maxzoom": 8 }, "properties": { "halo": 0.8, "title": "埃里克王国", "fontsize": 12, "tyid": "304000", "oid": "103:1576922416947", "color": "#202020" }, "geometry": { "type": "Point", "coordinates": [ -7.646484, 54.622978 ] } }
{"year": "AD600",  "type": "Feature", "tippecanoe": { "layer": "2AFC9FCCE5F81583915868198", "minzoom": 2, "maxzoom": 8 }, "properties": { "halo": 0.8, "title": "乌勒王国", "fontsize": 12, "tyid": "304000", "oid": "103:1576922417405", "color": "#202020" }, "geometry": { "type": "Point", "coordinates": [ -6.152344, 54.418930 ] } }
{"year": "AD600",  "type": "Feature", "tippecanoe": { "layer": "2AFC9FCCE5F81583915868198", "minzoom": 2, "maxzoom": 8 }, "properties": { "halo": 0.8, "title": "奥利尔王国", "fontsize": 12, "tyid": "304000", "oid": "103:1576922417102", "color": "#202020" }, "geometry": { "type": "Point", "coordinates": [ -7.031250, 54.110943 ] } }
{"year": "AD600",  "type": "Feature", "tippecanoe": { "layer": "2AFC9FCCE5F81583915868198", "minzoom": 2, "maxzoom": 8 }, "properties": { "halo": 0.8, "title": "斯特拉瑟克雷德王国", "fontsize": 12, "tyid": "304000", "oid": "103:1535120127656", "color": "#202020" }, "geometry": { "type": "Point", "coordinates": [ -4.218750, 55.429013 ] } }
{"year": "AD600",  "type": "Feature", "tippecanoe": { "layer": "2AFC9FCCE5F81583915868198", "minzoom": 2, "maxzoom": 8 }, "properties": { "halo": 0.8, "title": "格温内斯王国", "fontsize": 12, "tyid": "304000", "oid": "103:1576922417025", "color": "#202020" }, "geometry": { "type": "Point", "coordinates": [ -3.867188, 53.014783 ] } }
{"year": "AD600",  "type": "Feature", "tippecanoe": { "layer": "2AFC9FCCE5F81583915868198", "minzoom": 2, "maxzoom": 8 }, "properties": { "halo": 0.8, "title": "波威斯王国", "fontsize": 12, "tyid": "304000", "oid": "103:1576922417137", "color": "#202020" }, "geometry": { "type": "Point", "coordinates": [ -3.339844, 52.536273 ] } }
{"year": "AD600",  "type": "Feature", "tippecanoe": { "layer": "2AFC9FCCE5F81583915868198", "minzoom": 2, "maxzoom": 8 }, "properties": { "halo": 0.8, "title": "麦西亚王国", "fontsize": 12, "tyid": "304000", "oid": "103:1535120127662", "color": "#202020" }, "geometry": { "type": "Point", "coordinates": [ -1.406250, 52.749594 ] } }
{"year": "AD600",  "type": "Feature", "tippecanoe": { "layer": "2AFC9FCCE5F81583915868198", "minzoom": 2, "maxzoom": 8 }, "properties": { "halo": 0.8, "title": "锡尔迪金王国", "fontsize": 12, "tyid": "304000", "oid": "103:1576922417094", "color": "#202020" }, "geometry": { "type": "Point", "coordinates": [ -4.306641, 52.160455 ] } }
{"year": "AD600",  "type": "Feature", "tippecanoe": { "layer": "2AFC9FCCE5F81583915868198", "minzoom": 2, "maxzoom": 8 }, "properties": { "halo": 0.8, "title": "达费德王国", "fontsize": 12, "tyid": "304000", "oid": "103:1576922416935", "color": "#202020" }, "geometry": { "type": "Point", "coordinates": [ -4.042969, 51.890054 ] } }
{"year": "AD600",  "type": "Feature", "tippecanoe": { "layer": "2AFC9FCCE5F81583915868198", "minzoom": 2, "maxzoom": 8 }, "properties": { "halo": 0.8, "title": "布里奇尼奥格王国", "fontsize": 12, "tyid": "304000", "oid": "103:1576922417097", "color": "#202020" }, "geometry": { "type": "Point", "coordinates": [ -3.251953, 52.052490 ] } }
{"year": "AD600",  "type": "Feature", "tippecanoe": { "layer": "2AFC9FCCE5F81583915868198", "minzoom": 2, "maxzoom": 8 }, "properties": { "halo": 0.8, "title": "格利维辛王国", "fontsize": 12, "tyid": "304000", "oid": "103:1576922417134", "color": "#202020" }, "geometry": { "type": "Point", "coordinates": [ -3.427734, 51.672555 ] } }
{"year": "AD600",  "type": "Feature", "tippecanoe": { "layer": "2AFC9FCCE5F81583915868198", "minzoom": 2, "maxzoom": 8 }, "properties": { "halo": 0.8, "title": "格温特王国", "fontsize": 12, "tyid": "304000", "oid": "103:1576922417081", "color": "#202020" }, "geometry": { "type": "Point", "coordinates": [ -2.900391, 51.727028 ] } }
{"year": "AD600",  "type": "Feature", "tippecanoe": { "layer": "2AFC9FCCE5F81583915868198", "minzoom": 2, "maxzoom": 8 }, "properties": { "halo": 0.8, "title": "威塞克斯王国", "fontsize": 12, "tyid": "304000", "oid": "103:1535120127676", "color": "#202020" }, "geometry": { "type": "Point", "coordinates": [ -2.285156, 50.847573 ] } }
{"year": "AD600",  "type": "Feature", "tippecanoe": { "layer": "2AFC9FCCE5F81583915868198", "minzoom": 2, "maxzoom": 8 }, "properties": { "halo": 0.8, "title": "萨塞克斯王国", "fontsize": 12, "tyid": "304000", "oid": "103:1535120127673", "color": "#202020" }, "geometry": { "type": "Point", "coordinates": [ -0.527344, 51.013755 ] } }
{"year": "AD600",  "type": "Feature", "tippecanoe": { "layer": "2AFC9FCCE5F81583915868198", "minzoom": 2, "maxzoom": 8 }, "properties": { "halo": 0.8, "title": "关切人", "fontsize": 12, "tyid": "304001", "oid": "103:1576922417273", "color": "#262626" }, "geometry": { "type": "Point", "coordinates": [ -16.611328, 28.304381 ] } }
{"year": "AD600",  "type": "Feature", "tippecanoe": { "layer": "2AFC9FCCE5F81583915868198", "minzoom": 2, "maxzoom": 8 }, "properties": { "halo": 0.8, "title": "阿尔塔瓦王国", "fontsize": 12, "tyid": "304000", "oid": "103:1576922417241", "color": "#202020" }, "geometry": { "type": "Point", "coordinates": [ -1.054688, 34.885931 ] } }
{"year": "AD600",  "type": "Feature", "tippecanoe": { "layer": "2AFC9FCCE5F81583915868198", "minzoom": 2, "maxzoom": 8 }, "properties": { "halo": 0.8, "title": "曼特尼亚文化", "fontsize": 12, "tyid": "304002", "oid": "103:1576922417463", "color": "#262626" }, "geometry": { "type": "Point", "coordinates": [ -80.332031, -1.142502 ] } }
{"year": "AD600",  "type": "Feature", "tippecanoe": { "layer": "2AFC9FCCE5F81583915868198", "minzoom": 2, "maxzoom": 8 }, "properties": { "halo": 0.8, "title": "卡纳里人", "fontsize": 12, "tyid": "304001", "oid": "103:1576922417456", "color": "#262626" }, "geometry": { "type": "Point", "coordinates": [ -79.189453, -2.811371 ] } }
{"year": "AD600",  "type": "Feature", "tippecanoe": { "layer": "2AFC9FCCE5F81583915868198", "minzoom": 2, "maxzoom": 8 }, "properties": { "halo": 0.8, "title": "莫切文明", "fontsize": 12, "tyid": "304002", "oid": "103:1535120127617", "color": "#262626" }, "geometry": { "type": "Point", "coordinates": [ -79.013672, -7.623887 ] } }
{"year": "AD600",  "type": "Feature", "tippecanoe": { "layer": "2AFC9FCCE5F81583915868198", "minzoom": 2, "maxzoom": 8 }, "properties": { "halo": 0.8, "title": "维鲁文化", "fontsize": 12, "tyid": "304002", "oid": "103:1576922417032", "color": "#262626" }, "geometry": { "type": "Point", "coordinates": [ -78.837891, -8.320212 ] } }
{"year": "AD600",  "type": "Feature", "tippecanoe": { "layer": "2AFC9FCCE5F81583915868198", "minzoom": 2, "maxzoom": 8 }, "properties": { "halo": 0.8, "title": "卡哈马卡文化", "fontsize": 12, "tyid": "304002", "oid": "103:1576922417386", "color": "#262626" }, "geometry": { "type": "Point", "coordinates": [ -78.750000, -6.227934 ] } }
{"year": "AD600",  "type": "Feature", "tippecanoe": { "layer": "2AFC9FCCE5F81583915868198", "minzoom": 2, "maxzoom": 8 }, "properties": { "halo": 0.8, "title": "巴托文化", "fontsize": 12, "tyid": "304002", "oid": "103:1576922417234", "color": "#262626" }, "geometry": { "type": "Point", "coordinates": [ -71.367188, -33.211116 ] } }
{"year": "AD600",  "type": "Feature", "tippecanoe": { "layer": "2AFC9FCCE5F81583915868198", "minzoom": 2, "maxzoom": 8 }, "properties": { "halo": 0.8, "title": "塔夫文化", "fontsize": 12, "tyid": "304002", "oid": "103:1576922417063", "color": "#262626" }, "geometry": { "type": "Point", "coordinates": [ -65.654297, -26.980829 ] } }
{"year": "AD600",  "type": "Feature", "tippecanoe": { "layer": "2AFC9FCCE5F81583915868198", "minzoom": 2, "maxzoom": 8 }, "properties": { "halo": 0.8, "title": "豪什人", "fontsize": 12, "tyid": "304001", "oid": "103:1576922417029", "color": "#262626" }, "geometry": { "type": "Point", "coordinates": [ -65.917969, -54.724620 ] } }
{"year": "AD600",  "type": "Feature", "tippecanoe": { "layer": "2AFC9FCCE5F81583915868198", "minzoom": 2, "maxzoom": 8 }, "properties": { "halo": 0.8, "title": "哥得兰人", "fontsize": 12, "tyid": "304001", "oid": "103:1576922417271", "color": "#262626" }, "geometry": { "type": "Point", "coordinates": [ 18.457031, 57.515823 ] } }
{"year": "AD600",  "type": "Feature", "tippecanoe": { "layer": "2AFC9FCCE5F81583915868198", "minzoom": 2, "maxzoom": 8 }, "properties": { "halo": 0.8, "title": "埃塞克斯王国", "fontsize": 12, "tyid": "304000", "oid": "103:1535120127668", "color": "#202020" }, "geometry": { "type": "Point", "coordinates": [ 0.087891, 51.781436 ] } }
{"year": "AD600",  "type": "Feature", "tippecanoe": { "layer": "2AFC9FCCE5F81583915868198", "minzoom": 2, "maxzoom": 8 }, "properties": { "halo": 0.8, "title": "东盎格利亚王国", "fontsize": 12, "tyid": "304000", "oid": "103:1535120127665", "color": "#202020" }, "geometry": { "type": "Point", "coordinates": [ 0.966797, 52.482780 ] } }
{"year": "AD600",  "type": "Feature", "tippecanoe": { "layer": "2AFC9FCCE5F81583915868198", "minzoom": 2, "maxzoom": 8 }, "properties": { "halo": 0.8, "title": "肯特王国", "fontsize": 12, "tyid": "304000", "oid": "103:1535120127670", "color": "#202020" }, "geometry": { "type": "Point", "coordinates": [ 0.615234, 51.234407 ] } }
{"year": "AD600",  "type": "Feature", "tippecanoe": { "layer": "2AFC9FCCE5F81583915868198", "minzoom": 2, "maxzoom": 8 }, "properties": { "halo": 0.8, "title": "弗里斯兰人", "fontsize": 12, "tyid": "304001", "oid": "103:1576922416899", "color": "#262626" }, "geometry": { "type": "Point", "coordinates": [ 5.800781, 53.014783 ] } }
{"year": "AD600",  "type": "Feature", "tippecanoe": { "layer": "2AFC9FCCE5F81583915868198", "minzoom": 2, "maxzoom": 8 }, "properties": { "halo": 0.8, "title": "盎格鲁人", "fontsize": 12, "tyid": "304001", "oid": "103:1576922417615", "color": "#262626" }, "geometry": { "type": "Point", "coordinates": [ 9.492188, 54.265224 ] } }
{"year": "AD600",  "type": "Feature", "tippecanoe": { "layer": "2AFC9FCCE5F81583915868198", "minzoom": 2, "maxzoom": 8 }, "properties": { "halo": 0.8, "title": "伊芙雷亚公国", "fontsize": 12, "tyid": "304000", "oid": "103:1576922417578", "color": "#202020" }, "geometry": { "type": "Point", "coordinates": [ 8.173828, 45.644768 ] } }
{"year": "AD600",  "type": "Feature", "tippecanoe": { "layer": "2AFC9FCCE5F81583915868198", "minzoom": 2, "maxzoom": 8 }, "properties": { "halo": 0.8, "title": "贝加莫公国", "fontsize": 12, "tyid": "304000", "oid": "103:1576922417581", "color": "#202020" }, "geometry": { "type": "Point", "coordinates": [ 9.316406, 45.951150 ] } }
{"year": "AD600",  "type": "Feature", "tippecanoe": { "layer": "2AFC9FCCE5F81583915868198", "minzoom": 2, "maxzoom": 8 }, "properties": { "halo": 0.8, "title": "布雷西亚公国", "fontsize": 12, "tyid": "304000", "oid": "103:1576922417554", "color": "#202020" }, "geometry": { "type": "Point", "coordinates": [ 10.371094, 45.336702 ] } }
{"year": "AD600",  "type": "Feature", "tippecanoe": { "layer": "2AFC9FCCE5F81583915868198", "minzoom": 2, "maxzoom": 8 }, "properties": { "halo": 0.8, "title": "乌克人", "fontsize": 12, "tyid": "304001", "oid": "103:1576922417470", "color": "#262626" }, "geometry": { "type": "Point", "coordinates": [ 13.798828, 53.330873 ] } }
{"year": "AD600",  "type": "Feature", "tippecanoe": { "layer": "2AFC9FCCE5F81583915868198", "minzoom": 2, "maxzoom": 8 }, "properties": { "halo": 0.8, "title": "西加林迪亚人", "fontsize": 12, "tyid": "304001", "oid": "103:1576922417124", "color": "#262626" }, "geometry": { "type": "Point", "coordinates": [ 20.917969, 53.278353 ] } }
{"year": "AD600",  "type": "Feature", "tippecanoe": { "layer": "2AFC9FCCE5F81583915868198", "minzoom": 2, "maxzoom": 8 }, "properties": { "halo": 0.8, "title": "特兰托公国", "fontsize": 12, "tyid": "304000", "oid": "103:1576922417545", "color": "#202020" }, "geometry": { "type": "Point", "coordinates": [ 11.689453, 46.316584 ] } }
{"year": "AD600",  "type": "Feature", "tippecanoe": { "layer": "2AFC9FCCE5F81583915868198", "minzoom": 2, "maxzoom": 8 }, "properties": { "halo": 0.8, "title": "弗留利公国", "fontsize": 12, "tyid": "304000", "oid": "103:1576922417547", "color": "#202020" }, "geometry": { "type": "Point", "coordinates": [ 13.359375, 46.255847 ] } }
{"year": "AD600",  "type": "Feature", "tippecanoe": { "layer": "2AFC9FCCE5F81583915868198", "minzoom": 2, "maxzoom": 8 }, "properties": { "halo": 0.8, "title": "圣马力诺共和国", "fontsize": 12, "tyid": "304001", "oid": "103:1576922417380", "color": "#262626" }, "geometry": { "type": "Point", "coordinates": [ 12.392578, 43.961191 ] } }
{"year": "AD600",  "type": "Feature", "tippecanoe": { "layer": "2AFC9FCCE5F81583915868198", "minzoom": 2, "maxzoom": 8 }, "properties": { "halo": 0.8, "title": "斯波莱托公国", "fontsize": 12, "tyid": "304000", "oid": "103:1576922417524", "color": "#202020" }, "geometry": { "type": "Point", "coordinates": [ 13.710938, 42.293564 ] } }
{"year": "AD600",  "type": "Feature", "tippecanoe": { "layer": "2AFC9FCCE5F81583915868198", "minzoom": 2, "maxzoom": 8 }, "properties": { "halo": 0.8, "title": "贝内文托公国", "fontsize": 12, "tyid": "304000", "oid": "103:1576922417543", "color": "#202020" }, "geometry": { "type": "Point", "coordinates": [ 14.589844, 41.112469 ] } }
{"year": "AD600",  "type": "Feature", "tippecanoe": { "layer": "2AFC9FCCE5F81583915868198", "minzoom": 2, "maxzoom": 8 }, "properties": { "halo": 0.8, "title": "奥耶塞利人", "fontsize": 12, "tyid": "304001", "oid": "103:1576922417005", "color": "#262626" }, "geometry": { "type": "Point", "coordinates": [ 22.500000, 58.447733 ] } }
{"year": "AD600",  "type": "Feature", "tippecanoe": { "layer": "2AFC9FCCE5F81583915868198", "minzoom": 2, "maxzoom": 8 }, "properties": { "halo": 0.8, "title": "塞米加利亚人", "fontsize": 12, "tyid": "304001", "oid": "103:1576922416942", "color": "#262626" }, "geometry": { "type": "Point", "coordinates": [ 23.642578, 56.559482 ] } }
{"year": "AD600",  "type": "Feature", "tippecanoe": { "layer": "2AFC9FCCE5F81583915868198", "minzoom": 2, "maxzoom": 8 }, "properties": { "halo": 0.8, "title": "瑟罗尼亚人", "fontsize": 12, "tyid": "304001", "oid": "103:1576922417044", "color": "#262626" }, "geometry": { "type": "Point", "coordinates": [ 25.312500, 56.121060 ] } }
{"year": "AD600",  "type": "Feature", "tippecanoe": { "layer": "2AFC9FCCE5F81583915868198", "minzoom": 2, "maxzoom": 8 }, "properties": { "halo": 0.8, "title": "科尔基斯山中诸部", "fontsize": 12, "tyid": "304002", "oid": "103:1576922417381", "color": "#262626" }, "geometry": { "type": "Point", "coordinates": [ 40.429688, 43.389082 ] } }
{"year": "AD600",  "type": "Feature", "tippecanoe": { "layer": "2AFC9FCCE5F81583915868198", "minzoom": 2, "maxzoom": 8 }, "properties": { "halo": 0.8, "title": "萨珊伊比利亚", "fontsize": 12, "tyid": "304000", "oid": "103:1576922417550", "color": "#202020" }, "geometry": { "type": "Point", "coordinates": [ 44.648438, 41.508577 ] } }
{"year": "AD600",  "type": "Feature", "tippecanoe": { "layer": "2AFC9FCCE5F81583915868198", "minzoom": 2, "maxzoom": 8 }, "properties": { "halo": 0.8, "title": "霍纳王国", "fontsize": 12, "tyid": "304000", "oid": "103:1576922417239", "color": "#202020" }, "geometry": { "type": "Point", "coordinates": [ 4.218750, 35.603719 ] } }
{"year": "AD600",  "type": "Feature", "tippecanoe": { "layer": "2AFC9FCCE5F81583915868198", "minzoom": 2, "maxzoom": 8 }, "properties": { "halo": 0.8, "title": "多塞尔王国", "fontsize": 12, "tyid": "304000", "oid": "103:1576922417534", "color": "#202020" }, "geometry": { "type": "Point", "coordinates": [ 8.349609, 35.532226 ] } }
{"year": "AD600",  "type": "Feature", "tippecanoe": { "layer": "2AFC9FCCE5F81583915868198", "minzoom": 2, "maxzoom": 8 }, "properties": { "halo": 0.8, "title": "内门卡王国", "fontsize": 12, "tyid": "304000", "oid": "103:1576922417520", "color": "#202020" }, "geometry": { "type": "Point", "coordinates": [ 7.646484, 34.741612 ] } }
{"year": "AD600",  "type": "Feature", "tippecanoe": { "layer": "2AFC9FCCE5F81583915868198", "minzoom": 2, "maxzoom": 8 }, "properties": { "halo": 0.8, "title": "开普苏斯王国", "fontsize": 12, "tyid": "304000", "oid": "103:1576922417533", "color": "#202020" }, "geometry": { "type": "Point", "coordinates": [ 9.228516, 34.524661 ] } }
{"year": "AD600",  "type": "Feature", "tippecanoe": { "layer": "2AFC9FCCE5F81583915868198", "minzoom": 2, "maxzoom": 8 },