{"year": "AD619",  "type": "Feature", "tippecanoe": { "layer": "2AFCA08CE8D01583915844787", "minzoom": 2, "maxzoom": 8 }, "properties": { "halo": 1.6, "title": "诺顿文化", "fontsize": 12, "tyid": "304002", "oid": "103:1576575187759", "color": "#0056E7" }, "geometry": { "type": "Point", "coordinates": [ -162.949219, 65.403445 ] } }
{"year": "AD619",  "type": "Feature", "tippecanoe": { "layer": "2AFCA08CE8D01583915844787", "minzoom": 2, "maxzoom": 8 }, "properties": { "halo": 1.6, "title": "圣路易斯雷伊文化", "fontsize": 12, "tyid": "304002", "oid": "103:1576575187712", "color": "#0056E7" }, "geometry": { "type": "Point", "coordinates": [ -118.916016, 34.597042 ] } }
{"year": "AD619",  "type": "Feature", "tippecanoe": { "layer": "2AFCA08CE8D01583915844787", "minzoom": 2, "maxzoom": 8 }, "properties": { "halo": 1.6, "title": "维珍阿纳萨齐人", "fontsize": 12, "tyid": "304001", "oid": "103:1576575187755", "color": "#0056E7" }, "geometry": { "type": "Point", "coordinates": [ -113.818359, 36.879621 ] } }
{"year": "AD619",  "type": "Feature", "tippecanoe": { "layer": "2AFCA08CE8D01583915844787", "minzoom": 2, "maxzoom": 8 }, "properties": { "halo": 1.6, "title": "霍霍卡姆文化", "fontsize": 12, "tyid": "304002", "oid": "103:1576575187815", "color": "#0056E7" }, "geometry": { "type": "Point", "coordinates": [ -116.103516, 35.746512 ] } }
{"year": "AD619",  "type": "Feature", "tippecanoe": { "layer": "2AFCA08CE8D01583915844787", "minzoom": 2, "maxzoom": 8 }, "properties": { "halo": 1.6, "title": "科蒙德文化", "fontsize": 12, "tyid": "304002", "oid": "103:1576575187846", "color": "#0056E7" }, "geometry": { "type": "Point", "coordinates": [ -114.169922, 28.921631 ] } }
{"year": "AD619",  "type": "Feature", "tippecanoe": { "layer": "2AFCA08CE8D01583915844787", "minzoom": 2, "maxzoom": 8 }, "properties": { "halo": 1.6, "title": "弗里蒙特文化", "fontsize": 12, "tyid": "304002", "oid": "103:1576575187752", "color": "#0056E7" }, "geometry": { "type": "Point", "coordinates": [ -111.533203, 38.134557 ] } }
{"year": "AD619",  "type": "Feature", "tippecanoe": { "layer": "2AFCA08CE8D01583915844787", "minzoom": 2, "maxzoom": 8 }, "properties": { "halo": 1.6, "title": "斯内瓜文化", "fontsize": 12, "tyid": "304002", "oid": "103:1576575188081", "color": "#0056E7" }, "geometry": { "type": "Point", "coordinates": [ -111.357422, 34.379713 ] } }
{"year": "AD619",  "type": "Feature", "tippecanoe": { "layer": "2AFCA08CE8D01583915844787", "minzoom": 2, "maxzoom": 8 }, "properties": { "halo": 1.6, "title": "瓜伊库拉人", "fontsize": 12, "tyid": "304001", "oid": "103:1576575187725", "color": "#0056E7" }, "geometry": { "type": "Point", "coordinates": [ -111.621094, 25.165173 ] } }
{"year": "AD619",  "type": "Feature", "tippecanoe": { "layer": "2AFCA08CE8D01583915844787", "minzoom": 2, "maxzoom": 8 }, "properties": { "halo": 1.6, "title": "堪萨斯城霍普韦尔文化", "fontsize": 12, "tyid": "304002", "oid": "103:1576575188099", "color": "#0056E7" }, "geometry": { "type": "Point", "coordinates": [ -93.427734, 38.685510 ] } }
{"year": "AD619",  "type": "Feature", "tippecanoe": { "layer": "2AFCA08CE8D01583915844787", "minzoom": 2, "maxzoom": 8 }, "properties": { "halo": 1.6, "title": "福切马里尼文化", "fontsize": 12, "tyid": "304002", "oid": "103:1576575187703", "color": "#0056E7" }, "geometry": { "type": "Point", "coordinates": [ -94.042969, 33.358062 ] } }
{"year": "AD619",  "type": "Feature", "tippecanoe": { "layer": "2AFCA08CE8D01583915844787", "minzoom": 2, "maxzoom": 8 }, "properties": { "halo": 1.6, "title": "喀多语密西西比文化", "fontsize": 12, "tyid": "304002", "oid": "103:1576575187780", "color": "#0056E7" }, "geometry": { "type": "Point", "coordinates": [ -92.812500, 35.960223 ] } }
{"year": "AD619",  "type": "Feature", "tippecanoe": { "layer": "2AFCA08CE8D01583915844787", "minzoom": 2, "maxzoom": 8 }, "properties": { "halo": 1.6, "title": "贝敦文化", "fontsize": 12, "tyid": "304002", "oid": "103:1576575187880", "color": "#0056E7" }, "geometry": { "type": "Point", "coordinates": [ -90.703125, 34.379713 ] } }
{"year": "AD619",  "type": "Feature", "tippecanoe": { "layer": "2AFCA08CE8D01583915844787", "minzoom": 2, "maxzoom": 8 }, "properties": { "halo": 1.6, "title": "奇奇梅克人", "fontsize": 12, "tyid": "304001", "oid": "103:1576575188162", "color": "#0056E7" }, "geometry": { "type": "Point", "coordinates": [ -101.162109, 22.512557 ] } }
{"year": "AD619",  "type": "Feature", "tippecanoe": { "layer": "2AFCA08CE8D01583915844787", "minzoom": 2, "maxzoom": 8 }, "properties": { "halo": 1.6, "title": "华斯塔克文明", "fontsize": 12, "tyid": "304002", "oid": "103:1576575187922", "color": "#0056E7" }, "geometry": { "type": "Point", "coordinates": [ -98.613281, 22.105999 ] } }
{"year": "AD619",  "type": "Feature", "tippecanoe": { "layer": "2AFCA08CE8D01583915844787", "minzoom": 2, "maxzoom": 8 }, "properties": { "halo": 1.6, "title": "奇蒂玛察人", "fontsize": 12, "tyid": "304001", "oid": "103:1576575187959", "color": "#0056E7" }, "geometry": { "type": "Point", "coordinates": [ -91.582031, 30.448674 ] } }
{"year": "AD619",  "type": "Feature", "tippecanoe": { "layer": "2AFCA08CE8D01583915844787", "minzoom": 2, "maxzoom": 8 }, "properties": { "halo": 1.6, "title": "萨波特克文明", "fontsize": 12, "tyid": "304002", "oid": "103:1576575187859", "color": "#0056E7" }, "geometry": { "type": "Point", "coordinates": [ -96.064453, 16.888660 ] } }
{"year": "AD619",  "type": "Feature", "tippecanoe": { "layer": "2AFCA08CE8D01583915844787", "minzoom": 2, "maxzoom": 8 }, "properties": { "halo": 1.6, "title": "贝奥图克人", "fontsize": 12, "tyid": "304001", "oid": "103:1576575187961", "color": "#0056E7" }, "geometry": { "type": "Point", "coordinates": [ -56.074219, 48.748945 ] } }
{"year": "AD619",  "type": "Feature", "tippecanoe": { "layer": "2AFCA08CE8D01583915844787", "minzoom": 2, "maxzoom": 8 }, "properties": { "halo": 1.6, "title": "米勒文化", "fontsize": 12, "tyid": "304002", "oid": "103:1576575187882", "color": "#0056E7" }, "geometry": { "type": "Point", "coordinates": [ -87.802734, 34.379713 ] } }
{"year": "AD619",  "type": "Feature", "tippecanoe": { "layer": "2AFCA08CE8D01583915844787", "minzoom": 2, "maxzoom": 8 }, "properties": { "halo": 1.6, "title": "特洛伊维尔文化", "fontsize": 12, "tyid": "304002", "oid": "103:1576575188028", "color": "#0056E7" }, "geometry": { "type": "Point", "coordinates": [ -89.912109, 32.101190 ] } }
{"year": "AD619",  "type": "Feature", "tippecanoe": { "layer": "2AFCA08CE8D01583915844787", "minzoom": 2, "maxzoom": 8 }, "properties": { "halo": 1.6, "title": "斯威夫特溪文化", "fontsize": 12, "tyid": "304002", "oid": "103:1576575187871", "color": "#0056E7" }, "geometry": { "type": "Point", "coordinates": [ -84.814453, 32.175612 ] } }
{"year": "AD619",  "type": "Feature", "tippecanoe": { "layer": "2AFCA08CE8D01583915844787", "minzoom": 2, "maxzoom": 8 }, "properties": { "halo": 1.6, "title": "丹河文化", "fontsize": 12, "tyid": "304002", "oid": "103:1576575187760", "color": "#0056E7" }, "geometry": { "type": "Point", "coordinates": [ -81.914062, 37.509726 ] } }
{"year": "AD619",  "type": "Feature", "tippecanoe": { "layer": "2AFCA08CE8D01583915844787", "minzoom": 2, "maxzoom": 8 }, "properties": { "halo": 1.6, "title": "德普特福德文化", "fontsize": 12, "tyid": "304002", "oid": "103:1576575187733", "color": "#0056E7" }, "geometry": { "type": "Point", "coordinates": [ -79.628906, 33.431441 ] } }
{"year": "AD619",  "type": "Feature", "tippecanoe": { "layer": "2AFCA08CE8D01583915844787", "minzoom": 2, "maxzoom": 8 }, "properties": { "halo": 1.6, "title": "圣罗莎-斯威夫特溪文化", "fontsize": 12, "tyid": "304002", "oid": "103:1576575187915", "color": "#0056E7" }, "geometry": { "type": "Point", "coordinates": [ -86.748047, 30.977609 ] } }
{"year": "AD619",  "type": "Feature", "tippecanoe": { "layer": "2AFCA08CE8D01583915844787", "minzoom": 2, "maxzoom": 8 }, "properties": { "halo": 1.6, "title": "维登岛文化", "fontsize": 12, "tyid": "304002", "oid": "103:1576575187910", "color": "#0056E7" }, "geometry": { "type": "Point", "coordinates": [ -84.902344, 30.524413 ] } }
{"year": "AD619",  "type": "Feature", "tippecanoe": { "layer": "2AFCA08CE8D01583915844787", "minzoom": 2, "maxzoom": 8 }, "properties": { "halo": 1.6, "title": "泰诺人", "fontsize": 12, "tyid": "304001", "oid": "103:1576575187968", "color": "#0056E7" }, "geometry": { "type": "Point", "coordinates": [ -79.628906, 22.105999 ] } }
{"year": "AD619",  "type": "Feature", "tippecanoe": { "layer": "2AFCA08CE8D01583915844787", "minzoom": 2, "maxzoom": 8 }, "properties": { "halo": 1.6, "title": "佩奇人", "fontsize": 12, "tyid": "304001", "oid": "103:1576575188166", "color": "#0056E7" }, "geometry": { "type": "Point", "coordinates": [ -84.814453, 15.368950 ] } }
{"year": "AD619",  "type": "Feature", "tippecanoe": { "layer": "2AFCA08CE8D01583915844787", "minzoom": 2, "maxzoom": 8 }, "properties": { "halo": 1.6, "title": "兹努文化", "fontsize": 12, "tyid": "304002", "oid": "103:1576575187656", "color": "#0056E7" }, "geometry": { "type": "Point", "coordinates": [ -75.585938, 8.581021 ] } }
{"year": "AD619",  "type": "Feature", "tippecanoe": { "layer": "2AFCA08CE8D01583915844787", "minzoom": 2, "maxzoom": 8 }, "properties": { "halo": 1.6, "title": "埃雷拉时期", "fontsize": 12, "tyid": "304002", "oid": "103:1576575188171", "color": "#0056E7" }, "geometry": { "type": "Point", "coordinates": [ -73.037109, 5.965754 ] } }
{"year": "AD619",  "type": "Feature", "tippecanoe": { "layer": "2AFCA08CE8D01583915844787", "minzoom": 2, "maxzoom": 8 }, "properties": { "halo": 1.6, "title": "伊奈里人", "fontsize": 12, "tyid": "304001", "oid": "103:1576575187948", "color": "#0056E7" }, "geometry": { "type": "Point", "coordinates": [ -61.787109, 8.754795 ] } }
{"year": "AD619",  "type": "Feature", "tippecanoe": { "layer": "2AFCA08CE8D01583915844787", "minzoom": 2, "maxzoom": 8 }, "properties": { "halo": 1.8, "title": "达尔里阿达王国", "fontsize": 12, "tyid": "304000", "oid": "103:1576575187840", "color": "#0056E7" }, "geometry": { "type": "Point", "coordinates": [ -5.009766, 56.072035 ] } }
{"year": "AD619",  "type": "Feature", "tippecanoe": { "layer": "2AFCA08CE8D01583915844787", "minzoom": 2, "maxzoom": 8 }, "properties": { "halo": 1.8, "title": "皮克特诸王国", "fontsize": 12, "tyid": "304000", "oid": "103:1576575187744", "color": "#0056E7" }, "geometry": { "type": "Point", "coordinates": [ -3.691406, 57.040730 ] } }
{"year": "AD619",  "type": "Feature", "tippecanoe": { "layer": "2AFCA08CE8D01583915844787", "minzoom": 2, "maxzoom": 8 }, "properties": { "halo": 1.8, "title": "康诺特诸王国", "fontsize": 12, "tyid": "304000", "oid": "103:1576575187643", "color": "#0056E7" }, "geometry": { "type": "Point", "coordinates": [ -8.876953, 53.800651 ] } }
{"year": "AD619",  "type": "Feature", "tippecanoe": { "layer": "2AFCA08CE8D01583915844787", "minzoom": 2, "maxzoom": 8 }, "properties": { "halo": 1.6, "title": "盖尔人", "fontsize": 12, "tyid": "304001", "oid": "103:1576575187821", "color": "#0056E7" }, "geometry": { "type": "Point", "coordinates": [ -6.943359, 53.173119 ] } }
{"year": "AD619",  "type": "Feature", "tippecanoe": { "layer": "2AFCA08CE8D01583915844787", "minzoom": 2, "maxzoom": 8 }, "properties": { "halo": 1.8, "title": "明斯特王国", "fontsize": 12, "tyid": "304000", "oid": "103:1576575187789", "color": "#0056E7" }, "geometry": { "type": "Point", "coordinates": [ -8.701172, 52.375599 ] } }
{"year": "AD619",  "type": "Feature", "tippecanoe": { "layer": "2AFCA08CE8D01583915844787", "minzoom": 2, "maxzoom": 8 }, "properties": { "halo": 1.6, "title": "凯尔特布立吞人", "fontsize": 12, "tyid": "304001", "oid": "103:1576575187816", "color": "#0056E7" }, "geometry": { "type": "Point", "coordinates": [ -2.548828, 53.120405 ] } }
{"year": "AD619",  "type": "Feature", "tippecanoe": { "layer": "2AFCA08CE8D01583915844787", "minzoom": 2, "maxzoom": 8 }, "properties": { "halo": 1.6, "title": "盎格鲁-撒克逊人", "fontsize": 12, "tyid": "304001", "oid": "103:1576575187825", "color": "#0056E7" }, "geometry": { "type": "Point", "coordinates": [ -1.757812, 51.289406 ] } }
{"year": "AD619",  "type": "Feature", "tippecanoe": { "layer": "2AFCA08CE8D01583915844787", "minzoom": 2, "maxzoom": 8 }, "properties": { "halo": 1.6, "title": "杰内-杰诺文化三期", "fontsize": 12, "tyid": "304002", "oid": "103:1576575187931", "color": "#0056E7" }, "geometry": { "type": "Point", "coordinates": [ -3.779297, 13.923404 ] } }
{"year": "AD619",  "type": "Feature", "tippecanoe": { "layer": "2AFCA08CE8D01583915844787", "minzoom": 2, "maxzoom": 8 }, "properties": { "halo": 1.6, "title": "米拉格罗-克韦多文化", "fontsize": 12, "tyid": "304002", "oid": "103:1576575187667", "color": "#0056E7" }, "geometry": { "type": "Point", "coordinates": [ -79.804688, -2.108899 ] } }
{"year": "AD619",  "type": "Feature", "tippecanoe": { "layer": "2AFCA08CE8D01583915844787", "minzoom": 2, "maxzoom": 8 }, "properties": { "halo": 1.6, "title": "基图文化", "fontsize": 12, "tyid": "304002", "oid": "103:1576575187632", "color": "#0056E7" }, "geometry": { "type": "Point", "coordinates": [ -78.222656, -0.966751 ] } }
{"year": "AD619",  "type": "Feature", "tippecanoe": { "layer": "2AFCA08CE8D01583915844787", "minzoom": 2, "maxzoom": 8 }, "properties": { "halo": 1.6, "title": "阿塔卡马人", "fontsize": 12, "tyid": "304001", "oid": "103:1576575187767", "color": "#0056E7" }, "geometry": { "type": "Point", "coordinates": [ -69.082031, -25.085599 ] } }
{"year": "AD619",  "type": "Feature", "tippecanoe": { "layer": "2AFCA08CE8D01583915844787", "minzoom": 2, "maxzoom": 8 }, "properties": { "halo": 1.6, "title": "昌戈人", "fontsize": 12, "tyid": "304001", "oid": "103:1576575188069", "color": "#0056E7" }, "geometry": { "type": "Point", "coordinates": [ -70.136719, -26.902477 ] } }
{"year": "AD619",  "type": "Feature", "tippecanoe": { "layer": "2AFCA08CE8D01583915844787", "minzoom": 2, "maxzoom": 8 }, "properties": { "halo": 1.6, "title": "阿拉米托文化", "fontsize": 12, "tyid": "304002", "oid": "103:1576575187766", "color": "#0056E7" }, "geometry": { "type": "Point", "coordinates": [ -67.851562, -26.588527 ] } }
{"year": "AD619",  "type": "Feature", "tippecanoe": { "layer": "2AFCA08CE8D01583915844787", "minzoom": 2, "maxzoom": 8 }, "properties": { "halo": 1.6, "title": "埃尔莫尔文化", "fontsize": 12, "tyid": "304002", "oid": "103:1576575188060", "color": "#0056E7" }, "geometry": { "type": "Point", "coordinates": [ -70.927734, -30.675715 ] } }
{"year": "AD619",  "type": "Feature", "tippecanoe": { "layer": "2AFCA08CE8D01583915844787", "minzoom": 2, "maxzoom": 8 }, "properties": { "halo": 1.6, "title": "洛勒洛文化", "fontsize": 12, "tyid": "304002", "oid": "103:1576575188070", "color": "#0056E7" }, "geometry": { "type": "Point", "coordinates": [ -70.664062, -33.724340 ] } }
{"year": "AD619",  "type": "Feature", "tippecanoe": { "layer": "2AFCA08CE8D01583915844787", "minzoom": 2, "maxzoom": 8 }, "properties": { "halo": 1.6, "title": "马普切人", "fontsize": 12, "tyid": "304001", "oid": "103:1576575188024", "color": "#0056E7" }, "geometry": { "type": "Point", "coordinates": [ -71.455078, -38.959409 ] } }
{"year": "AD619",  "type": "Feature", "tippecanoe": { "layer": "2AFCA08CE8D01583915844787", "minzoom": 2, "maxzoom": 8 }, "properties": { "halo": 1.6, "title": "希德拉里卡文化", "fontsize": 12, "tyid": "304002", "oid": "103:1576575187936", "color": "#0056E7" }, "geometry": { "type": "Point", "coordinates": [ -66.005859, -12.297068 ] } }
{"year": "AD619",  "type": "Feature", "tippecanoe": { "layer": "2AFCA08CE8D01583915844787", "minzoom": 2, "maxzoom": 8 }, "properties": { "halo": 1.6, "title": "摩克索人", "fontsize": 12, "tyid": "304001", "oid": "103:1576575188165", "color": "#0056E7" }, "geometry": { "type": "Point", "coordinates": [ -65.830078, -13.923404 ] } }
{"year": "AD619",  "type": "Feature", "tippecanoe": { "layer": "2AFCA08CE8D01583915844787", "minzoom": 2, "maxzoom": 8 }, "properties": { "halo": 1.6, "title": "马拉约文化", "fontsize": 12, "tyid": "304002", "oid": "103:1576575187973", "color": "#0056E7" }, "geometry": { "type": "Point", "coordinates": [ -50.712891, -2.723583 ] } }
{"year": "AD619",  "type": "Feature", "tippecanoe": { "layer": "2AFCA08CE8D01583915844787", "minzoom": 2, "maxzoom": 8 }, "properties": { "halo": 1.6, "title": "沙内斯人", "fontsize": 12, "tyid": "304001", "oid": "103:1576575187847", "color": "#0056E7" }, "geometry": { "type": "Point", "coordinates": [ -65.917969, -22.105999 ] } }
{"year": "AD619",  "type": "Feature", "tippecanoe": { "layer": "2AFCA08CE8D01583915844787", "minzoom": 2, "maxzoom": 8 }, "properties": { "halo": 1.6, "title": "拉坎德拉里亚文化", "fontsize": 12, "tyid": "304002", "oid": "103:1576575187750", "color": "#0056E7" }, "geometry": { "type": "Point", "coordinates": [ -65.390625, -25.720735 ] } }
{"year": "AD619",  "type": "Feature", "tippecanoe": { "layer": "2AFCA08CE8D01583915844787", "minzoom": 2, "maxzoom": 8 }, "properties": { "halo": 1.6, "title": "康多拉瓦西文化", "fontsize": 12, "tyid": "304002", "oid": "103:1576575188177", "color": "#0056E7" }, "geometry": { "type": "Point", "coordinates": [ -66.708984, -27.293689 ] } }
{"year": "AD619",  "type": "Feature", "tippecanoe": { "layer": "2AFCA08CE8D01583915844787", "minzoom": 2, "maxzoom": 8 }, "properties": { "halo": 1.6, "title": "拉加瓜文化", "fontsize": 12, "tyid": "304002", "oid": "103:1576575187865", "color": "#0056E7" }, "geometry": { "type": "Point", "coordinates": [ -66.796875, -29.458731 ] } }
{"year": "AD619",  "type": "Feature", "tippecanoe": { "layer": "2AFCA08CE8D01583915844787", "minzoom": 2, "maxzoom": 8 }, "properties": { "halo": 1.6, "title": "拉斯梅塞德斯文化", "fontsize": 12, "tyid": "304002", "oid": "103:1576575187879", "color": "#0056E7" }, "geometry": { "type": "Point", "coordinates": [ -63.808594, -27.605671 ] } }
{"year": "AD619",  "type": "Feature", "tippecanoe": { "layer": "2AFCA08CE8D01583915844787", "minzoom": 2, "maxzoom": 8 }, "properties": { "halo": 1.6, "title": "特胡尔切人", "fontsize": 12, "tyid": "304001", "oid": "103:1576575187842", "color": "#0056E7" }, "geometry": { "type": "Point", "coordinates": [ -70.751953, -50.176898 ] } }
{"year": "AD619",  "type": "Feature", "tippecanoe": { "layer": "2AFCA08CE8D01583915844787", "minzoom": 2, "maxzoom": 8 }, "properties": { "halo": 1.6, "title": "塞尔克南人", "fontsize": 12, "tyid": "304001", "oid": "103:1576575187728", "color": "#0056E7" }, "geometry": { "type": "Point", "coordinates": [ -68.378906, -53.696706 ] } }
{"year": "AD619",  "type": "Feature", "tippecanoe": { "layer": "2AFCA08CE8D01583915844787", "minzoom": 2, "maxzoom": 8 }, "properties": { "halo": 1.6, "title": "雅干人", "fontsize": 12, "tyid": "304001", "oid": "103:1576575188057", "color": "#0056E7" }, "geometry": { "type": "Point", "coordinates": [ -68.554688, -54.521081 ] } }
{"year": "AD619",  "type": "Feature", "tippecanoe": { "layer": "2AFCA08CE8D01583915844787", "minzoom": 2, "maxzoom": 8 }, "properties": { "halo": 1.6, "title": "朱特人", "fontsize": 12, "tyid": "304001", "oid": "103:1576575187736", "color": "#0056E7" }, "geometry": { "type": "Point", "coordinates": [ 9.316406, 56.267761 ] } }
{"year": "AD619",  "type": "Feature", "tippecanoe": { "layer": "2AFCA08CE8D01583915844787", "minzoom": 2, "maxzoom": 8 }, "properties": { "halo": 1.6, "title": "耶阿特人", "fontsize": 12, "tyid": "304001", "oid": "103:1576575187644", "color": "#0056E7" }, "geometry": { "type": "Point", "coordinates": [ 13.710938, 57.657158 ] } }
{"year": "AD619",  "type": "Feature", "tippecanoe": { "layer": "2AFCA08CE8D01583915844787", "minzoom": 2, "maxzoom": 8 }, "properties": { "halo": 1.6, "title": "丹麦人", "fontsize": 12, "tyid": "304001", "oid": "103:1576575188023", "color": "#0056E7" }, "geometry": { "type": "Point", "coordinates": [ 13.447266, 55.875311 ] } }
{"year": "AD619",  "type": "Feature", "tippecanoe": { "layer": "2AFCA08CE8D01583915844787", "minzoom": 2, "maxzoom": 8 }, "properties": { "halo": 1.6, "title": "库洛尼亚人", "fontsize": 12, "tyid": "304001", "oid": "103:1576575187741", "color": "#0056E7" }, "geometry": { "type": "Point", "coordinates": [ 21.972656, 56.607885 ] } }
{"year": "AD619",  "type": "Feature", "tippecanoe": { "layer": "2AFCA08CE8D01583915844787", "minzoom": 2, "maxzoom": 8 }, "properties": { "halo": 1.6, "title": "萨克森人", "fontsize": 12, "tyid": "304001", "oid": "103:1576575187958", "color": "#0056E7" }, "geometry": { "type": "Point", "coordinates": [ 8.789062, 52.749594 ] } }
{"year": "AD619",  "type": "Feature", "tippecanoe": { "layer": "2AFCA08CE8D01583915844787", "minzoom": 2, "maxzoom": 8 }, "properties": { "halo": 1.6, "title": "图林根人", "fontsize": 12, "tyid": "304001", "oid": "103:1576575187598", "color": "#0056E7" }, "geometry": { "type": "Point", "coordinates": [ 10.546875, 52.106505 ] } }
{"year": "AD619",  "type": "Feature", "tippecanoe": { "layer": "2AFCA08CE8D01583915844787", "minzoom": 2, "maxzoom": 8 }, "properties": { "halo": 1.6, "title": "欧波里特人", "fontsize": 12, "tyid": "304001", "oid": "103:1576575187805", "color": "#0056E7" }, "geometry": { "type": "Point", "coordinates": [ 11.689453, 53.748711 ] } }
{"year": "AD619",  "type": "Feature", "tippecanoe": { "layer": "2AFCA08CE8D01583915844787", "minzoom": 2, "maxzoom": 8 }, "properties": { "halo": 1.6, "title": "维莱蒂人", "fontsize": 12, "tyid": "304001", "oid": "103:1576575187605", "color": "#0056E7" }, "geometry": { "type": "Point", "coordinates": [ 13.095703, 52.589701 ] } }
{"year": "AD619",  "type": "Feature", "tippecanoe": { "layer": "2AFCA08CE8D01583915844787", "minzoom": 2, "maxzoom": 8 }, "properties": { "halo": 1.6, "title": "波美拉尼亚人", "fontsize": 12, "tyid": "304001", "oid": "103:1576575187851", "color": "#0056E7" }, "geometry": { "type": "Point", "coordinates": [ 16.611328, 53.748711 ] } }
{"year": "AD619",  "type": "Feature", "tippecanoe": { "layer": "2AFCA08CE8D01583915844787", "minzoom": 2, "maxzoom": 8 }, "properties": { "halo": 1.6, "title": "白塞尔维亚人", "fontsize": 12, "tyid": "304001", "oid": "103:1576575188101", "color": "#0056E7" }, "geometry": { "type": "Point", "coordinates": [ 14.677734, 51.454007 ] } }
{"year": "AD619",  "type": "Feature", "tippecanoe": { "layer": "2AFCA08CE8D01583915844787", "minzoom": 2, "maxzoom": 8 }, "properties": { "halo": 1.6, "title": "波西米亚人", "fontsize": 12, "tyid": "304001", "oid": "103:1576575187602", "color": "#0056E7" }, "geometry": { "type": "Point", "coordinates": [ 14.414062, 49.894634 ] } }
{"year": "AD619",  "type": "Feature", "tippecanoe": { "layer": "2AFCA08CE8D01583915844787", "minzoom": 2, "maxzoom": 8 }, "properties": { "halo": 1.6, "title": "西里西亚人", "fontsize": 12, "tyid": "304001", "oid": "103:1576575188151", "color": "#0056E7" }, "geometry": { "type": "Point", "coordinates": [ 16.787109, 50.736455 ] } }
{"year": "AD619",  "type": "Feature", "tippecanoe": { "layer": "2AFCA08CE8D01583915844787", "minzoom": 2, "maxzoom": 8 }, "properties": { "halo": 1.6, "title": "古普鲁士人", "fontsize": 12, "tyid": "304001", "oid": "103:1576575187866", "color": "#0056E7" }, "geometry": { "type": "Point", "coordinates": [ 20.478516, 54.162434 ] } }
{"year": "AD619",  "type": "Feature", "tippecanoe": { "layer": "2AFCA08CE8D01583915844787", "minzoom": 2, "maxzoom": 8 }, "properties": { "halo": 1.6, "title": "西波里安人", "fontsize": 12, "tyid": "304001", "oid": "103:1576575188154", "color": "#0056E7" }, "geometry": { "type": "Point", "coordinates": [ 17.138672, 52.052490 ] } }
{"year": "AD619",  "type": "Feature", "tippecanoe": { "layer": "2AFCA08CE8D01583915844787", "minzoom": 2, "maxzoom": 8 }, "properties": { "halo": 1.6, "title": "摩拉维亚人", "fontsize": 12, "tyid": "304001", "oid": "103:1576575187607", "color": "#0056E7" }, "geometry": { "type": "Point", "coordinates": [ 16.875000, 49.152970 ] } }
{"year": "AD619",  "type": "Feature", "tippecanoe": { "layer": "2AFCA08CE8D01583915844787", "minzoom": 2, "maxzoom": 8 }, "properties": { "halo": 1.6, "title": "马索维亚人", "fontsize": 12, "tyid": "304001", "oid": "103:1576575188031", "color": "#0056E7" }, "geometry": { "type": "Point", "coordinates": [ 20.039062, 52.321911 ] } }
{"year": "AD619",  "type": "Feature", "tippecanoe": { "layer": "2AFCA08CE8D01583915844787", "minzoom": 2, "maxzoom": 8 }, "properties": { "halo": 1.6, "title": "维斯图兰人", "fontsize": 12, "tyid": "304001", "oid": "103:1576575187779", "color": "#0056E7" }, "geometry": { "type": "Point", "coordinates": [ 20.742188, 50.401515 ] } }
{"year": "AD619",  "type": "Feature", "tippecanoe": { "layer": "2AFCA08CE8D01583915844787", "minzoom": 2, "maxzoom": 8 }, "properties": { "halo": 1.8, "title": "巴伐利亚公国", "fontsize": 12, "tyid": "304000", "oid": "103:1576575187603", "color": "#0056E7" }, "geometry": { "type": "Point", "coordinates": [ 13.359375, 47.872144 ] } }
{"year": "AD619",  "type": "Feature", "tippecanoe": { "layer": "2AFCA08CE8D01583915844787", "minzoom": 2, "maxzoom": 8 }, "properties": { "halo": 1.6, "title": "古爱沙尼亚人", "fontsize": 12, "tyid": "304001", "oid": "103:1576575187707", "color": "#0056E7" }, "geometry": { "type": "Point", "coordinates": [ 25.576172, 58.995311 ] } }
{"year": "AD619",  "type": "Feature", "tippecanoe": { "layer": "2AFCA08CE8D01583915844787", "minzoom": 2, "maxzoom": 8 }, "properties": { "halo": 1.6, "title": "利沃尼亚人", "fontsize": 12, "tyid": "304001", "oid": "103:1576575187747", "color": "#0056E7" }, "geometry": { "type": "Point", "coordinates": [ 26.191406, 58.077876 ] } }
{"year": "AD619",  "type": "Feature", "tippecanoe": { "layer": "2AFCA08CE8D01583915844787", "minzoom": 2, "maxzoom": 8 }, "properties": { "halo": 1.6, "title": "拉特加莱人", "fontsize": 12, "tyid": "304001", "oid": "103:1576575187837", "color": "#0056E7" }, "geometry": { "type": "Point", "coordinates": [ 26.542969, 56.944974 ] } }
{"year": "AD619",  "type": "Feature", "tippecanoe": { "layer": "2AFCA08CE8D01583915844787", "minzoom": 2, "maxzoom": 8 }, "properties": { "halo": 1.6, "title": "沃茨人", "fontsize": 12, "tyid": "304001", "oid": "103:1576575187949", "color": "#0056E7" }, "geometry": { "type": "Point", "coordinates": [ 29.794922, 59.040555 ] } }
{"year": "AD619",  "type": "Feature", "tippecanoe": { "layer": "2AFCA08CE8D01583915844787", "minzoom": 2, "maxzoom": 8 }, "properties": { "halo": 1.6, "title": "克里维奇人", "fontsize": 12, "tyid": "304001", "oid": "103:1576575187658", "color": "#0056E7" }, "geometry": { "type": "Point", "coordinates": [ 31.201172, 56.944974 ] } }
{"year": "AD619",  "type": "Feature", "tippecanoe": { "layer": "2AFCA08CE8D01583915844787", "minzoom": 2, "maxzoom": 8 }, "properties": { "halo": 1.6, "title": "莫拉玛人", "fontsize": 12, "tyid": "304001", "oid": "103:1576575187800", "color": "#0056E7" }, "geometry": { "type": "Point", "coordinates": [ 42.187500, 55.875311 ] } }
{"year": "AD619",  "type": "Feature", "tippecanoe": { "layer": "2AFCA08CE8D01583915844787", "minzoom": 2, "maxzoom": 8 }, "properties": { "halo": 1.6, "title": "萨莫吉希亚人", "fontsize": 12, "tyid": "304001", "oid": "103:1576575187740", "color": "#0056E7" }, "geometry": { "type": "Point", "coordinates": [ 23.203125, 55.578345 ] } }
{"year": "AD619",  "type": "Feature", "tippecanoe": { "layer": "2AFCA08CE8D01583915844787", "minzoom": 2, "maxzoom": 8 }, "properties": { "halo": 1.6, "title": "古立陶宛人", "fontsize": 12, "tyid": "304001", "oid": "103:1576575188086", "color": "#0056E7" }, "geometry": { "type": "Point", "coordinates": [ 25.224609, 54.265224 ] } }
{"year": "AD619",  "type": "Feature", "tippecanoe": { "layer": "2AFCA08CE8D01583915844787", "minzoom": 2, "maxzoom": 8 }, "properties": { "halo": 1.6, "title": "约特文基人", "fontsize": 12, "tyid": "304001", "oid": "103:1576575188093", "color": "#0056E7" }, "geometry": { "type": "Point", "coordinates": [ 23.027344, 53.956086 ] } }
{"year": "AD619",  "type": "Feature", "tippecanoe": { "layer": "2AFCA08CE8D01583915844787", "minzoom": 2, "maxzoom": 8 }, "properties": { "halo": 1.6, "title": "奥克施泰提亚人", "fontsize": 12, "tyid": "304001", "oid": "103:1576575187641", "color": "#0056E7" }, "geometry": { "type": "Point", "coordinates": [ 27.070312, 55.078367 ] } }
{"year": "AD619",  "type": "Feature", "tippecanoe": { "layer": "2AFCA08CE8D01583915844787", "minzoom": 2, "maxzoom": 8 }, "properties": { "halo": 1.6, "title": "斯拉夫人", "fontsize": 12, "tyid": "304001", "oid": "103:1576575187660", "color": "#0056E7" }, "geometry": { "type": "Point", "coordinates": [ 27.509766, 53.067627 ] } }
{"year": "AD619",  "type": "Feature", "tippecanoe": { "layer": "2AFCA08CE8D01583915844787", "minzoom": 2, "maxzoom": 8 }, "properties": { "halo": 1.6, "title": "伦代斯人", "fontsize": 12, "tyid": "304001", "oid": "103:1576575187812", "color": "#0056E7" }, "geometry": { "type": "Point", "coordinates": [ 23.027344, 51.289406 ] } }
{"year": "AD619",  "type": "Feature", "tippecanoe": { "layer": "2AFCA08CE8D01583915844787", "minzoom": 2, "maxzoom": 8 }, "properties": { "halo": 1.6, "title": "沃里尼亚人", "fontsize": 12, "tyid": "304001", "oid": "103:1576575187797", "color": "#0056E7" }, "geometry": { "type": "Point", "coordinates": [ 25.488281, 51.289406 ] } }
{"year": "AD619",  "type": "Feature", "tippecanoe": { "layer": "2AFCA08CE8D01583915844787", "minzoom": 2, "maxzoom": 8 }, "properties": { "halo": 1.6, "title": "第聂伯河波罗的人", "fontsize": 12, "tyid": "304001", "oid": "103:1576575187835", "color": "#0056E7" }, "geometry": { "type": "Point", "coordinates": [ 30.498047, 54.927142 ] } }
{"year": "AD619",  "type": "Feature", "tippecanoe": { "layer": "2AFCA08CE8D01583915844787", "minzoom": 2, "maxzoom": 8 }, "properties": { "halo": 1.6, "title": "拉迪米奇人", "fontsize": 12, "tyid": "304001", "oid": "103:1576575187868", "color": "#0056E7" }, "geometry": { "type": "Point", "coordinates": [ 32.255859, 52.802761 ] } }
{"year": "AD619",  "type": "Feature", "tippecanoe": { "layer": "2AFCA08CE8D01583915844787", "minzoom": 2, "maxzoom": 8 }, "properties": { "halo": 1.6, "title": "德列夫利安人", "fontsize": 12, "tyid": "304001", "oid": "103:1576575187832", "color": "#0056E7" }, "geometry": { "type": "Point", "coordinates": [ 28.300781, 51.289406 ] } }
{"year": "AD619",  "type": "Feature", "tippecanoe": { "layer": "2AFCA08CE8D01583915844787", "minzoom": 2, "maxzoom": 8 }, "properties": { "halo": 1.6, "title": "东波里安人", "fontsize": 12, "tyid": "304001", "oid": "103:1576575187771", "color": "#0056E7" }, "geometry": { "type": "Point", "coordinates": [ 31.376953, 50.345460 ] } }
{"year": "AD619",  "type": "Feature", "tippecanoe": { "layer": "2AFCA08CE8D01583915844787", "minzoom": 2, "maxzoom": 8 }, "properties": { "halo": 1.6, "title": "东加林迪亚人", "fontsize": 12, "tyid": "304001", "oid": "103:1576575187811", "color": "#0056E7" }, "geometry": { "type": "Point", "coordinates": [ 33.837891, 55.028022 ] } }
{"year": "AD619",  "type": "Feature", "tippecanoe": { "layer": "2AFCA08CE8D01583915844787", "minzoom": 2, "maxzoom": 8 }, "properties": { "halo": 1.6, "title": "米舒拉人", "fontsize": 12, "tyid": "304001", "oid": "103:1576575188067", "color": "#0056E7" }, "geometry": { "type": "Point", "coordinates": [ 38.583984, 54.724620 ] } }
{"year": "AD619",  "type": "Feature", "tippecanoe": { "layer": "2AFCA08CE8D01583915844787", "minzoom": 2, "maxzoom": 8 }, "properties": { "halo": 1.6, "title": "欧诺古尔人", "fontsize": 12, "tyid": "304001", "oid": "103:1576575188085", "color": "#0056E7" }, "geometry": { "type": "Point", "coordinates": [ 38.583984, 51.289406 ] } }
{"year": "AD619",  "type": "Feature", "tippecanoe": { "layer": "2AFCA08CE8D01583915844787", "minzoom": 2, "maxzoom": 8 }, "properties": { "halo": 1.6, "title": "莫尔多维亚人", "fontsize": 12, "tyid": "304001", "oid": "103:1576575187913", "color": "#0056E7" }, "geometry": { "type": "Point", "coordinates": [ 44.296875, 54.927142 ] } }
{"year": "AD619",  "type": "Feature", "tippecanoe": { "layer": "2AFCA08CE8D01583915844787", "minzoom": 2, "maxzoom": 8 }, "properties": { "halo": 1.6, "title": "克里米亚哥特人", "fontsize": 12, "tyid": "304001", "oid": "103:1576575187801", "color": "#0056E7" }, "geometry": { "type": "Point", "coordinates": [ 34.189453, 46.073231 ] } }
{"year": "AD619",  "type": "Feature", "tippecanoe": { "layer": "2AFCA08CE8D01583915844787", "minzoom": 2, "maxzoom": 8 }, "properties": { "halo": 1.6, "title": "切尔克斯人", "fontsize": 12, "tyid": "304001", "oid": "103:1576575187635", "color": "#0056E7" }, "geometry": { "type": "Point", "coordinates": [ 40.781250, 44.276671 ] } }
{"year": "AD619",  "type": "Feature", "tippecanoe": { "layer": "2AFCA08CE8D01583915844787", "minzoom": 2, "maxzoom": 8 }, "properties": { "halo": 1.6, "title": "阿兰人", "fontsize": 12, "tyid": "304001", "oid": "103:1576575188095", "color": "#0056E7" }, "geometry": { "type": "Point", "coordinates": [ 44.824219, 43.133061 ] } }
{"year": "AD619",  "type": "Feature", "tippecanoe": { "layer": "2AFCA08CE8D01583915844787", "minzoom": 2, "maxzoom": 8 }, "properties": { "halo": 1.8, "title": "拉基卡王国", "fontsize": 12, "tyid": "304000", "oid": "103:1576575188311", "color": "#0056E7" }, "geometry": { "type": "Point", "coordinates": [ 42.275391, 42.553080 ] } }
{"year": "AD619",  "type": "Feature", "tippecanoe": { "layer": "2AFCA08CE8D01583915844787", "minzoom": 2, "maxzoom": 8 }, "properties": { "halo": 1.8, "title": "奥赛尼斯王国", "fontsize": 12, "tyid": "304000", "oid": "103:1576575187934", "color": "#0056E7" }, "geometry": { "type": "Point", "coordinates": [ 1.406250, 35.603719 ] } }
{"year": "AD619",  "type": "Feature", "tippecanoe": { "layer": "2AFCA08CE8D01583915844787", "minzoom": 2, "maxzoom": 8 }, "properties": { "halo": 1.6, "title": "盖图里人", "fontsize": 12, "tyid": "304001", "oid": "103:1576575187969", "color": "#0056E7" }, "geometry": { "type": "Point", "coordinates": [ 3.427734, 33.870416 ] } }
{"year": "AD619",  "type": "Feature", "tippecanoe": { "layer": "2AFCA08CE8D01583915844787", "minzoom": 2, "maxzoom": 8 }, "properties": { "halo": 1.8, "title": "奥拉王国", "fontsize": 12, "tyid": "304000", "oid": "103:1576575188014", "color": "#0056E7" }, "geometry": { "type": "Point", "coordinates": [ 6.240234, 34.957995 ] } }
{"year": "AD619",  "type": "Feature", "tippecanoe": { "layer": "2AFCA08CE8D01583915844787", "minzoom": 2, "maxzoom": 8 }, "properties": { "halo": 1.6, "title": "拉古阿坦部落联盟", "fontsize": 12, "tyid": "304001", "oid": "103:1576575188313", "color": "#0056E7" }, "geometry": { "type": "Point", "coordinates": [ 20.566406, 31.503629 ] } }
{"year": "AD619",  "type": "Feature", "tippecanoe": { "layer": "2AFCA08CE8D01583915844787", "minzoom": 2, "maxzoom": 8 }, "properties": { "halo": 1.6, "title": "布拉-阿辛达-西卡文化", "fontsize": 12, "tyid": "304002", "oid": "103:1576575187885", "color": "#0056E7" }, "geometry": { "type": "Point", "coordinates": [ 1.757812, 12.983148 ] } }
{"year": "AD619",  "type": "Feature", "tippecanoe": { "layer": "2AFCA08CE8D01583915844787", "minzoom": 2, "maxzoom": 8 }, "properties": { "halo": 1.6, "title": "约鲁巴人", "fontsize": 12, "tyid": "304001", "oid": "103:1576575187905", "color": "#0056E7" }, "geometry": { "type": "Point", "coordinates": [ 3.779297, 7.885147 ] } }
{"year": "AD619",  "type": "Feature", "tippecanoe": { "layer": "2AFCA08CE8D01583915844787", "minzoom": 2, "maxzoom": 8 }, "properties": { "halo": 1.6, "title": "伊博人", "fontsize": 12, "tyid": "304001", "oid": "103:1576575187914", "color": "#0056E7" }, "geometry": { "type": "Point", "coordinates": [ 9.492188, 5.878332 ] } }
{"year": "AD619",  "type": "Feature", "tippecanoe": { "layer": "2AFCA08CE8D01583915844787", "minzoom": 2, "maxzoom": 8 }, "properties": { "halo": 1.8, "title": "奥邦奥孔伊塔王国", "fontsize": 12, "tyid": "304000", "oid": "103:1576575187950", "color": "#0056E7" }, "geometry": { "type": "Point", "coordinates": [ 7.558594, 5.441022 ] } }
{"year": "AD619",  "type": "Feature", "tippecanoe": { "layer": "2AFCA08CE8D01583915844787", "minzoom": 2, "maxzoom": 8 }, "properties": { "halo": 1.8, "title": "努贝舍王国", "fontsize": 12, "tyid": "304000", "oid": "103:1576575188090", "color": "#0056E7" }, "geometry": { "type": "Point", "coordinates": [ 31.816406, 22.024546 ] } }
{"year": "AD619",  "type": "Feature", "tippecanoe": { "layer": "2AFCA08CE8D01583915844787", "minzoom": 2, "maxzoom": 8 }, "properties": { "halo": 1.8, "title": "萨珊亚美尼亚", "fontsize": 12, "tyid": "304000", "oid": "103:1576575188190", "color": "#0056E7" }, "geometry": { "type": "Point", "coordinates": [ 44.560547, 39.027719 ] } }
{"year": "AD619",  "type": "Feature", "tippecanoe": { "layer": "2AFCA08CE8D01583915844787", "minzoom": 2, "maxzoom": 8 }, "properties": { "halo": 1.6, "title": "瓦努席法尔", "fontsize": 12, "tyid": "304001", "oid": "103:1576575187924", "color": "#0056E7" }, "geometry": { "type": "Point", "coordinates": [ 39.111328, 24.686952 ] } }
{"year": "AD619",  "type": "Feature", "tippecanoe": { "layer": "2AFCA08CE8D01583915844787", "minzoom": 2, "maxzoom": 8 }, "properties": { "halo": 1.6, "title": "赫多凡部落", "fontsize": 12, "tyid": "304001", "oid": "103:1576575187719", "color": "#0056E7" }, "geometry": { "type": "Point", "coordinates": [ 41.396484, 26.509905 ] } }
{"year": "AD619",  "type": "Feature", "tippecanoe": { "layer": "2AFCA08CE8D01583915844787", "minzoom": 2, "maxzoom": 8 }, "properties": { "halo": 1.6, "title": "瓦努哈瓦兹", "fontsize": 12, "tyid": "304001", "oid": "103:1576575187722", "color": "#0056E7" }, "geometry": { "type": "Point", "coordinates": [ 40.781250, 23.322080 ] } }
{"year": "AD619",  "type": "Feature", "tippecanoe": { "layer": "2AFCA08CE8D01583915844787", "minzoom": 2, "maxzoom": 8 }, "properties": { "halo": 1.6, "title": "富尔人", "fontsize": 12, "tyid": "304001", "oid": "103:1576575187970", "color": "#0056E7" }, "geometry": { "type": "Point", "coordinates": [ 26.015625, 14.519780 ] } }
{"year": "AD619",  "type": "Feature", "tippecanoe": { "layer": "2AFCA08CE8D01583915844787", "minzoom": 2, "maxzoom": 8 }, "properties": { "halo": 1.8, "title": "马库里亚王国", "fontsize": 12, "tyid": "304000", "oid": "103:1576575188026", "color": "#0056E7" }, "geometry": { "type": "Point", "coordinates": [ 32.255859, 19.145168 ] } }
{"year": "AD619",  "type": "Feature", "tippecanoe": { "layer": "2AFCA08CE8D01583915844787", "minzoom": 2, "maxzoom": 8 }, "properties": { "halo": 1.6, "title": "贝扎人", "fontsize": 12, "tyid": "304001", "oid": "103:1576575187715", "color": "#0056E7" }, "geometry": { "type": "Point", "coordinates": [ 35.419922, 21.371244 ] } }
{"year": "AD619",  "type": "Feature", "tippecanoe": { "layer": "2AFCA08CE8D01583915844787", "minzoom": 2, "maxzoom": 8 }, "properties": { "halo": 1.6, "title": "马里人", "fontsize": 12, "tyid": "304001", "oid": "103:1576575187818", "color": "#0056E7" }, "geometry": { "type": "Point", "coordinates": [ 46.845703, 57.326521 ] } }
{"year": "AD619",  "type": "Feature", "tippecanoe": { "layer": "2AFCA08CE8D01583915844787", "minzoom": 2, "maxzoom": 8 }, "properties": { "halo": 1.6, "title": "伊曼科夫文化", "fontsize": 12, "tyid": "304002", "oid": "103:1576575187848", "color": "#0056E7" }, "geometry": { "type": "Point", "coordinates": [ 47.548828, 54.977614 ] } }
{"year": "AD619",  "type": "Feature", "tippecanoe": { "layer": "2AFCA08CE8D01583915844787", "minzoom": 2, "maxzoom": 8 }, "properties": { "halo": 1.6, "title": "布尔塔斯人", "fontsize": 12, "tyid": "304001", "oid": "103:1576575187843", "color": "#0056E7" }, "geometry": { "type": "Point", "coordinates": [ 48.955078, 53.173119 ] } }
{"year": "AD619",  "type": "Feature", "tippecanoe": { "layer": "2AFCA08CE8D01583915844787", "minzoom": 2, "maxzoom": 8 }, "properties": { "halo": 1.6, "title": "库什纳伦科沃文化", "fontsize": 12, "tyid": "304002", "oid": "103:1576575187853", "color": "#0056E7" }, "geometry": { "type": "Point", "coordinates": [ 54.140625, 54.977614 ] } }
{"year": "AD619",  "type": "Feature", "tippecanoe": { "layer": "2AFCA08CE8D01583915844787", "minzoom": 2, "maxzoom": 8 }, "properties": { "halo": 1.6, "title": "乌古尔人", "fontsize": 12, "tyid": "304001", "oid": "103:1576575187839", "color": "#0056E7" }, "geometry": { "type": "Point", "coordinates": [ 46.054688, 46.679594 ] } }
{"year": "AD619",  "type": "Feature", "tippecanoe": { "layer": "2AFCA08CE8D01583915844787", "minzoom": 2, "maxzoom": 8 }, "properties": { "halo": 1.8, "title": "萨里尔王国", "fontsize": 12, "tyid": "304000", "oid": "103:1576575187627", "color": "#0056E7" }, "geometry": { "type": "Point", "coordinates": [ 47.109375, 42.228517 ] } }
{"year": "AD619",  "type": "Feature", "tippecanoe": { "layer": "2AFCA08CE8D01583915844787", "minzoom": 2, "maxzoom": 8 }, "properties": { "halo": 1.6, "title": "图巴斯利文化", "fontsize": 12, "tyid": "304001", "oid": "103:1576575187806", "color": "#0056E7" }, "geometry": { "type": "Point", "coordinates": [ 57.128906, 55.677584 ] } }
{"year": "AD619",  "type": "Feature", "tippecanoe": { "layer": "2AFCA08CE8D01583915844787", "minzoom": 2, "maxzoom": 8 }, "properties": { "halo": 1.8, "title": "阿夫里格王朝", "fontsize": 12, "tyid": "304000", "oid": "103:1576575188219", "color": "#0056E7" }, "geometry": { "type": "Point", "coordinates": [ 60.029297, 42.617791 ] } }
{"year": "AD619",  "type": "Feature", "tippecanoe": { "layer": "2AFCA08CE8D01583915844787", "minzoom": 2, "maxzoom": 8 }, "properties": { "halo": 1.8, "title": "焉耆国", "fontsize": 12, "tyid": "304000", "oid": "103:1576575188187", "color": "#0056E7" }, "geometry": { "type": "Point", "coordinates": [ 86.308594, 41.836828 ] } }
{"year": "AD619",  "type": "Feature", "tippecanoe": { "layer": "2AFCA08CE8D01583915844787", "minzoom": 2, "maxzoom": 8 }, "properties": { "halo": 1.8, "title": "麴氏高昌国", "fontsize": 12, "tyid": "304000", "oid": "103:1576575188234", "color": "#0056E7" }, "geometry": { "type": "Point", "coordinates": [ 89.648438, 42.747012 ] } }
{"year": "AD619",  "type": "Feature", "tippecanoe": { "layer": "2AFCA08CE8D01583915844787", "minzoom": 2, "maxzoom": 8 }, "properties": { "halo": 1.8, "title": "高加索阿尔巴尼亚王国", "fontsize": 12, "tyid": "304000", "oid": "103:1576575188191", "color": "#0056E7" }, "geometry": { "type": "Point", "coordinates": [ 46.757812, 40.713956 ] } }
{"year": "AD619",  "type": "Feature", "tippecanoe": { "layer": "2AFCA08CE8D01583915844787", "minzoom": 2, "maxzoom": 8 }, "properties": { "halo": 1.8, "title": "梵衍那国", "fontsize": 12, "tyid": "304000", "oid": "103:1576575187681", "color": "#0056E7" }, "geometry": { "type": "Point", "coordinates": [ 67.324219, 34.741612 ] } }
{"year": "AD619",  "type": "Feature", "tippecanoe": { "layer": "2AFCA08CE8D01583915844787", "minzoom": 2, "maxzoom": 8 }, "properties": { "halo": 1.6, "title": "阿兹达巴部落", "fontsize": 12, "tyid": "304001", "oid": "103:1576575188229", "color": "#0056E7" }, "geometry": { "type": "Point", "coordinates": [ 58.798828, 22.268764 ] } }
{"year": "AD619",  "type": "Feature", "tippecanoe": { "layer": "2AFCA08CE8D01583915844787", "minzoom": 2, "maxzoom": 8 }, "properties": { "halo": 1.8, "title": "狼揭罗国", "fontsize": 12, "tyid": "304000", "oid": "103:1576575188286", "color": "#0056E7" }, "geometry": { "type": "Point", "coordinates": [ 64.335938, 27.605671 ] } }
{"year": "AD619",  "type": "Feature", "tippecanoe": { "layer": "2AFCA08CE8D01583915844787", "minzoom": 2, "maxzoom": 8 }, "properties": { "halo": 1.8, "title": "拔汗那国", "fontsize": 12, "tyid": "304000", "oid": "103:1576575188298", "color": "#0056E7" }, "geometry": { "type": "Point", "coordinates": [ 71.806641, 40.647304 ] } }
{"year": "AD619",  "type": "Feature", "tippecanoe": { "layer": "2AFCA08CE8D01583915844787", "minzoom": 2, "maxzoom": 8 }, "properties": { "halo": 1.8, "title": "迦毕试王国", "fontsize": 12, "tyid": "304000", "oid": "103:1576575187993", "color": "#0056E7" }, "geometry": { "type": "Point", "coordinates": [ 68.291016, 33.651208 ] } }
{"year": "AD619",  "type": "Feature", "tippecanoe": { "layer": "2AFCA08CE8D01583915844787", "minzoom": 2, "maxzoom": 8 }, "properties": { "halo": 1.8, "title": "乌苌国", "fontsize": 12, "tyid": "304000", "oid": "103:1576575187676", "color": "#0056E7" }, "geometry": { "type": "Point", "coordinates": [ 72.949219, 35.173808 ] } }
{"year": "AD619",  "type": "Feature", "tippecanoe": { "layer": "2AFCA08CE8D01583915844787", "minzoom": 2, "maxzoom": 8 }, "properties": { "halo": 1.8, "title": "健驮逻国", "fontsize": 12, "tyid": "304000", "oid": "103:1576575187675", "color": "#0056E7" }, "geometry": { "type": "Point", "coordinates": [ 71.367188, 33.797409 ] } }
{"year": "AD619",  "type": "Feature", "tippecanoe": { "layer": "2AFCA08CE8D01583915844787", "minzoom": 2, "maxzoom": 8 }, "properties": { "halo": 1.8, "title": "疏勒国", "fontsize": 12, "tyid": "304000", "oid": "103:1576575188226", "color": "#0056E7" }, "geometry": { "type": "Point", "coordinates": [ 75.410156, 39.368279 ] } }
{"year": "AD619",  "type": "Feature", "tippecanoe": { "layer": "2AFCA08CE8D01583915844787", "minzoom": 2, "maxzoom": 8 }, "properties": { "halo": 1.8, "title": "勃律国", "fontsize": 12, "tyid": "304000", "oid": "103:1576575188118", "color": "#0056E7" }, "geometry": { "type": "Point", "coordinates": [ 75.058594, 35.603719 ] } }
{"year": "AD619",  "type": "Feature", "tippecanoe": { "layer": "2AFCA08CE8D01583915844787", "minzoom": 2, "maxzoom": 8 }, "properties": { "halo": 1.8, "title": "卡尔科塔王朝", "fontsize": 12, "tyid": "304000", "oid": "103:1576575187650", "color": "#0056E7" }, "geometry": { "type": "Point", "coordinates": [ 74.970703, 33.870416 ] } }
{"year": "AD619",  "type": "Feature", "tippecanoe": { "layer": "2AFCA08CE8D01583915844787", "minzoom": 2, "maxzoom": 8 }, "properties": { "halo": 1.8, "title": "屈露多国", "fontsize": 12, "tyid": "304000", "oid": "103:1576575187648", "color": "#0056E7" }, "geometry": { "type": "Point", "coordinates": [ 76.552734, 32.101190 ] } }
{"year": "AD619",  "type": "Feature", "tippecanoe": { "layer": "2AFCA08CE8D01583915844787", "minzoom": 2, "maxzoom": 8 }, "properties": { "halo": 1.8, "title": "拉伊王朝", "fontsize": 12, "tyid": "304000", "oid": "103:1576575188316", "color": "#0056E7" }, "geometry": { "type": "Point", "coordinates": [ 67.939453, 27.371767 ] } }
{"year": "AD619",  "type": "Feature", "tippecanoe": { "layer": "2AFCA08CE8D01583915844787", "minzoom": 2, "maxzoom": 8 }, "properties": { "halo": 1.8, "title": "茂罗三部卢国", "fontsize": 12, "tyid": "304000", "oid": "103:1576575187678", "color": "#0056E7" }, "geometry": { "type": "Point", "coordinates": [ 71.103516, 29.840644 ] } }
{"year": "AD619",  "type": "Feature", "tippecanoe": { "layer": "2AFCA08CE8D01583915844787", "minzoom": 2, "maxzoom": 8 }, "properties": { "halo": 1.8, "title": "磔迦国", "fontsize": 12, "tyid": "304000", "oid": "103:1576575187654", "color": "#0056E7" }, "geometry": { "type": "Point", "coordinates": [ 72.685547, 31.802893 ] } }
{"year": "AD619",  "type": "Feature", "tippecanoe": { "layer": "2AFCA08CE8D01583915844787", "minzoom": 2, "maxzoom": 8 }, "properties": { "halo": 1.8, "title": "臂多势罗国", "fontsize": 12, "tyid": "304000", "oid": "103:1576575188235", "color": "#0056E7" }, "geometry": { "type": "Point", "coordinates": [ 68.818359, 25.005973 ] } }
{"year": "AD619",  "type": "Feature", "tippecanoe": { "layer": "2AFCA08CE8D01583915844787", "minzoom": 2, "maxzoom": 8 }, "properties": { "halo": 1.8, "title": "阿舆荼国", "fontsize": 12, "tyid": "304000", "oid": "103:1576575188288", "color": "#0056E7" }, "geometry": { "type": "Point", "coordinates": [ 68.906250, 26.352498 ] } }
{"year": "AD619",  "type": "Feature", "tippecanoe": { "layer": "2AFCA08CE8D01583915844787", "minzoom": 2, "maxzoom": 8 }, "properties": { "halo": 1.8, "title": "契吒国", "fontsize": 12, "tyid": "304000", "oid": "103:1576575187687", "color": "#0056E7" }, "geometry": { "type": "Point", "coordinates": [ 69.960938, 23.966176 ] } }
{"year": "AD619",  "type": "Feature", "tippecanoe": { "layer": "2AFCA08CE8D01583915844787", "minzoom": 2, "maxzoom": 8 }, "properties": { "halo": 1.8, "title": "苏剌吒国", "fontsize": 12, "tyid": "304000", "oid": "103:1576575188202", "color": "#0056E7" }, "geometry": { "type": "Point", "coordinates": [ 70.927734, 22.105999 ] } }
{"year": "AD619",  "type": "Feature", "tippecanoe": { "layer": "2AFCA08CE8D01583915844787", "minzoom": 2, "maxzoom": 8 }, "properties": { "halo": 1.8, "title": "梅特拉卡王朝", "fontsize": 12, "tyid": "304000", "oid": "103:1576575187596", "color": "#0056E7" }, "geometry": { "type": "Point", "coordinates": [ 72.597656, 22.836946 ] } }
{"year": "AD619",  "type": "Feature", "tippecanoe": { "layer": "2AFCA08CE8D01583915844787", "minzoom": 2, "maxzoom": 8 }, "properties": { "halo": 1.8, "title": "普西亚布蒂王朝", "fontsize": 12, "tyid": "304000", "oid": "103:1576575188012", "color": "#0056E7" }, "geometry": { "type": "Point", "coordinates": [ 76.464844, 29.688053 ] } }
{"year": "AD619",  "type": "Feature", "tippecanoe": { "layer": "2AFCA08CE8D01583915844787", "minzoom": 2, "maxzoom": 8 }, "properties": { "halo": 1.8, "title": "掷枳陀国", "fontsize": 12, "tyid": "304000", "oid": "103:1576575188006", "color": "#0056E7" }, "geometry": { "type": "Point", "coordinates": [ 74.531250, 25.085599 ] } }
{"year": "AD619",  "type": "Feature", "tippecanoe": { "layer": "2AFCA08CE8D01583915844787", "minzoom": 2, "maxzoom": 8 }, "properties": { "halo": 1.8, "title": "邬阇衍那国", "fontsize": 12, "tyid": "304000", "oid": "103:1576575187983", "color": "#0056E7" }, "geometry": { "type": "Point", "coordinates": [ 75.673828, 23.644524 ] } }
{"year": "AD619",  "type": "Feature", "tippecanoe": { "layer": "2AFCA08CE8D01583915844787", "minzoom": 2, "maxzoom": 8 }, "properties": { "halo": 1.8, "title": "波理夜呾罗国", "fontsize": 12, "tyid": "304000", "oid": "103:1576575188011", "color": "#0056E7" }, "geometry": { "type": "Point", "coordinates": [ 76.025391, 26.745610 ] } }
{"year": "AD619",  "type": "Feature", "tippecanoe": { "layer": "2AFCA08CE8D01583915844787", "minzoom": 2, "maxzoom": 8 }, "properties": { "halo": 1.8, "title": "摩醯湿伐罗补罗国", "fontsize": 12, "tyid": "304000", "oid": "103:1576575188009", "color": "#0056E7" }, "geometry": { "type": "Point", "coordinates": [ 77.783203, 25.085599 ] } }
{"year": "AD619",  "type": "Feature", "tippecanoe": { "layer": "2AFCA08CE8D01583915844787", "minzoom": 2, "maxzoom": 8 }, "properties": { "halo": 1.8, "title": "龟兹国", "fontsize": 12, "tyid": "304000", "oid": "103:1576575188188", "color": "#0056E7" }, "geometry": { "type": "Point", "coordinates": [ 81.035156, 40.913513 ] } }
{"year": "AD619",  "type": "Feature", "tippecanoe": { "layer": "2AFCA08CE8D01583915844787", "minzoom": 2, "maxzoom": 8 }, "properties": { "halo": 1.8, "title": "婆罗吸摩补罗国", "fontsize": 12, "tyid": "304000", "oid": "103:1576575187652", "color": "#0056E7" }, "geometry": { "type": "Point", "coordinates": [ 79.277344, 29.993002 ] } }
{"year": "AD619",  "type": "Feature", "tippecanoe": { "layer": "2AFCA08CE8D01583915844787", "minzoom": 2, "maxzoom": 8 }, "properties": { "halo": 1.8, "title": "尼波罗国", "fontsize": 12, "tyid": "304000", "oid": "103:1576575187655", "color": "#0056E7" }, "geometry": { "type": "Point", "coordinates": [ 83.759766, 28.149503 ] } }
{"year": "AD619",  "type": "Feature", "tippecanoe": { "layer": "2AFCA08CE8D01583915844787", "minzoom": 2, "maxzoom": 8 }, "properties": { "halo": 1.8, "title": "卡拉丘里王朝", "fontsize": 12, "tyid": "304000", "oid": "103:1576575187651", "color": "#0056E7" }, "geometry": { "type": "Point", "coordinates": [ 79.453125, 23.322080 ] } }
{"year": "AD619",  "type": "Feature", "tippecanoe": { "layer": "2AFCA08CE8D01583915844787", "minzoom": 2, "maxzoom": 8 }, "properties": { "halo": 1.8, "title": "婆罗痆斯国", "fontsize": 12, "tyid": "304000", "oid": "103:1576575188278", "color": "#0056E7" }, "geometry": { "type": "Point", "coordinates": [ 82.705078, 24.447150 ] } }
{"year": "AD619",  "type": "Feature", "tippecanoe": { "layer": "2AFCA08CE8D01583915844787", "minzoom": 2, "maxzoom": 8 }, "properties": { "halo": 1.8, "title": "奔那伐弹那国", "fontsize": 12, "tyid": "304000", "oid": "103:1576575187987", "color": "#0056E7" }, "geometry": { "type": "Point", "coordinates": [ 88.154297, 25.799891 ] } }
{"year": "AD619",  "type": "Feature", "tippecanoe": { "layer": "2AFCA08CE8D01583915844787", "minzoom": 2, "maxzoom": 8 }, "properties": { "halo": 1.8, "title": "耽摩栗底国", "fontsize": 12, "tyid": "304000", "oid": "103:1576575188252", "color": "#0056E7" }, "geometry": { "type": "Point", "coordinates": [ 88.593750, 22.593726 ] } }
{"year": "AD619",  "type": "Feature", "tippecanoe": { "layer": "2AFCA08CE8D01583915844787", "minzoom": 2, "maxzoom": 8 }, "properties": { "halo": 1.8, "title": "案达罗国", "fontsize": 12, "tyid": "304000", "oid": "103:1576575187978", "color": "#0056E7" }, "geometry": { "type": "Point", "coordinates": [ 78.486328, 17.727759 ] } }
{"year": "AD619",  "type": "Feature", "tippecanoe": { "layer": "2AFCA08CE8D01583915844787", "minzoom": 2, "maxzoom": 8 }, "properties": { "halo": 1.8, "title": "恭建那补罗国", "fontsize": 12, "tyid": "304000", "oid": "103:1576575187976", "color": "#0056E7" }, "geometry": { "type": "Point", "coordinates": [ 76.289062, 14.944785 ] } }
{"year": "AD619",  "type": "Feature", "tippecanoe": { "layer": "2AFCA08CE8D01583915844787", "minzoom": 2, "maxzoom": 8 }, "properties": { "halo": 1.8, "title": "帕拉瓦王朝", "fontsize": 12, "tyid": "304000", "oid": "103:1576575188149", "color": "#0056E7" }, "geometry": { "type": "Point", "coordinates": [ 77.958984, 12.640338 ] } }
{"year": "AD619",  "type": "Feature", "tippecanoe": { "layer": "2AFCA08CE8D01583915844787", "minzoom": 2, "maxzoom": 8 }, "properties": { "halo": 1.8, "title": "哲罗国", "fontsize": 12, "tyid": "304000", "oid": "103:1576575187985", "color": "#0056E7" }, "geometry": { "type": "Point", "coordinates": [ 76.376953, 10.401378 ] } }
{"year": "AD619",  "type": "Feature", "tippecanoe": { "layer": "2AFCA08CE8D01583915844787", "minzoom": 2, "maxzoom": 8 }, "properties": { "halo": 1.8, "title": "潘地亚王国", "fontsize": 12, "tyid": "304000", "oid": "103:1576575188146", "color": "#0056E7" }, "geometry": { "type": "Point", "coordinates": [ 77.958984, 9.535749 ] } }
{"year": "AD619",  "type": "Feature", "tippecanoe": { "layer": "2AFCA08CE8D01583915844787", "minzoom": 2, "maxzoom": 8 }, "properties": { "halo": 1.8, "title": "南憍萨罗国", "fontsize": 12, "tyid": "304000", "oid": "103:1576575187980", "color": "#0056E7" }, "geometry": { "type": "Point", "coordinates": [ 80.507812, 20.303418 ] } }
{"year": "AD619",  "type": "Feature", "tippecanoe": { "layer": "2AFCA08CE8D01583915844787", "minzoom": 2, "maxzoom": 8 }, "properties": { "halo": 1.8, "title": "韦湿奴甘地那王朝", "fontsize": 12, "tyid": "304000", "oid": "103:1576575187979", "color": "#0056E7" }, "geometry": { "type": "Point", "coordinates": [ 80.595703, 17.056785 ] } }
{"year": "AD619",  "type": "Feature", "tippecanoe": { "layer": "2AFCA08CE8D01583915844787", "minzoom": 2, "maxzoom": 8 }, "properties": { "halo": 1.8, "title": "沙罗哈瓦王朝", "fontsize": 12, "tyid": "304000", "oid": "103:1576575187693", "color": "#0056E7" }, "geometry": { "type": "Point", "coordinates": [ 83.583984, 19.145168 ] } }
{"year": "AD619",  "type": "Feature", "tippecanoe": { "layer": "2AFCA08CE8D01583915844787", "minzoom": 2, "maxzoom": 8 }, "properties": { "halo": 1.8, "title": "朱罗国", "fontsize": 12, "tyid": "304000", "oid": "103:1576575187986", "color": "#0056E7" }, "geometry": { "type": "Point", "coordinates": [ 79.541016, 14.859850 ] } }
{"year": "AD619",  "type": "Feature", "tippecanoe": { "layer": "2AFCA08CE8D01583915844787", "minzoom": 2, "maxzoom": 8 }, "properties": { "halo": 1.8, "title": "乌荼国", "fontsize": 12, "tyid": "304000", "oid": "103:1576575188203", "color": "#0056E7" }, "geometry": { "type": "Point", "coordinates": [ 85.341797, 21.371244 ] } }
{"year": "AD619",  "type": "Feature", "tippecanoe": { "layer": "2AFCA08CE8D01583915844787", "minzoom": 2, "maxzoom": 8 }, "properties": { "halo": 1.8, "title": "阿努拉德普勒王国", "fontsize": 12, "tyid": "304000", "oid": "103:1576575187620", "color": "#0056E7" }, "geometry": { "type": "Point", "coordinates": [ 80.683594, 7.623887 ] } }
{"year": "AD619",  "type": "Feature", "tippecanoe": { "layer": "2AFCA08CE8D01583915844787", "minzoom": 2, "maxzoom": 8 }, "properties": { "halo": 1.6, "title": "库莫奚", "fontsize": 12, "tyid": "304001", "oid": "103:1576575188125", "color": "#0056E7" }, "geometry": { "type": "Point", "coordinates": [ 117.421875, 41.705729 ] } }
{"year": "AD619",  "type": "Feature", "tippecanoe": { "layer": "2AFCA08CE8D01583915844787", "minzoom": 2, "maxzoom": 8 }, "properties": { "halo": 1.6, "title": "南室韦", "fontsize": 12, "tyid": "304001", "oid": "103:1576575187670", "color": "#0056E7" }, "geometry": { "type": "Point", "coordinates": [ 123.486328, 47.159840 ] } }
{"year": "AD619",  "type": "Feature", "tippecanoe": { "layer": "2AFCA08CE8D01583915844787", "minzoom": 2, "maxzoom": 8 }, "properties": { "halo": 1.6, "title": "霫", "fontsize": 12, "tyid": "304001", "oid": "103:1576575188130", "color": "#0056E7" }, "geometry": { "type": "Point", "coordinates": [ 120.058594, 44.777936 ] } }
{"year": "AD619",  "type": "Feature", "tippecanoe": { "layer": "2AFCA08CE8D01583915844787", "minzoom": 2, "maxzoom": 8 }, "properties": { "halo": 1.6, "title": "契丹", "fontsize": 12, "tyid": "304001", "oid": "103:1576575188127", "color": "#0056E7" }, "geometry": { "type": "Point", "coordinates": [ 120.849609, 42.682435 ] } }
{"year": "AD619",  "type": "Feature", "tippecanoe": { "layer": "2AFCA08CE8D01583915844787", "minzoom": 2, "maxzoom": 8 }, "properties": { "halo": 1.6, "title": "深末怛室韦", "fontsize": 12, "tyid": "304001", "oid": "103:1576575188142", "color": "#0056E7" }, "geometry": { "type": "Point", "coordinates": [ 130.341797, 52.052490 ] } }
{"year": "AD619",  "type": "Feature", "tippecanoe": { "layer": "2AFCA08CE8D01583915844787", "minzoom": 2, "maxzoom": 8 }, "properties": { "halo": 1.6, "title": "安车骨靺鞨", "fontsize": 12, "tyid": "304001", "oid": "103:1576575188133", "color": "#0056E7" }, "geometry": { "type": "Point", "coordinates": [ 127.617188, 45.460131 ] } }
{"year": "AD619",  "type": "Feature", "tippecanoe": { "layer": "2AFCA08CE8D01583915844787", "minzoom": 2, "maxzoom": 8 }, "properties": { "halo": 1.6, "title": "伯咄靺鞨", "fontsize": 12, "tyid": "304001", "oid": "103:1576575188129", "color": "#0056E7" }, "geometry": { "type": "Point", "coordinates": [ 126.035156, 44.777936 ] } }
{"year": "AD619",  "type": "Feature", "tippecanoe": { "layer": "2AFCA08CE8D01583915844787", "minzoom": 2, "maxzoom": 8 }, "properties": { "halo": 1.6, "title": "粟末靺鞨", "fontsize": 12, "tyid": "304001", "oid": "103:1576575188136", "color": "#0056E7" }, "geometry": { "type": "Point", "coordinates": [ 126.914062, 43.197167 ] } }
{"year": "AD619",  "type": "Feature", "tippecanoe": { "layer": "2AFCA08CE8D01583915844787", "minzoom": 2, "maxzoom": 8 }, "properties": { "halo": 1.6, "title": "拂涅靺鞨", "fontsize": 12, "tyid": "304001", "oid": "103:1576575188137", "color": "#0056E7" }, "geometry": { "type": "Point", "coordinates": [ 130.253906, 45.089036 ] } }
{"year": "AD619",  "type": "Feature", "tippecanoe": { "layer": "2AFCA08CE8D01583915844787", "minzoom": 2, "maxzoom": 8 }, "properties": { "halo": 1.6, "title": "白山靺鞨", "fontsize": 12, "tyid": "304001", "oid": "103:1576575187595", "color": "#0056E7" }, "geometry": { "type": "Point", "coordinates": [ 131.308594, 43.452919 ] } }
{"year": "AD619",  "type": "Feature", "tippecanoe": { "layer": "2AFCA08CE8D01583915844787", "minzoom": 2, "maxzoom": 8 }, "properties": { "halo": 1.8, "title": "瓦曼王朝", "fontsize": 12, "tyid": "304000", "oid": "103:1576575187989", "color": "#0056E7" }, "geometry": { "type": "Point", "coordinates": [ 91.054688, 25.324167 ] } }
{"year": "AD619",  "type": "Feature", "tippecanoe": { "layer": "2AFCA08CE8D01583915844787", "minzoom": 2, "maxzoom": 8 }, "properties": { "halo": 1.8, "title": "三摩呾吒国", "fontsize": 12, "tyid": "304000", "oid": "103:1576575188225", "color": "#0056E7" }, "geometry": { "type": "Point", "coordinates": [ 90.791016, 23.322080 ] } }
{"year": "AD619",  "type": "Feature", "tippecanoe": { "layer": "2AFCA08CE8D01583915844787", "minzoom": 2, "maxzoom": 8 }, "properties": { "halo": 1.8, "title": "古曼尼普尔王国", "fontsize": 12, "tyid": "304000", "oid": "103:1576575187893", "color": "#0056E7" }, "geometry": { "type": "Point", "coordinates": [ 93.867188, 24.766785 ] } }
{"year": "AD619",  "type": "Feature", "tippecanoe": { "layer": "2AFCA08CE8D01583915844787", "minzoom": 2, "maxzoom": 8 }, "properties": { "halo": 1.6, "title": "附国", "fontsize": 12, "tyid": "304001", "oid": "103:1576575188143", "color": "#0056E7" }, "geometry": { "type": "Point", "coordinates": [ 97.822266, 29.535230 ] } }
{"year": "AD619",  "type": "Feature", "tippecanoe": { "layer": "2AFCA08CE8D01583915844787", "minzoom": 2, "maxzoom": 8 }, "properties": { "halo": 1.6, "title": "党项诸部", "fontsize": 12, "tyid": "304001", "oid": "103:1576575188147", "color": "#0056E7" }, "geometry": { "type": "Point", "coordinates": [ 100.458984, 31.802893 ] } }
{"year": "AD619",  "type": "Feature", "tippecanoe": { "layer": "2AFCA08CE8D01583915844787", "minzoom": 2, "maxzoom": 8 }, "properties": { "halo": 1.6, "title": "濮部", "fontsize": 12, "tyid": "304001", "oid": "103:1576575187593", "color": "#0056E7" }, "geometry": { "type": "Point", "coordinates": [ 100.019531, 23.563987 ] } }
{"year": "AD619",  "type": "Feature", "tippecanoe": { "layer": "2AFCA08CE8D01583915844787", "minzoom": 2, "maxzoom": 8 }, "properties": { "halo": 1.6, "title": "西爨", "fontsize": 12, "tyid": "304002", "oid": "103:1576575188196", "color": "#0056E7" }, "geometry": { "type": "Point", "coordinates": [ 102.744141, 24.527135 ] } }
{"year": "AD619",  "type": "Feature", "tippecanoe": { "layer": "2AFCA08CE8D01583915844787", "minzoom": 2, "maxzoom": 8 }, "properties": { "halo": 1.6, "title": "东爨", "fontsize": 12, "tyid": "304002", "oid": "103:1576575188205", "color": "#0056E7" }, "geometry": { "type": "Point", "coordinates": [ 104.941406, 25.720735 ] } }
{"year": "AD619",  "type": "Feature", "tippecanoe": { "layer": "2AFCA08CE8D01583915844787", "minzoom": 2, "maxzoom": 8 }, "properties": { "halo": 1.6, "title": "谢氏", "fontsize": 12, "tyid": "304002", "oid": "103:1576575188306", "color": "#0056E7" }, "geometry": { "type": "Point", "coordinates": [ 107.138672, 26.194877 ] } }
{"year": "AD619",  "type": "Feature", "tippecanoe": { "layer": "2AFCA08CE8D01583915844787", "minzoom": 2, "maxzoom": 8 }, "properties": { "halo": 1.8, "title": "达雅瓦底王国", "fontsize": 12, "tyid": "304000", "oid": "103:1576575187901", "color": "#0056E7" }, "geometry": { "type": "Point", "coordinates": [ 93.339844, 20.550509 ] } }
{"year": "AD619",  "type": "Feature", "tippecanoe": { "layer": "2AFCA08CE8D01583915844787", "minzoom": 2, "maxzoom": 8 }, "properties": { "halo": 1.8, "title": "直通王国", "fontsize": 12, "tyid": "304000", "oid": "103:1576575187894", "color": "#0056E7" }, "geometry": { "type": "Point", "coordinates": [ 95.185547, 17.056785 ] } }
{"year": "AD619",  "type": "Feature", "tippecanoe": { "layer": "2AFCA08CE8D01583915844787", "minzoom": 2, "maxzoom": 8 }, "properties": { "halo": 1.8, "title": "骠国", "fontsize": 12, "tyid": "304000", "oid": "103:1576575187947", "color": "#0056E7" }, "geometry": { "type": "Point", "coordinates": [ 95.888672, 21.125498 ] } }
{"year": "AD619",  "type": "Feature", "tippecanoe": { "layer": "2AFCA08CE8D01583915844787", "minzoom": 2, "maxzoom": 8 }, "properties": { "halo": 1.8, "title": "罗涡国", "fontsize": 12, "tyid": "304000", "oid": "103:1576575187698", "color": "#0056E7" }, "geometry": { "type": "Point", "coordinates": [ 100.019531, 16.130262 ] } }
{"year": "AD619",  "type": "Feature", "tippecanoe": { "layer": "2AFCA08CE8D01583915844787", "minzoom": 2, "maxzoom": 8 }, "properties": { "halo": 1.8, "title": "陀罗钵地王国", "fontsize": 12, "tyid": "304000", "oid": "103:1576575187591", "color": "#0056E7" }, "geometry": { "type": "Point", "coordinates": [ 99.140625, 13.068777 ] } }
{"year": "AD619",  "type": "Feature", "tippecanoe": { "layer": "2AFCA08CE8D01583915844787", "minzoom": 2, "maxzoom": 8 }, "properties": { "halo": 1.8, "title": "盘盘国", "fontsize": 12, "tyid": "304000", "oid": "103:1576575187991", "color": "#0056E7" }, "geometry": { "type": "Point", "coordinates": [ 98.876953, 9.449062 ] } }
{"year": "AD619",  "type": "Feature", "tippecanoe": { "layer": "2AFCA08CE8D01583915844787", "minzoom": 2, "maxzoom": 8 }, "properties": { "halo": 1.8, "title": "丹马令国", "fontsize": 12, "tyid": "304000", "oid": "103:1576575187992", "color": "#0056E7" }, "geometry": { "type": "Point", "coordinates": [ 99.931641, 7.623887 ] } }
{"year": "AD619",  "type": "Feature", "tippecanoe": { "layer": "2AFCA08CE8D01583915844787", "minzoom": 2, "maxzoom": 8 }, "properties": { "halo": 1.8, "title": "真腊王国", "fontsize": 12, "tyid": "304000", "oid": "103:1576575188121", "color": "#0056E7" }, "geometry": { "type": "Point", "coordinates": [ 106.259766, 13.923404 ] } }
{"year": "AD619",  "type": "Feature", "tippecanoe": { "layer": "2AFCA08CE8D01583915844787", "minzoom": 2, "maxzoom": 8 }, "properties": { "halo": 1.8, "title": "林邑国", "fontsize": 12, "tyid": "304000", "oid": "103:1576575188110", "color": "#0056E7" }, "geometry": { "type": "Point", "coordinates": [ 107.578125, 16.299051 ] } }
{"year": "AD619",  "type": "Feature", "tippecanoe": { "layer": "2AFCA08CE8D01583915844787", "minzoom": 2, "maxzoom": 8 }, "properties": { "halo": 1.8, "title": "赤土国", "fontsize": 12, "tyid": "304000", "oid": "103:1576575188111", "color": "#0056E7" }, "geometry": { "type": "Point", "coordinates": [ 102.304688, 5.353521 ] } }
{"year": "AD619",  "type": "Feature", "tippecanoe": { "layer": "2AFCA08CE8D01583915844787", "minzoom": 2, "maxzoom": 8 }, "properties": { "halo": 1.8, "title": "婆皇国", "fontsize": 12, "tyid": "304000", "oid": "103:1576575188124", "color": "#0056E7" }, "geometry": { "type": "Point", "coordinates": [ 102.480469, 3.776559 ] } }
{"year": "AD619",  "type": "Feature", "tippecanoe": { "layer": "2AFCA08CE8D01583915844787", "minzoom": 2, "maxzoom": 8 }, "properties": { "halo": 1.8, "title": "百济", "fontsize": 12, "tyid": "304000", "oid": "103:1576575188107", "color": "#0056E7" }, "geometry": { "type": "Point", "coordinates": [ 127.089844, 36.102376 ] } }
{"year": "AD619",  "type": "Feature", "tippecanoe": { "layer": "2AFCA08CE8D01583915844787", "minzoom": 2, "maxzoom": 8 }, "properties": { "halo": 1.8, "title": "新罗", "fontsize": 12, "tyid": "304000", "oid": "103:1576575187891", "color": "#0056E7" }, "geometry": { "type": "Point", "coordinates": [ 128.583984, 36.031332 ] } }
{"year": "AD619",  "type": "Feature", "tippecanoe": { "layer": "2AFCA08CE8D01583915844787", "minzoom": 2, "maxzoom": 8 }, "properties": { "halo": 1.6, "title": "号室靺鞨", "fontsize": 12, "tyid": "304001", "oid": "103:1576575188139", "color": "#0056E7" }, "geometry": { "type": "Point", "coordinates": [ 135.263672, 45.951150 ] } }
{"year": "AD619",  "type": "Feature", "tippecanoe": { "layer": "2AFCA08CE8D01583915844787", "minzoom": 2, "maxzoom": 8 }, "properties": { "halo": 1.6, "title": "绳文人", "fontsize": 12, "tyid": "304001", "oid": "103:1576575188088", "color": "#0056E7" }, "geometry": { "type": "Point", "coordinates": [ 142.294922, 43.325178 ] } }
{"year": "AD619",  "type": "Feature", "tippecanoe": { "layer": "2AFCA08CE8D01583915844787", "minzoom": 2, "maxzoom": 8 }, "properties": { "halo": 1.8, "title": "日高见国", "fontsize": 12, "tyid": "304000", "oid": "103:1576575188117", "color": "#0056E7" }, "geometry": { "type": "Point", "coordinates": [ 140.712891, 39.504041 ] } }
{"year": "AD619",  "type": "Feature", "tippecanoe": { "layer": "2AFCA08CE8D01583915844787", "minzoom": 2, "maxzoom": 8 }, "properties": { "halo": 1.6, "title": "艾布兰文化五期", "fontsize": 12, "tyid": "304002", "oid": "103:1576575187917", "color": "#0056E7" }, "geometry": { "type": "Point", "coordinates": [ 36.474609, -0.175781 ] } }
{"year": "AD619",  "type": "Feature", "tippecanoe": { "layer": "2AFCA08CE8D01583915844787", "minzoom": 2, "maxzoom": 8 }, "properties": { "halo": 1.6, "title": "斯瓦西里人", "fontsize": 12, "tyid": "304001", "oid": "103:1576575187720", "color": "#0056E7" }, "geometry": { "type": "Point", "coordinates": [ 39.375000, -16.214675 ] } }
{"year": "AD619",  "type": "Feature", "tippecanoe": { "layer": "2AFCA08CE8D01583915844787", "minzoom": 2, "maxzoom": 8 }, "properties": { "halo": 1.8, "title": "末罗瑜王国", "fontsize": 12, "tyid": "304000", "oid": "103:1576575188112", "color": "#0056E7" }, "geometry": { "type": "Point", "coordinates": [ 103.623047, -2.460181 ] } }
{"year": "AD619",  "type": "Feature", "tippecanoe": { "layer": "2AFCA08CE8D01583915844787", "minzoom": 2, "maxzoom": 8 }, "properties": { "halo": 1.8, "title": "库泰王国", "fontsize": 12, "tyid": "304000", "oid": "103:1576575187700", "color": "#0056E7" }, "geometry": { "type": "Point", "coordinates": [ 116.191406, 0.000000 ] } }
{"year": "AD619",  "type": "Feature", "tippecanoe": { "layer": "2AFCA08CE8D01583915844787", "minzoom": 2, "maxzoom": 8 }, "properties": { "halo": 1.6, "title": "巴拉瓦人", "fontsize": 12, "tyid": "304001", "oid": "103:1576575187902", "color": "#0056E7" }, "geometry": { "type": "Point", "coordinates": [ 146.513672, -41.967659 ] } }
{"year": "AD619",  "type": "Feature", "tippecanoe": { "layer": "2AFCA08CEA201583915844790", "minzoom": 2, "maxzoom": 8 }, "properties": { "tyid": "410000", "centroid": "{\"type\":\"Point\",\"coordinates\":[102.890655519,50.32448578]}", "opacity": 1, "oid": "103:1582721307215", "color": "#A11300", "width": 3 }, "geometry": { "type": "MultiLineString", "coordinates": [ [ [ 108.017578, 21.616579 ], [ 106.611328, 22.024546 ], [ 106.523438, 22.512557 ], [ 106.699219, 22.836946 ], [ 105.820312, 22.998852 ], [ 105.205078, 23.402765 ], [ 103.886719, 22.512557 ], [ 103.535156, 22.836946 ], [ 103.183594, 22.105999 ], [ 102.480469, 22.512557 ], [ 101.777344, 21.861499 ], [ 101.689453, 21.207459 ], [ 101.162109, 21.207459 ], [ 100.986328, 21.779905 ], [ 100.195312, 21.534847 ], [ 99.843750, 22.105999 ], [ 99.140625, 22.187405 ], [ 99.228516, 22.917923 ], [ 98.437500, 23.079732 ], [ 98.701172, 23.402765 ], [ 98.349609, 23.966176 ], [ 98.525391, 24.206890 ], [ 97.294922, 23.805450 ], [ 97.470703, 25.324167 ], [ 98.261719, 26.431228 ], [ 98.701172, 26.667096 ], [ 98.613281, 27.605671 ], [ 98.261719, 27.605671 ], [ 98.085938, 28.226970 ], [ 97.558594, 28.536275 ], [ 97.031250, 27.761330 ], [ 96.240234, 28.304381 ], [ 95.625000, 28.304381 ], [ 94.218750, 27.605671 ], [ 93.691406, 27.059126 ], [ 92.988281, 26.902477 ], [ 92.021484, 26.902477 ], [ 92.109375, 27.371767 ], [ 91.494141, 27.605671 ], [ 91.494141, 27.916767 ], [ 90.791016, 28.071980 ] ], [ [ 130.605469, 42.293564 ], [ 130.166016, 42.940339 ], [ 129.814453, 43.004647 ], [ 129.638672, 42.488302 ], [ 129.287109, 42.423457 ], [ 128.847656, 42.032974 ], [ 127.968750, 42.032974 ], [ 128.232422, 41.574361 ], [ 128.056641, 41.442726 ], [ 127.177734, 41.508577 ], [ 126.826172, 41.836828 ], [ 125.947266, 40.913513 ], [ 124.804688, 40.513799 ], [ 124.277344, 40.044438 ] ], [ [ 135.263672, 54.775346 ], [ 132.978516, 54.162434 ], [ 130.517578, 54.110943 ], [ 131.835938, 54.927142 ], [ 131.044922, 55.677584 ], [ 129.462891, 55.776573 ], [ 128.759766, 55.528631 ], [ 127.705078, 55.727110 ], [ 126.123047, 55.627996 ], [ 125.859375, 55.825973 ], [ 124.804688, 55.924586 ], [ 123.134766, 54.775346 ], [ 121.376953, 54.265224 ], [ 121.025391, 54.521081 ], [ 120.234375, 54.162434 ], [ 119.267578, 54.007769 ], [ 119.003906, 53.383328 ], [ 119.179688, 53.120405 ], [ 120.058594, 53.488046 ], [ 121.201172, 53.540307 ], [ 121.376953, 53.383328 ], [ 120.761719, 53.278353 ], [ 119.970703, 52.802761 ], [ 120.058594, 52.589701 ], [ 120.673828, 52.536273 ], [ 120.673828, 51.998410 ], [ 120.058594, 51.672555 ], [ 119.091797, 50.401515 ], [ 119.355469, 50.401515 ], [ 119.267578, 50.120578 ], [ 118.037109, 49.610710 ], [ 116.191406, 50.064192 ], [ 115.312500, 49.951220 ], [ 114.960938, 50.233152 ], [ 114.257812, 50.289339 ], [ 112.675781, 49.496675 ], [ 110.654297, 49.152970 ], [ 108.457031, 49.382373 ], [ 107.929688, 49.724479 ], [ 107.929688, 49.951220 ], [ 107.050781, 50.064192 ], [ 106.523438, 50.345460 ], [ 105.292969, 50.513427 ], [ 103.974609, 50.176898 ], [ 103.271484, 50.233152 ], [ 102.216797, 50.625073 ], [ 102.041016, 51.399206 ], [ 98.964844, 52.106505 ], [ 98.613281, 52.482780 ], [ 98.876953, 52.908902 ], [ 99.140625, 52.961875 ], [ 98.789062, 53.173119 ], [ 98.173828, 53.120405 ], [ 96.767578, 53.800651 ], [ 96.416016, 53.592505 ], [ 94.658203, 53.435719 ], [ 94.394531, 52.961875 ], [ 94.130859, 52.908902 ], [ 93.515625, 52.214339 ], [ 92.812500, 51.890054 ], [ 91.054688, 51.890054 ], [ 90.175781, 52.696361 ], [ 87.802734, 53.383328 ], [ 86.396484, 53.173119 ], [ 86.132812, 52.908902 ], [ 83.056641, 51.618017 ], [ 82.617188, 51.179343 ], [ 83.056641, 50.958427 ], [ 83.232422, 50.513427 ], [ 82.529297, 49.724479 ], [ 82.529297, 49.325122 ], [ 81.298828, 48.690960 ], [ 81.035156, 48.166085 ], [ 79.628906, 47.694974 ], [ 79.453125, 46.800059 ], [ 78.750000, 46.800059 ], [ 78.750000, 46.619261 ], [ 78.574219, 46.800059 ], [ 78.222656, 46.498392 ], [ 77.783203, 46.679594 ], [ 74.531250, 46.800059 ], [ 73.564453, 46.134170 ], [ 73.388672, 45.706179 ], [ 72.070312, 44.964798 ], [ 70.488281, 44.402392 ], [ 69.521484, 43.452919 ], [ 70.927734, 42.293564 ], [ 73.212891, 42.163403 ], [ 73.916016, 41.836828 ], [ 74.003906, 41.574361 ], [ 73.300781, 41.508577 ], [ 73.828125, 41.046217 ], [ 73.212891, 40.847060 ], [ 72.949219, 40.446947 ], [ 73.125000, 40.044438 ], [ 72.773438, 39.842286 ], [ 72.861328, 39.368279 ], [ 72.421875, 39.436193 ], [ 72.070312, 39.095963 ], [ 72.246094, 38.548165 ], [ 71.894531, 38.272689 ], [ 72.158203, 37.649034 ], [ 71.718750, 36.738884 ], [ 73.476562, 37.509726 ], [ 73.740234, 37.439974 ], [ 73.740234, 37.160317 ], [ 74.531250, 37.090240 ], [ 75.673828, 36.385913 ], [ 75.761719, 36.031332 ], [ 74.882812, 35.817813 ], [ 75.322266, 35.173808 ], [ 75.146484, 34.669359 ], [ 76.113281, 33.578015 ], [ 77.080078, 32.990236 ], [ 77.080078, 32.472695 ], [ 77.871094, 31.802893 ], [ 78.662109, 31.728167 ], [ 79.013672, 31.052934 ], [ 79.892578, 30.826781 ], [ 80.683594, 30.145127 ], [ 82.001953, 30.145127 ], [ 83.583984, 29.228890 ], [ 83.935547, 29.305561 ], [ 84.462891, 28.536275 ], [ 85.605469, 28.226970 ], [ 85.869141, 27.916767 ], [ 87.714844, 27.839076 ], [ 88.681641, 28.071980 ], [ 88.945312, 27.215556 ], [ 89.560547, 28.226970 ], [ 90.791016, 28.071980 ] ] ] } }
{"year": "AD619",  "type": "Feature", "tippecanoe": { "layer": "2AFCA08CEA201583915844790", "minzoom": 2, "maxzoom": 8 }, "properties": { "tyid": "410000", "centroid": "{\"type\":\"Point\",\"coordinates\":[118.9965612163,11.9748626986]}", "opacity": 1, "oid": "103:1582721307213", "color": "#A11300", "width": 3 }, "geometry": { "type": "MultiLineString", "coordinates": [ [ [ 122.695312, 24.447150 ], [ 122.431641, 23.402765 ] ], [ [ 120.849609, 20.550509 ], [ 121.728516, 21.616579 ] ], [ [ 119.355469, 17.727759 ], [ 119.794922, 18.895893 ] ], [ [ 118.916016, 14.689881 ], [ 118.916016, 16.045813 ] ], [ [ 118.476562, 10.833306 ], [ 119.003906, 12.039321 ] ], [ [ 115.312500, 7.013668 ], [ 116.191406, 8.059230 ] ], [ [ 111.708984, 3.425692 ], [ 112.939453, 3.864255 ] ], [ [ 108.281250, 5.965754 ], [ 108.193359, 7.362467 ] ], [ [ 110.039062, 11.264612 ], [ 110.214844, 12.468760 ] ], [ [ 109.775391, 15.029686 ], [ 109.248047, 16.214675 ] ] ] } }
{"year": "AD619",  "type": "Feature", "tippecanoe": { "layer": "2AFCA0FE3BA81583915844758", "minzoom": 2, "maxzoom": 8 }, "properties": { "halo": 0.8, "title": "诺顿文化", "fontsize": 12, "tyid": "304002", "oid": "103:1576575187759", "color": "#262626" }, "geometry": { "type": "Point", "coordinates": [ -162.949219, 65.403445 ] } }
{"year": "AD619",  "type": "Feature", "tippecanoe": { "layer": "2AFCA0FE3BA81583915844758", "minzoom": 2, "maxzoom": 8 }, "properties": { "halo": 0.8, "title": "圣路易斯雷伊文化", "fontsize": 12, "tyid": "304002", "oid": "103:1576575187712", "color": "#262626" }, "geometry": { "type": "Point", "coordinates": [ -118.916016, 34.597042 ] } }
{"year": "AD619",  "type": "Feature", "tippecanoe": { "layer": "2AFCA0FE3BA81583915844758", "minzoom": 2, "maxzoom": 8 }, "properties": { "halo": 0.8, "title": "维珍阿纳萨齐人", "fontsize": 12, "tyid": "304001", "oid": "103:1576575187755", "color": "#262626" }, "geometry": { "type": "Point", "coordinates": [ -113.818359, 36.879621 ] } }
{"year": "AD619",  "type": "Feature", "tippecanoe": { "layer": "2AFCA0FE3BA81583915844758", "minzoom": 2, "maxzoom": 8 }, "properties": { "halo": 0.8, "title": "霍霍卡姆文化", "fontsize": 12, "tyid": "304002", "oid": "103:1576575187815", "color": "#262626" }, "geometry": { "type": "Point", "coordinates": [ -116.103516, 35.746512 ] } }
{"year": "AD619",  "type": "Feature", "tippecanoe": { "layer": "2AFCA0FE3BA81583915844758", "minzoom": 2, "maxzoom": 8 }, "properties": { "halo": 0.8, "title": "科蒙德文化", "fontsize": 12, "tyid": "304002", "oid": "103:1576575187846", "color": "#262626" }, "geometry": { "type": "Point", "coordinates": [ -114.169922, 28.921631 ] } }
{"year": "AD619",  "type": "Feature", "tippecanoe": { "layer": "2AFCA0FE3BA81583915844758", "minzoom": 2, "maxzoom": 8 }, "properties": { "halo": 0.8, "title": "弗里蒙特文化", "fontsize": 12, "tyid": "304002", "oid": "103:1576575187752", "color": "#262626" }, "geometry": { "type": "Point", "coordinates": [ -111.533203, 38.134557 ] } }
{"year": "AD619",  "type": "Feature", "tippecanoe": { "layer": "2AFCA0FE3BA81583915844758", "minzoom": 2, "maxzoom": 8 }, "properties": { "halo": 0.8, "title": "斯内瓜文化", "fontsize": 12, "tyid": "304002", "oid": "103:1576575188081", "color": "#262626" }, "geometry": { "type": "Point", "coordinates": [ -111.357422, 34.379713 ] } }
{"year": "AD619",  "type": "Feature", "tippecanoe": { "layer": "2AFCA0FE3BA81583915844758", "minzoom": 2, "maxzoom": 8 }, "properties": { "halo": 0.8, "title": "瓜伊库拉人", "fontsize": 12, "tyid": "304001", "oid": "103:1576575187725", "color": "#262626" }, "geometry": { "type": "Point", "coordinates": [ -111.621094, 25.165173 ] } }
{"year": "AD619",  "type": "Feature", "tippecanoe": { "layer": "2AFCA0FE3BA81583915844758", "minzoom": 2, "maxzoom": 8 }, "properties": { "halo": 0.8, "title": "堪萨斯城霍普韦尔文化", "fontsize": 12, "tyid": "304002", "oid": "103:1576575188099", "color": "#262626" }, "geometry": { "type": "Point", "coordinates": [ -93.427734, 38.685510 ] } }
{"year": "AD619",  "type": "Feature", "tippecanoe": { "layer": "2AFCA0FE3BA81583915844758", "minzoom": 2, "maxzoom": 8 }, "properties": { "halo": 0.8, "title": "福切马里尼文化", "fontsize": 12, "tyid": "304002", "oid": "103:1576575187703", "color": "#262626" }, "geometry": { "type": "Point", "coordinates": [ -94.042969, 33.358062 ] } }
{"year": "AD619",  "type": "Feature", "tippecanoe": { "layer": "2AFCA0FE3BA81583915844758", "minzoom": 2, "maxzoom": 8 }, "properties": { "halo": 0.8, "title": "喀多语密西西比文化", "fontsize": 12, "tyid": "304002", "oid": "103:1576575187780", "color": "#262626" }, "geometry": { "type": "Point", "coordinates": [ -92.812500, 35.960223 ] } }
{"year": "AD619",  "type": "Feature", "tippecanoe": { "layer": "2AFCA0FE3BA81583915844758", "minzoom": 2, "maxzoom": 8 }, "properties": { "halo": 0.8, "title": "贝敦文化", "fontsize": 12, "tyid": "304002", "oid": "103:1576575187880", "color": "#262626" }, "geometry": { "type": "Point", "coordinates": [ -90.703125, 34.379713 ] } }
{"year": "AD619",  "type": "Feature", "tippecanoe": { "layer": "2AFCA0FE3BA81583915844758", "minzoom": 2, "maxzoom": 8 }, "properties": { "halo": 0.8, "title": "奇奇梅克人", "fontsize": 12, "tyid": "304001", "oid": "103:1576575188162", "color": "#262626" }, "geometry": { "type": "Point", "coordinates": [ -101.162109, 22.512557 ] } }
{"year": "AD619",  "type": "Feature", "tippecanoe": { "layer": "2AFCA0FE3BA81583915844758", "minzoom": 2, "maxzoom": 8 }, "properties": { "halo": 0.8, "title": "华斯塔克文明", "fontsize": 12, "tyid": "304002", "oid": "103:1576575187922", "color": "#262626" }, "geometry": { "type": "Point", "coordinates": [ -98.613281, 22.105999 ] } }
{"year": "AD619",  "type": "Feature", "tippecanoe": { "layer": "2AFCA0FE3BA81583915844758", "minzoom": 2, "maxzoom": 8 }, "properties": { "halo": 0.8, "title": "奇蒂玛察人", "fontsize": 12, "tyid": "304001", "oid": "103:1576575187959", "color": "#262626" }, "geometry": { "type": "Point", "coordinates": [ -91.582031, 30.448674 ] } }
{"year": "AD619",  "type": "Feature", "tippecanoe": { "layer": "2AFCA0FE3BA81583915844758", "minzoom": 2, "maxzoom": 8 }, "properties": { "halo": 0.8, "title": "萨波特克文明", "fontsize": 12, "tyid": "304002", "oid": "103:1576575187859", "color": "#262626" }, "geometry": { "type": "Point", "coordinates": [ -96.064453, 16.888660 ] } }
{"year": "AD619",  "type": "Feature", "tippecanoe": { "layer": "2AFCA0FE3BA81583915844758", "minzoom": 2, "maxzoom": 8 }, "properties": { "halo": 0.8, "title": "贝奥图克人", "fontsize": 12, "tyid": "304001", "oid": "103:1576575187961", "color": "#262626" }, "geometry": { "type": "Point", "coordinates": [ -56.074219, 48.748945 ] } }
{"year": "AD619",  "type": "Feature", "tippecanoe": { "layer": "2AFCA0FE3BA81583915844758", "minzoom": 2, "maxzoom": 8 }, "properties": { "halo": 0.8, "title": "米勒文化", "fontsize": 12, "tyid": "304002", "oid": "103:1576575187882", "color": "#262626" }, "geometry": { "type": "Point", "coordinates": [ -87.802734, 34.379713 ] } }
{"year": "AD619",  "type": "Feature", "tippecanoe": { "layer": "2AFCA0FE3BA81583915844758", "minzoom": 2, "maxzoom": 8 }, "properties": { "halo": 0.8, "title": "特洛伊维尔文化", "fontsize": 12, "tyid": "304002", "oid": "103:1576575188028", "color": "#262626" }, "geometry": { "type": "Point", "coordinates": [ -89.912109, 32.101190 ] } }
{"year": "AD619",  "type": "Feature", "tippecanoe": { "layer": "2AFCA0FE3BA81583915844758", "minzoom": 2, "maxzoom": 8 }, "properties": { "halo": 0.8, "title": "斯威夫特溪文化", "fontsize": 12, "tyid": "304002", "oid": "103:1576575187871", "color": "#262626" }, "geometry": { "type": "Point", "coordinates": [ -84.814453, 32.175612 ] } }
{"year": "AD619",  "type": "Feature", "tippecanoe": { "layer": "2AFCA0FE3BA81583915844758", "minzoom": 2, "maxzoom": 8 }, "properties": { "halo": 0.8, "title": "丹河文化", "fontsize": 12, "tyid": "304002", "oid": "103:1576575187760", "color": "#262626" }, "geometry": { "type": "Point", "coordinates": [ -81.914062, 37.509726 ] } }
{"year": "AD619",  "type": "Feature", "tippecanoe": { "layer": "2AFCA0FE3BA81583915844758", "minzoom": 2, "maxzoom": 8 }, "properties": { "halo": 0.8, "title": "德普特福德文化", "fontsize": 12, "tyid": "304002", "oid": "103:1576575187733", "color": "#262626" }, "geometry": { "type": "Point", "coordinates": [ -79.628906, 33.431441 ] } }
{"year": "AD619",  "type": "Feature", "tippecanoe": { "layer": "2AFCA0FE3BA81583915844758", "minzoom": 2, "maxzoom": 8 }, "properties": { "halo": 0.8, "title": "圣罗莎-斯威夫特溪文化", "fontsize": 12, "tyid": "304002", "oid": "103:1576575187915", "color": "#262626" }, "geometry": { "type": "Point", "coordinates": [ -86.748047, 30.977609 ] } }
{"year": "AD619",  "type": "Feature", "tippecanoe": { "layer": "2AFCA0FE3BA81583915844758", "minzoom": 2, "maxzoom": 8 }, "properties": { "halo": 0.8, "title": "维登岛文化", "fontsize": 12, "tyid": "304002", "oid": "103:1576575187910", "color": "#262626" }, "geometry": { "type": "Point", "coordinates": [ -84.902344, 30.524413 ] } }
{"year": "AD619",  "type": "Feature", "tippecanoe": { "layer": "2AFCA0FE3BA81583915844758", "minzoom": 2, "maxzoom": 8 }, "properties": { "halo": 0.8, "title": "泰诺人", "fontsize": 12, "tyid": "304001", "oid": "103:1576575187968", "color": "#262626" }, "geometry": { "type": "Point", "coordinates": [ -79.628906, 22.105999 ] } }
{"year": "AD619",  "type": "Feature", "tippecanoe": { "layer": "2AFCA0FE3BA81583915844758", "minzoom": 2, "maxzoom": 8 }, "properties": { "halo": 0.8, "title": "佩奇人", "fontsize": 12, "tyid": "304001", "oid": "103:1576575188166", "color": "#262626" }, "geometry": { "type": "Point", "coordinates": [ -84.814453, 15.368950 ] } }
{"year": "AD619",  "type": "Feature", "tippecanoe": { "layer": "2AFCA0FE3BA81583915844758", "minzoom": 2, "maxzoom": 8 }, "properties": { "halo": 0.8, "title": "兹努文化", "fontsize": 12, "tyid": "304002", "oid": "103:1576575187656", "color": "#262626" }, "geometry": { "type": "Point", "coordinates": [ -75.585938, 8.581021 ] } }
{"year": "AD619",  "type": "Feature", "tippecanoe": { "layer": "2AFCA0FE3BA81583915844758", "minzoom": 2, "maxzoom": 8 }, "properties": { "halo": 0.8, "title": "埃雷拉时期", "fontsize": 12, "tyid": "304002", "oid": "103:1576575188171", "color": "#262626" }, "geometry": { "type": "Point", "coordinates": [ -73.037109, 5.965754 ] } }
{"year": "AD619",  "type": "Feature", "tippecanoe": { "layer": "2AFCA0FE3BA81583915844758", "minzoom": 2, "maxzoom": 8 }, "properties": { "halo": 0.8, "title": "伊奈里人", "fontsize": 12, "tyid": "304001", "oid": "103:1576575187948", "color": "#262626" }, "geometry": { "type": "Point", "coordinates": [ -61.787109, 8.754795 ] } }
{"year": "AD619",  "type": "Feature", "tippecanoe": { "layer": "2AFCA0FE3BA81583915844758", "minzoom": 2, "maxzoom": 8 }, "properties": { "halo": 0.8, "title": "达尔里阿达王国", "fontsize": 12, "tyid": "304000", "oid": "103:1576575187840", "color": "#202020" }, "geometry": { "type": "Point", "coordinates": [ -5.009766, 56.072035 ] } }
{"year": "AD619",  "type": "Feature", "tippecanoe": { "layer": "2AFCA0FE3BA81583915844758", "minzoom": 2, "maxzoom": 8 }, "properties": { "halo": 0.8, "title": "皮克特诸王国", "fontsize": 12, "tyid": "304000", "oid": "103:1576575187744", "color": "#202020" }, "geometry": { "type": "Point", "coordinates": [ -3.691406, 57.040730 ] } }
{"year": "AD619",  "type": "Feature", "tippecanoe": { "layer": "2AFCA0FE3BA81583915844758", "minzoom": 2, "maxzoom": 8 }, "properties": { "halo": 0.8, "title": "康诺特诸王国", "fontsize": 12, "tyid": "304000", "oid": "103:1576575187643", "color": "#202020" }, "geometry": { "type": "Point", "coordinates": [ -8.876953, 53.800651 ] } }
{"year": "AD619",  "type": "Feature", "tippecanoe": { "layer": "2AFCA0FE3BA81583915844758", "minzoom": 2, "maxzoom": 8 }, "properties": { "halo": 0.8, "title": "盖尔人", "fontsize": 12, "tyid": "304001", "oid": "103:1576575187821", "color": "#262626" }, "geometry": { "type": "Point", "coordinates": [ -6.943359, 53.173119 ] } }
{"year": "AD619",  "type": "Feature", "tippecanoe": { "layer": "2AFCA0FE3BA81583915844758", "minzoom": 2, "maxzoom": 8 }, "properties": { "halo": 0.8, "title": "明斯特王国", "fontsize": 12, "tyid": "304000", "oid": "103:1576575187789", "color": "#202020" }, "geometry": { "type": "Point", "coordinates": [ -8.701172, 52.375599 ] } }
{"year": "AD619",  "type": "Feature", "tippecanoe": { "layer": "2AFCA0FE3BA81583915844758", "minzoom": 2, "maxzoom": 8 }, "properties": { "halo": 0.8, "title": "凯尔特布立吞人", "fontsize": 12, "tyid": "304001", "oid": "103:1576575187816", "color": "#262626" }, "geometry": { "type": "Point", "coordinates": [ -2.548828, 53.120405 ] } }
{"year": "AD619",  "type": "Feature", "tippecanoe": { "layer": "2AFCA0FE3BA81583915844758", "minzoom": 2, "maxzoom": 8 }, "properties": { "halo": 0.8, "title": "盎格鲁-撒克逊人", "fontsize": 12, "tyid": "304001", "oid": "103:1576575187825", "color": "#262626" }, "geometry": { "type": "Point", "coordinates": [ -1.757812, 51.289406 ] } }
{"year": "AD619",  "type": "Feature", "tippecanoe": { "layer": "2AFCA0FE3BA81583915844758", "minzoom": 2, "maxzoom": 8 }, "properties": { "halo": 0.8, "title": "杰内-杰诺文化三期", "fontsize": 12, "tyid": "304002", "oid": "103:1576575187931", "color": "#262626" }, "geometry": { "type": "Point", "coordinates": [ -3.779297, 13.923404 ] } }
{"year": "AD619",  "type": "Feature", "tippecanoe": { "layer": "2AFCA0FE3BA81583915844758", "minzoom": 2, "maxzoom": 8 }, "properties": { "halo": 0.8, "title": "米拉格罗-克韦多文化", "fontsize": 12, "tyid": "304002", "oid": "103:1576575187667", "color": "#262626" }, "geometry": { "type": "Point", "coordinates": [ -79.804688, -2.108899 ] } }
{"year": "AD619",  "type": "Feature", "tippecanoe": { "layer": "2AFCA0FE3BA81583915844758", "minzoom": 2, "maxzoom": 8 }, "properties": { "halo": 0.8, "title": "基图文化", "fontsize": 12, "tyid": "304002", "oid": "103:1576575187632", "color": "#262626" }, "geometry": { "type": "Point", "coordinates": [ -78.222656, -0.966751 ] } }
{"year": "AD619",  "type": "Feature", "tippecanoe": { "layer": "2AFCA0FE3BA81583915844758", "minzoom": 2, "maxzoom": 8 }, "properties": { "halo": 0.8, "title": "阿塔卡马人", "fontsize": 12, "tyid": "304001", "oid": "103:1576575187767", "color": "#262626" }, "geometry": { "type": "Point", "coordinates": [ -69.082031, -25.085599 ] } }
{"year": "AD619",  "type": "Feature", "tippecanoe": { "layer": "2AFCA0FE3BA81583915844758", "minzoom": 2, "maxzoom": 8 }, "properties": { "halo": 0.8, "title": "昌戈人", "fontsize": 12, "tyid": "304001", "oid": "103:1576575188069", "color": "#262626" }, "geometry": { "type": "Point", "coordinates": [ -70.136719, -26.902477 ] } }
{"year": "AD619",  "type": "Feature", "tippecanoe": { "layer": "2AFCA0FE3BA81583915844758", "minzoom": 2, "maxzoom": 8 }, "properties": { "halo": 0.8, "title": "阿拉米托文化", "fontsize": 12, "tyid": "304002", "oid": "103:1576575187766", "color": "#262626" }, "geometry": { "type": "Point", "coordinates": [ -67.851562, -26.588527 ] } }
{"year": "AD619",  "type": "Feature", "tippecanoe": { "layer": "2AFCA0FE3BA81583915844758", "minzoom": 2, "maxzoom": 8 }, "properties": { "halo": 0.8, "title": "埃尔莫尔文化", "fontsize": 12, "tyid": "304002", "oid": "103:1576575188060", "color": "#262626" }, "geometry": { "type": "Point", "coordinates": [ -70.927734, -30.675715 ] } }
{"year": "AD619",  "type": "Feature", "tippecanoe": { "layer": "2AFCA0FE3BA81583915844758", "minzoom": 2, "maxzoom": 8 }, "properties": { "halo": 0.8, "title": "洛勒洛文化", "fontsize": 12, "tyid": "304002", "oid": "103:1576575188070", "color": "#262626" }, "geometry": { "type": "Point", "coordinates": [ -70.664062, -33.724340 ] } }
{"year": "AD619",  "type": "Feature", "tippecanoe": { "layer": "2AFCA0FE3BA81583915844758", "minzoom": 2, "maxzoom": 8 }, "properties": { "halo": 0.8, "title": "马普切人", "fontsize": 12, "tyid": "304001", "oid": "103:1576575188024", "color": "#262626" }, "geometry": { "type": "Point", "coordinates": [ -71.455078, -38.959409 ] } }
{"year": "AD619",  "type": "Feature", "tippecanoe": { "layer": "2AFCA0FE3BA81583915844758", "minzoom": 2, "maxzoom": 8 }, "properties": { "halo": 0.8, "title": "希德拉里卡文化", "fontsize": 12, "tyid": "304002", "oid": "103:1576575187936", "color": "#262626" }, "geometry": { "type": "Point", "coordinates": [ -66.005859, -12.297068 ] } }
{"year": "AD619",  "type": "Feature", "tippecanoe": { "layer": "2AFCA0FE3BA81583915844758", "minzoom": 2, "maxzoom": 8 }, "properties": { "halo": 0.8, "title": "摩克索人", "fontsize": 12, "tyid": "304001", "oid": "103:1576575188165", "color": "#262626" }, "geometry": { "type": "Point", "coordinates": [ -65.830078, -13.923404 ] } }
{"year": "AD619",  "type": "Feature", "tippecanoe": { "layer": "2AFCA0FE3BA81583915844758", "minzoom": 2, "maxzoom": 8 }, "properties": { "halo": 0.8, "title": "马拉约文化", "fontsize": 12, "tyid": "304002", "oid": "103:1576575187973", "color": "#262626" }, "geometry": { "type": "Point", "coordinates": [ -50.712891, -2.723583 ] } }
{"year": "AD619",  "type": "Feature", "tippecanoe": { "layer": "2AFCA0FE3BA81583915844758", "minzoom": 2, "maxzoom": 8 }, "properties": { "halo": 0.8, "title": "沙内斯人", "fontsize": 12, "tyid": "304001", "oid": "103:1576575187847", "color": "#262626" }, "geometry": { "type": "Point", "coordinates": [ -65.917969, -22.105999 ] } }
{"year": "AD619",  "type": "Feature", "tippecanoe": { "layer": "2AFCA0FE3BA81583915844758", "minzoom": 2, "maxzoom": 8 }, "properties": { "halo": 0.8, "title": "拉坎德拉里亚文化", "fontsize": 12, "tyid": "304002", "oid": "103:1576575187750", "color": "#262626" }, "geometry": { "type": "Point", "coordinates": [ -65.390625, -25.720735 ] } }
{"year": "AD619",  "type": "Feature", "tippecanoe": { "layer": "2AFCA0FE3BA81583915844758", "minzoom": 2, "maxzoom": 8 }, "properties": { "halo": 0.8, "title": "康多拉瓦西文化", "fontsize": 12, "tyid": "304002", "oid": "103:1576575188177", "color": "#262626" }, "geometry": { "type": "Point", "coordinates": [ -66.708984, -27.293689 ] } }
{"year": "AD619",  "type": "Feature", "tippecanoe": { "layer": "2AFCA0FE3BA81583915844758", "minzoom": 2, "maxzoom": 8 }, "properties": { "halo": 0.8, "title": "拉加瓜文化", "fontsize": 12, "tyid": "304002", "oid": "103:1576575187865", "color": "#262626" }, "geometry": { "type": "Point", "coordinates": [ -66.796875, -29.458731 ] } }
{"year": "AD619",  "type": "Feature", "tippecanoe": { "layer": "2AFCA0FE3BA81583915844758", "minzoom": 2, "maxzoom": 8 }, "properties": { "halo": 0.8, "title": "拉斯梅塞德斯文化", "fontsize": 12, "tyid": "304002", "oid": "103:1576575187879", "color": "#262626" }, "geometry": { "type": "Point", "coordinates": [ -63.808594, -27.605671 ] } }
{"year": "AD619",  "type": "Feature", "tippecanoe": { "layer": "2AFCA0FE3BA81583915844758", "minzoom": 2, "maxzoom": 8 }, "properties": { "halo": 0.8, "title": "特胡尔切人", "fontsize": 12, "tyid": "304001", "oid": "103:1576575187842", "color": "#262626" }, "geometry": { "type": "Point", "coordinates": [ -70.751953, -50.176898 ] } }
{"year": "AD619",  "type": "Feature", "tippecanoe": { "layer": "2AFCA0FE3BA81583915844758", "minzoom": 2, "maxzoom": 8 }, "properties": { "halo": 0.8, "title": "塞尔克南人", "fontsize": 12, "tyid": "304001", "oid": "103:1576575187728", "color": "#262626" }, "geometry": { "type": "Point", "coordinates": [ -68.378906, -53.696706 ] } }
{"year": "AD619",  "type": "Feature", "tippecanoe": { "layer": "2AFCA0FE3BA81583915844758", "minzoom": 2, "maxzoom": 8 }, "properties": { "halo": 0.8, "title": "雅干人", "fontsize": 12, "tyid": "304001", "oid": "103:1576575188057", "color": "#262626" }, "geometry": { "type": "Point", "coordinates": [ -68.554688, -54.521081 ] } }
{"year": "AD619",  "type": "Feature", "tippecanoe": { "layer": "2AFCA0FE3BA81583915844758", "minzoom": 2, "maxzoom": 8 }, "properties": { "halo": 0.8, "title": "朱特人", "fontsize": 12, "tyid": "304001", "oid": "103:1576575187736", "color": "#262626" }, "geometry": { "type": "Point", "coordinates": [ 9.316406, 56.267761 ] } }
{"year": "AD619",  "type": "Feature", "tippecanoe": { "layer": "2AFCA0FE3BA81583915844758", "minzoom": 2, "maxzoom": 8 }, "properties": { "halo": 0.8, "title": "耶阿特人", "fontsize": 12, "tyid": "304001", "oid": "103:1576575187644", "color": "#262626" }, "geometry": { "type": "Point", "coordinates": [ 13.710938, 57.657158 ] } }
{"year": "AD619",  "type": "Feature", "tippecanoe": { "layer": "2AFCA0FE3BA81583915844758", "minzoom": 2, "maxzoom": 8 }, "properties": { "halo": 0.8, "title": "丹麦人", "fontsize": 12, "tyid": "304001", "oid": "103:1576575188023", "color": "#262626" }, "geometry": { "type": "Point", "coordinates": [ 13.447266, 55.875311 ] } }
{"year": "AD619",  "type": "Feature", "tippecanoe": { "layer": "2AFCA0FE3BA81583915844758", "minzoom": 2, "maxzoom": 8 }, "properties": { "halo": 0.8, "title": "库洛尼亚人", "fontsize": 12, "tyid": "304001", "oid": "103:1576575187741", "color": "#262626" }, "geometry": { "type": "Point", "coordinates": [ 21.972656, 56.607885 ] } }
{"year": "AD619",  "type": "Feature", "tippecanoe": { "layer": "2AFCA0FE3BA81583915844758", "minzoom": 2, "maxzoom": 8 }, "properties": { "halo": 0.8, "title": "萨克森人", "fontsize": 12, "tyid": "304001", "oid": "103:1576575187958", "color": "#262626" }, "geometry": { "type": "Point", "coordinates": [ 8.789062, 52.749594 ] } }
{"year": "AD619",  "type": "Feature", "tippecanoe": { "layer": "2AFCA0FE3BA81583915844758", "minzoom": 2, "maxzoom": 8 }, "properties": { "halo": 0.8, "title": "图林根人", "fontsize": 12, "tyid": "304001", "oid": "103:1576575187598", "color": "#262626" }, "geometry": { "type": "Point", "coordinates": [ 10.546875, 52.106505 ] } }
{"year": "AD619",  "type": "Feature", "tippecanoe": { "layer": "2AFCA0FE3BA81583915844758", "minzoom": 2, "maxzoom": 8 }, "properties": { "halo": 0.8, "title": "欧波里特人", "fontsize": 12, "tyid": "304001", "oid": "103:1576575187805", "color": "#262626" }, "geometry": { "type": "Point", "coordinates": [ 11.689453, 53.748711 ] } }
{"year": "AD619",  "type": "Feature", "tippecanoe": { "layer": "2AFCA0FE3BA81583915844758", "minzoom": 2, "maxzoom": 8 }, "properties": { "halo": 0.8, "title": "维莱蒂人", "fontsize": 12, "tyid": "304001", "oid": "103:1576575187605", "color": "#262626" }, "geometry": { "type": "Point", "coordinates": [ 13.095703, 52.589701 ] } }
{"year": "AD619",  "type": "Feature", "tippecanoe": { "layer": "2AFCA0FE3BA81583915844758", "minzoom": 2, "maxzoom": 8 }, "properties": { "halo": 0.8, "title": "波美拉尼亚人", "fontsize": 12, "tyid": "304001", "oid": "103:1576575187851", "color": "#262626" }, "geometry": { "type": "Point", "coordinates": [ 16.611328, 53.748711 ] } }
{"year": "AD619",  "type": "Feature", "tippecanoe": { "layer": "2AFCA0FE3BA81583915844758", "minzoom": 2, "maxzoom": 8 }, "properties": { "halo": 0.8, "title": "白塞尔维亚人", "fontsize": 12, "tyid": "304001", "oid": "103:1576575188101", "color": "#262626" }, "geometry": { "type": "Point", "coordinates": [ 14.677734, 51.454007 ] } }
{"year": "AD619",  "type": "Feature", "tippecanoe": { "layer": "2AFCA0FE3BA81583915844758", "minzoom": 2, "maxzoom": 8 }, "properties": { "halo": 0.8, "title": "波西米亚人", "fontsize": 12, "tyid": "304001", "oid": "103:1576575187602", "color": "#262626" }, "geometry": { "type": "Point", "coordinates": [ 14.414062, 49.894634 ] } }
{"year": "AD619",  "type": "Feature", "tippecanoe": { "layer": "2AFCA0FE3BA81583915844758", "minzoom": 2, "maxzoom": 8 }, "properties": { "halo": 0.8, "title": "西里西亚人", "fontsize": 12, "tyid": "304001", "oid": "103:1576575188151", "color": "#262626" }, "geometry": { "type": "Point", "coordinates": [ 16.787109, 50.736455 ] } }
{"year": "AD619",  "type": "Feature", "tippecanoe": { "layer": "2AFCA0FE3BA81583915844758", "minzoom": 2, "maxzoom": 8 }, "properties": { "halo": 0.8, "title": "古普鲁士人", "fontsize": 12, "tyid": "304001", "oid": "103:1576575187866", "color": "#262626" }, "geometry": { "type": "Point", "coordinates": [ 20.478516, 54.162434 ] } }
{"year": "AD619",  "type": "Feature", "tippecanoe": { "layer": "2AFCA0FE3BA81583915844758", "minzoom": 2, "maxzoom": 8 }, "properties": { "halo": 0.8, "title": "西波里安人", "fontsize": 12, "tyid": "304001", "oid": "103:1576575188154", "color": "#262626" }, "geometry": { "type": "Point", "coordinates": [ 17.138672, 52.052490 ] } }
{"year": "AD619",  "type": "Feature", "tippecanoe": { "layer": "2AFCA0FE3BA81583915844758", "minzoom": 2, "maxzoom": 8 }, "properties": { "halo": 0.8, "title": "摩拉维亚人", "fontsize": 12, "tyid": "304001", "oid": "103:1576575187607", "color": "#262626" }, "geometry": { "type": "Point", "coordinates": [ 16.875000, 49.152970 ] } }
{"year": "AD619",  "type": "Feature", "tippecanoe": { "layer": "2AFCA0FE3BA81583915844758", "minzoom": 2, "maxzoom": 8 }, "properties": { "halo": 0.8, "title": "马索维亚人", "fontsize": 12, "tyid": "304001", "oid": "103:1576575188031", "color": "#262626" }, "geometry": { "type": "Point", "coordinates": [ 20.039062, 52.321911 ] } }
{"year": "AD619",  "type": "Feature", "tippecanoe": { "layer": "2AFCA0FE3BA81583915844758", "minzoom": 2, "maxzoom": 8 }, "properties": { "halo": 0.8, "title": "维斯图兰人", "fontsize": 12, "tyid": "304001", "oid": "103:1576575187779", "color": "#262626" }, "geometry": { "type": "Point", "coordinates": [ 20.742188, 50.401515 ] } }
{"year": "AD619",  "type": "Feature", "tippecanoe": { "layer": "2AFCA0FE3BA81583915844758", "minzoom": 2, "maxzoom": 8 }, "properties": { "halo": 0.8, "title": "巴伐利亚公国", "fontsize": 12, "tyid": "304000", "oid": "103:1576575187603", "color": "#202020" }, "geometry": { "type": "Point", "coordinates": [ 13.359375, 47.872144 ] } }
{"year": "AD619",  "type": "Feature", "tippecanoe": { "layer": "2AFCA0FE3BA81583915844758", "minzoom": 2, "maxzoom": 8 }, "properties": { "halo": 0.8, "title": "古爱沙尼亚人", "fontsize": 12, "tyid": "304001", "oid": "103:1576575187707", "color": "#262626" }, "geometry": { "type": "Point", "coordinates": [ 25.576172, 58.995311 ] } }
{"year": "AD619",  "type": "Feature", "tippecanoe": { "layer": "2AFCA0FE3BA81583915844758", "minzoom": 2, "maxzoom": 8 }, "properties": { "halo": 0.8, "title": "利沃尼亚人", "fontsize": 12, "tyid": "304001", "oid": "103:1576575187747", "color": "#262626" }, "geometry": { "type": "Point", "coordinates": [ 26.191406, 58.077876 ] } }
{"year": "AD619",  "type": "Feature", "tippecanoe": { "layer": "2AFCA0FE3BA81583915844758", "minzoom": 2, "maxzoom": 8 }, "properties": { "halo": 0.8, "title": "拉特加莱人", "fontsize": 12, "tyid": "304001", "oid": "103:1576575187837", "color": "#262626" },