{"year": "AD662",  "type": "Feature", "tippecanoe": { "layer": "7F5D8282BBA81585558896509", "minzoom": 2, "maxzoom": 8 }, "properties": { "opacity": 1, "oid": "103:1582721307215", "tyid": "410000", "width": 3, "centroid": "{\"type\":\"Point\",\"coordinates\":[102.890655519,50.32448578]}", "color": "#A11300" }, "geometry": { "type": "MultiLineString", "coordinates": [ [ [ 108.017578, 21.616579 ], [ 106.611328, 22.024546 ], [ 106.523438, 22.512557 ], [ 106.699219, 22.836946 ], [ 105.820312, 22.998852 ], [ 105.205078, 23.402765 ], [ 103.886719, 22.512557 ], [ 103.535156, 22.836946 ], [ 103.183594, 22.105999 ], [ 102.480469, 22.512557 ], [ 101.777344, 21.861499 ], [ 101.689453, 21.207459 ], [ 101.162109, 21.207459 ], [ 100.986328, 21.779905 ], [ 100.195312, 21.534847 ], [ 99.843750, 22.105999 ], [ 99.140625, 22.187405 ], [ 99.228516, 22.917923 ], [ 98.437500, 23.079732 ], [ 98.701172, 23.402765 ], [ 98.349609, 23.966176 ], [ 98.525391, 24.206890 ], [ 97.294922, 23.805450 ], [ 97.470703, 25.324167 ], [ 98.261719, 26.431228 ], [ 98.701172, 26.667096 ], [ 98.613281, 27.605671 ], [ 98.261719, 27.605671 ], [ 98.085938, 28.226970 ], [ 97.558594, 28.536275 ], [ 97.031250, 27.761330 ], [ 96.240234, 28.304381 ], [ 95.625000, 28.304381 ], [ 94.218750, 27.605671 ], [ 93.691406, 27.059126 ], [ 92.988281, 26.902477 ], [ 92.021484, 26.902477 ], [ 92.109375, 27.371767 ], [ 91.494141, 27.605671 ], [ 91.494141, 27.916767 ], [ 90.791016, 28.071980 ] ], [ [ 130.605469, 42.293564 ], [ 130.166016, 42.940339 ], [ 129.814453, 43.004647 ], [ 129.638672, 42.488302 ], [ 129.287109, 42.423457 ], [ 128.847656, 42.032974 ], [ 127.968750, 42.032974 ], [ 128.232422, 41.574361 ], [ 128.056641, 41.442726 ], [ 127.177734, 41.508577 ], [ 126.826172, 41.836828 ], [ 125.947266, 40.913513 ], [ 124.804688, 40.513799 ], [ 124.277344, 40.044438 ] ], [ [ 135.263672, 54.775346 ], [ 132.978516, 54.162434 ], [ 130.517578, 54.110943 ], [ 131.835938, 54.927142 ], [ 131.044922, 55.677584 ], [ 129.462891, 55.776573 ], [ 128.759766, 55.528631 ], [ 127.705078, 55.727110 ], [ 126.123047, 55.627996 ], [ 125.859375, 55.825973 ], [ 124.804688, 55.924586 ], [ 123.134766, 54.775346 ], [ 121.376953, 54.265224 ], [ 121.025391, 54.521081 ], [ 120.234375, 54.162434 ], [ 119.267578, 54.007769 ], [ 119.003906, 53.383328 ], [ 119.179688, 53.120405 ], [ 120.058594, 53.488046 ], [ 121.201172, 53.540307 ], [ 121.376953, 53.383328 ], [ 120.761719, 53.278353 ], [ 119.970703, 52.802761 ], [ 120.058594, 52.589701 ], [ 120.673828, 52.536273 ], [ 120.673828, 51.998410 ], [ 120.058594, 51.672555 ], [ 119.091797, 50.401515 ], [ 119.355469, 50.401515 ], [ 119.267578, 50.120578 ], [ 118.037109, 49.610710 ], [ 116.191406, 50.064192 ], [ 115.312500, 49.951220 ], [ 114.960938, 50.233152 ], [ 114.257812, 50.289339 ], [ 112.675781, 49.496675 ], [ 110.654297, 49.152970 ], [ 108.457031, 49.382373 ], [ 107.929688, 49.724479 ], [ 107.929688, 49.951220 ], [ 107.050781, 50.064192 ], [ 106.523438, 50.345460 ], [ 105.292969, 50.513427 ], [ 103.974609, 50.176898 ], [ 103.271484, 50.233152 ], [ 102.216797, 50.625073 ], [ 102.041016, 51.399206 ], [ 98.964844, 52.106505 ], [ 98.613281, 52.482780 ], [ 98.876953, 52.908902 ], [ 99.140625, 52.961875 ], [ 98.789062, 53.173119 ], [ 98.173828, 53.120405 ], [ 96.767578, 53.800651 ], [ 96.416016, 53.592505 ], [ 94.658203, 53.435719 ], [ 94.394531, 52.961875 ], [ 94.130859, 52.908902 ], [ 93.515625, 52.214339 ], [ 92.812500, 51.890054 ], [ 91.054688, 51.890054 ], [ 90.175781, 52.696361 ], [ 87.802734, 53.383328 ], [ 86.396484, 53.173119 ], [ 86.132812, 52.908902 ], [ 83.056641, 51.618017 ], [ 82.617188, 51.179343 ], [ 83.056641, 50.958427 ], [ 83.232422, 50.513427 ], [ 82.529297, 49.724479 ], [ 82.529297, 49.325122 ], [ 81.298828, 48.690960 ], [ 81.035156, 48.166085 ], [ 79.628906, 47.694974 ], [ 79.453125, 46.800059 ], [ 78.750000, 46.800059 ], [ 78.750000, 46.619261 ], [ 78.574219, 46.800059 ], [ 78.222656, 46.498392 ], [ 77.783203, 46.679594 ], [ 74.531250, 46.800059 ], [ 73.564453, 46.134170 ], [ 73.388672, 45.706179 ], [ 72.070312, 44.964798 ], [ 70.488281, 44.402392 ], [ 69.521484, 43.452919 ], [ 70.927734, 42.293564 ], [ 73.212891, 42.163403 ], [ 73.916016, 41.836828 ], [ 74.003906, 41.574361 ], [ 73.300781, 41.508577 ], [ 73.828125, 41.046217 ], [ 73.212891, 40.847060 ], [ 72.949219, 40.446947 ], [ 73.125000, 40.044438 ], [ 72.773438, 39.842286 ], [ 72.861328, 39.368279 ], [ 72.421875, 39.436193 ], [ 72.070312, 39.095963 ], [ 72.246094, 38.548165 ], [ 71.894531, 38.272689 ], [ 72.158203, 37.649034 ], [ 71.718750, 36.738884 ], [ 73.476562, 37.509726 ], [ 73.740234, 37.439974 ], [ 73.740234, 37.160317 ], [ 74.531250, 37.090240 ], [ 75.673828, 36.385913 ], [ 75.761719, 36.031332 ], [ 74.882812, 35.817813 ], [ 75.322266, 35.173808 ], [ 75.146484, 34.669359 ], [ 76.113281, 33.578015 ], [ 77.080078, 32.990236 ], [ 77.080078, 32.472695 ], [ 77.871094, 31.802893 ], [ 78.662109, 31.728167 ], [ 79.013672, 31.052934 ], [ 79.892578, 30.826781 ], [ 80.683594, 30.145127 ], [ 82.001953, 30.145127 ], [ 83.583984, 29.228890 ], [ 83.935547, 29.305561 ], [ 84.462891, 28.536275 ], [ 85.605469, 28.226970 ], [ 85.869141, 27.916767 ], [ 87.714844, 27.839076 ], [ 88.681641, 28.071980 ], [ 88.945312, 27.215556 ], [ 89.560547, 28.226970 ], [ 90.791016, 28.071980 ] ] ] } }
{"year": "AD662",  "type": "Feature", "tippecanoe": { "layer": "7F5D8282BBA81585558896509", "minzoom": 2, "maxzoom": 8 }, "properties": { "opacity": 1, "oid": "103:1582721307213", "tyid": "410000", "width": 3, "centroid": "{\"type\":\"Point\",\"coordinates\":[118.9965612163,11.9748626986]}", "color": "#A11300" }, "geometry": { "type": "MultiLineString", "coordinates": [ [ [ 122.695312, 24.447150 ], [ 122.431641, 23.402765 ] ], [ [ 120.849609, 20.550509 ], [ 121.728516, 21.616579 ] ], [ [ 119.355469, 17.727759 ], [ 119.794922, 18.895893 ] ], [ [ 118.916016, 14.689881 ], [ 118.916016, 16.045813 ] ], [ [ 118.476562, 10.833306 ], [ 119.003906, 12.039321 ] ], [ [ 115.312500, 7.013668 ], [ 116.191406, 8.059230 ] ], [ [ 111.708984, 3.425692 ], [ 112.939453, 3.864255 ] ], [ [ 108.281250, 5.965754 ], [ 108.193359, 7.362467 ] ], [ [ 110.039062, 11.264612 ], [ 110.214844, 12.468760 ] ], [ [ 109.775391, 15.029686 ], [ 109.248047, 16.214675 ] ] ] } }
{"year": "AD662",  "type": "Feature", "tippecanoe": { "layer": "7F5D83BBDDA01585558896520", "minzoom": 2, "maxzoom": 8 }, "properties": { "title": "州", "color": "#4D4848", "oid": "103:1585278513454", "tyid": "304006", "fontsize": 12, "halo": 0.3 }, "geometry": { "type": "Point", "coordinates": [ 112.236328, 4.039618 ] } }
{"year": "AD662",  "type": "Feature", "tippecanoe": { "layer": "7F5D83BBDDA01585558896520", "minzoom": 2, "maxzoom": 8 }, "properties": { "title": "红头屿", "color": "#4D4848", "oid": "103:1585278513459", "tyid": "304006", "fontsize": 12, "halo": 0.3 }, "geometry": { "type": "Point", "coordinates": [ 121.464844, 22.105999 ] } }
{"year": "AD662",  "type": "Feature", "tippecanoe": { "layer": "7F5D83BBDDA01585558896520", "minzoom": 2, "maxzoom": 8 }, "properties": { "title": "木", "color": "#4D4848", "oid": "103:1585278513456", "tyid": "304006", "fontsize": 12, "halo": 0.3 }, "geometry": { "type": "Point", "coordinates": [ 116.894531, 20.715015 ] } }
{"year": "AD662",  "type": "Feature", "tippecanoe": { "layer": "7F5D83BBDDA01585558896520", "minzoom": 2, "maxzoom": 8 }, "properties": { "title": "饮", "color": "#4D4848", "oid": "103:1585278513457", "tyid": "304006", "fontsize": 12, "halo": 0.3 }, "geometry": { "type": "Point", "coordinates": [ 115.312500, 14.008696 ] } }
{"year": "AD662",  "type": "Feature", "tippecanoe": { "layer": "7F5D83FF71601585558896551", "minzoom": 2, "maxzoom": 8 }, "properties": { "title": "西哥特王国", "color": "#0056E7", "oid": "103:1585278513413", "tyid": "304000", "fontsize": 12, "halo": 1.8 }, "geometry": { "type": "Point", "coordinates": [ -3.955078, 40.446947 ] } }
{"year": "AD662",  "type": "Feature", "tippecanoe": { "layer": "7F5D83FF71601585558896551", "minzoom": 2, "maxzoom": 8 }, "properties": { "title": "法兰克王国", "color": "#0056E7", "oid": "103:1585278513411", "tyid": "304000", "fontsize": 12, "halo": 1.8 }, "geometry": { "type": "Point", "coordinates": [ 4.394531, 47.694974 ] } }
{"year": "AD662",  "type": "Feature", "tippecanoe": { "layer": "7F5D83FF71601585558896551", "minzoom": 2, "maxzoom": 8 }, "properties": { "title": "东罗马帝国", "color": "#0056E7", "oid": "103:1585278513420", "tyid": "304000", "fontsize": 12, "halo": 1.8 }, "geometry": { "type": "Point", "coordinates": [ 21.972656, 42.358544 ] } }
{"year": "AD662",  "type": "Feature", "tippecanoe": { "layer": "7F5D83FF71601585558896551", "minzoom": 2, "maxzoom": 8 }, "properties": { "title": "波罗的人", "color": "#0056E7", "oid": "103:1585278513428", "tyid": "304002", "fontsize": 12, "halo": 1.6 }, "geometry": { "type": "Point", "coordinates": [ 27.773438, 54.418930 ] } }
{"year": "AD662",  "type": "Feature", "tippecanoe": { "layer": "7F5D83FF71601585558896551", "minzoom": 2, "maxzoom": 8 }, "properties": { "title": "斯拉夫人", "color": "#0056E7", "oid": "103:1585278513427", "tyid": "304002", "fontsize": 12, "halo": 1.6 }, "geometry": { "type": "Point", "coordinates": [ 25.400391, 50.680797 ] } }
{"year": "AD662",  "type": "Feature", "tippecanoe": { "layer": "7F5D83FF71601585558896551", "minzoom": 2, "maxzoom": 8 }, "properties": { "title": "阿瓦尔汗国", "color": "#0056E7", "oid": "103:1585278513423", "tyid": "304000", "fontsize": 12, "halo": 1.8 }, "geometry": { "type": "Point", "coordinates": [ 22.939453, 46.619261 ] } }
{"year": "AD662",  "type": "Feature", "tippecanoe": { "layer": "7F5D83FF71601585558896551", "minzoom": 2, "maxzoom": 8 }, "properties": { "title": "伍麦叶哈里发国", "color": "#0056E7", "oid": "103:1585278513425", "tyid": "304000", "fontsize": 12, "halo": 1.8 }, "geometry": { "type": "Point", "coordinates": [ 42.626953, 33.651208 ] } }
{"year": "AD662",  "type": "Feature", "tippecanoe": { "layer": "7F5D83FF71601585558896551", "minzoom": 2, "maxzoom": 8 }, "properties": { "title": "马库里亚王国", "color": "#0056E7", "oid": "103:1585278513387", "tyid": "304000", "fontsize": 12, "halo": 1.8 }, "geometry": { "type": "Point", "coordinates": [ 31.904297, 19.228177 ] } }
{"year": "AD662",  "type": "Feature", "tippecanoe": { "layer": "7F5D83FF71601585558896551", "minzoom": 2, "maxzoom": 8 }, "properties": { "title": "阿罗底亚王国", "color": "#0056E7", "oid": "103:1585278513362", "tyid": "304000", "fontsize": 12, "halo": 1.8 }, "geometry": { "type": "Point", "coordinates": [ 33.310547, 13.752725 ] } }
{"year": "AD662",  "type": "Feature", "tippecanoe": { "layer": "7F5D83FF71601585558896551", "minzoom": 2, "maxzoom": 8 }, "properties": { "title": "阿克苏姆王国", "color": "#0056E7", "oid": "103:1585278513385", "tyid": "304000", "fontsize": 12, "halo": 1.8 }, "geometry": { "type": "Point", "coordinates": [ 39.111328, 13.581921 ] } }
{"year": "AD662",  "type": "Feature", "tippecanoe": { "layer": "7F5D83FF71601585558896551", "minzoom": 2, "maxzoom": 8 }, "properties": { "title": "婆罗门王朝", "color": "#0056E7", "oid": "103:1585278513388", "tyid": "304000", "fontsize": 12, "halo": 1.8 }, "geometry": { "type": "Point", "coordinates": [ 67.851562, 27.527758 ] } }
{"year": "AD662",  "type": "Feature", "tippecanoe": { "layer": "7F5D83FF71601585558896551", "minzoom": 2, "maxzoom": 8 }, "properties": { "title": "瞿折罗王国", "color": "#0056E7", "oid": "103:1585278513363", "tyid": "304000", "fontsize": 12, "halo": 1.8 }, "geometry": { "type": "Point", "coordinates": [ 72.246094, 26.745610 ] } }
{"year": "AD662",  "type": "Feature", "tippecanoe": { "layer": "7F5D83FF71601585558896551", "minzoom": 2, "maxzoom": 8 }, "properties": { "title": "梅特拉卡王朝", "color": "#0056E7", "oid": "103:1585278513365", "tyid": "304000", "fontsize": 12, "halo": 1.8 }, "geometry": { "type": "Point", "coordinates": [ 75.585938, 24.766785 ] } }
{"year": "AD662",  "type": "Feature", "tippecanoe": { "layer": "7F5D83FF71601585558896551", "minzoom": 2, "maxzoom": 8 }, "properties": { "title": "卡尔科塔王朝", "color": "#0056E7", "oid": "103:1585278513409", "tyid": "304000", "fontsize": 12, "halo": 1.8 }, "geometry": { "type": "Point", "coordinates": [ 82.441406, 25.799891 ] } }
{"year": "AD662",  "type": "Feature", "tippecanoe": { "layer": "7F5D83FF71601585558896551", "minzoom": 2, "maxzoom": 8 }, "properties": { "title": "吐蕃", "color": "#0056E7", "oid": "103:1585278513417", "tyid": "304000", "fontsize": 12, "halo": 1.8 }, "geometry": { "type": "Point", "coordinates": [ 86.748047, 30.977609 ] } }
{"year": "AD662",  "type": "Feature", "tippecanoe": { "layer": "7F5D83FF71601585558896551", "minzoom": 2, "maxzoom": 8 }, "properties": { "title": "遮娄其王朝", "color": "#0056E7", "oid": "103:1585278513390", "tyid": "304000", "fontsize": 12, "halo": 1.8 }, "geometry": { "type": "Point", "coordinates": [ 76.552734, 18.812718 ] } }
{"year": "AD662",  "type": "Feature", "tippecanoe": { "layer": "7F5D83FF71601585558896551", "minzoom": 2, "maxzoom": 8 }, "properties": { "title": "室韦诸部", "color": "#0056E7", "oid": "103:1585278513376", "tyid": "304001", "fontsize": 12, "halo": 1.6 }, "geometry": { "type": "Point", "coordinates": [ 124.716797, 53.120405 ] } }
{"year": "AD662",  "type": "Feature", "tippecanoe": { "layer": "7F5D83FF71601585558896551", "minzoom": 2, "maxzoom": 8 }, "properties": { "title": "缅族", "color": "#0056E7", "oid": "103:1585278513451", "tyid": "304002", "fontsize": 12, "halo": 1.6 }, "geometry": { "type": "Point", "coordinates": [ 99.228516, 22.187405 ] } }
{"year": "AD662",  "type": "Feature", "tippecanoe": { "layer": "7F5D83FF71601585558896551", "minzoom": 2, "maxzoom": 8 }, "properties": { "title": "骠国", "color": "#0056E7", "oid": "103:1585278513381", "tyid": "304000", "fontsize": 12, "halo": 1.8 }, "geometry": { "type": "Point", "coordinates": [ 95.273438, 20.220966 ] } }
{"year": "AD662",  "type": "Feature", "tippecanoe": { "layer": "7F5D83FF71601585558896551", "minzoom": 2, "maxzoom": 8 }, "properties": { "title": "真腊王国", "color": "#0056E7", "oid": "103:1585278513356", "tyid": "304000", "fontsize": 12, "halo": 1.8 }, "geometry": { "type": "Point", "coordinates": [ 104.853516, 14.179186 ] } }
{"year": "AD662",  "type": "Feature", "tippecanoe": { "layer": "7F5D83FF71601585558896551", "minzoom": 2, "maxzoom": 8 }, "properties": { "title": "唐", "color": "#0056E7", "oid": "103:1585278513418", "tyid": "304000", "fontsize": 12, "halo": 1.8 }, "geometry": { "type": "Point", "coordinates": [ 113.203125, 39.909736 ] } }
{"year": "AD662",  "type": "Feature", "tippecanoe": { "layer": "7F5D83FF71601585558896551", "minzoom": 2, "maxzoom": 8 }, "properties": { "title": "马来人", "color": "#0056E7", "oid": "103:1585278513452", "tyid": "304002", "fontsize": 12, "halo": 1.6 }, "geometry": { "type": "Point", "coordinates": [ 114.169922, 0.878872 ] } }
{"year": "AD662",  "type": "Feature", "tippecanoe": { "layer": "7F5D83FF71601585558896551", "minzoom": 2, "maxzoom": 8 }, "properties": { "title": "飞鸟时代", "color": "#0056E7", "oid": "103:1585278513349", "tyid": "304000", "fontsize": 12, "halo": 1.8 }, "geometry": { "type": "Point", "coordinates": [ 137.636719, 36.244273 ] } }
{"year": "AD662",  "type": "Feature", "tippecanoe": { "layer": "7F5D83FF71601585558896551", "minzoom": 2, "maxzoom": 8 }, "properties": { "title": "三佛齐王国", "color": "#0056E7", "oid": "103:1585278513360", "tyid": "304000", "fontsize": 12, "halo": 1.8 }, "geometry": { "type": "Point", "coordinates": [ 102.216797, -0.703107 ] } }
{"year": "AD662",  "type": "Feature", "tippecanoe": { "layer": "7F5D83FF72401585558896553", "minzoom": 2, "maxzoom": 8 }, "properties": { "title": "皮克特诸王国", "color": "#202020", "oid": "103:1585278513429", "tyid": "304000", "fontsize": 12, "halo": 0.8 }, "geometry": { "type": "Point", "coordinates": [ -4.042969, 56.848972 ] } }
{"year": "AD662",  "type": "Feature", "tippecanoe": { "layer": "7F5D83FF72401585558896553", "minzoom": 2, "maxzoom": 8 }, "properties": { "title": "斯特拉瑟克雷德王国", "color": "#202020", "oid": "103:1585278513435", "tyid": "304000", "fontsize": 12, "halo": 0.8 }, "geometry": { "type": "Point", "coordinates": [ -3.779297, 55.128649 ] } }
{"year": "AD662",  "type": "Feature", "tippecanoe": { "layer": "7F5D83FF72401585558896553", "minzoom": 2, "maxzoom": 8 }, "properties": { "title": "诺森布里亚王国", "color": "#202020", "oid": "103:1585278513437", "tyid": "304000", "fontsize": 12, "halo": 0.8 }, "geometry": { "type": "Point", "coordinates": [ -1.933594, 54.673831 ] } }
{"year": "AD662",  "type": "Feature", "tippecanoe": { "layer": "7F5D83FF72401585558896553", "minzoom": 2, "maxzoom": 8 }, "properties": { "title": "麦西亚王国", "color": "#202020", "oid": "103:1585278513439", "tyid": "304000", "fontsize": 12, "halo": 0.8 }, "geometry": { "type": "Point", "coordinates": [ -1.494141, 52.696361 ] } }
{"year": "AD662",  "type": "Feature", "tippecanoe": { "layer": "7F5D83FF72401585558896553", "minzoom": 2, "maxzoom": 8 }, "properties": { "title": "凯尔特布立吞人", "color": "#202020", "oid": "103:1585278513377", "tyid": "304000", "fontsize": 12, "halo": 0.8 }, "geometry": { "type": "Point", "coordinates": [ -3.779297, 52.321911 ] } }
{"year": "AD662",  "type": "Feature", "tippecanoe": { "layer": "7F5D83FF72401585558896553", "minzoom": 2, "maxzoom": 8 }, "properties": { "title": "威塞克斯王国", "color": "#202020", "oid": "103:1585278513449", "tyid": "304000", "fontsize": 12, "halo": 0.8 }, "geometry": { "type": "Point", "coordinates": [ -2.636719, 51.013755 ] } }
{"year": "AD662",  "type": "Feature", "tippecanoe": { "layer": "7F5D83FF72401585558896553", "minzoom": 2, "maxzoom": 8 }, "properties": { "title": "伦巴第王国", "color": "#202020", "oid": "103:1585278513421", "tyid": "304000", "fontsize": 12, "halo": 0.8 }, "geometry": { "type": "Point", "coordinates": [ 10.107422, 45.151053 ] } }
{"year": "AD662",  "type": "Feature", "tippecanoe": { "layer": "7F5D83FF72401585558896553", "minzoom": 2, "maxzoom": 8 }, "properties": { "title": "西恒伽王朝", "color": "#202020", "oid": "103:1585278513394", "tyid": "304000", "fontsize": 12, "halo": 0.8 }, "geometry": { "type": "Point", "coordinates": [ 77.343750, 13.410994 ] } }
{"year": "AD662",  "type": "Feature", "tippecanoe": { "layer": "7F5D83FF72401585558896553", "minzoom": 2, "maxzoom": 8 }, "properties": { "title": "哲罗国", "color": "#202020", "oid": "103:1585278513367", "tyid": "304000", "fontsize": 12, "halo": 0.8 }, "geometry": { "type": "Point", "coordinates": [ 76.552734, 10.401378 ] } }
{"year": "AD662",  "type": "Feature", "tippecanoe": { "layer": "7F5D83FF72401585558896553", "minzoom": 2, "maxzoom": 8 }, "properties": { "title": "潘地亚王国", "color": "#202020", "oid": "103:1585278513368", "tyid": "304000", "fontsize": 12, "halo": 0.8 }, "geometry": { "type": "Point", "coordinates": [ 78.134766, 10.141932 ] } }
{"year": "AD662",  "type": "Feature", "tippecanoe": { "layer": "7F5D83FF72401585558896553", "minzoom": 2, "maxzoom": 8 }, "properties": { "title": "巴纳王国", "color": "#202020", "oid": "103:1585278513398", "tyid": "304000", "fontsize": 12, "halo": 0.8 }, "geometry": { "type": "Point", "coordinates": [ 81.298828, 19.394068 ] } }
{"year": "AD662",  "type": "Feature", "tippecanoe": { "layer": "7F5D83FF72401585558896553", "minzoom": 2, "maxzoom": 8 }, "properties": { "title": "东遮娄其王朝", "color": "#202020", "oid": "103:1585278513374", "tyid": "304000", "fontsize": 12, "halo": 0.8 }, "geometry": { "type": "Point", "coordinates": [ 80.859375, 16.720385 ] } }
{"year": "AD662",  "type": "Feature", "tippecanoe": { "layer": "7F5D83FF72401585558896553", "minzoom": 2, "maxzoom": 8 }, "properties": { "title": "帕拉瓦王朝", "color": "#202020", "oid": "103:1585278513396", "tyid": "304000", "fontsize": 12, "halo": 0.8 }, "geometry": { "type": "Point", "coordinates": [ 79.277344, 13.410994 ] } }
{"year": "AD662",  "type": "Feature", "tippecanoe": { "layer": "7F5D83FF72401585558896553", "minzoom": 2, "maxzoom": 8 }, "properties": { "title": "沙罗哈瓦王朝", "color": "#202020", "oid": "103:1585278513401", "tyid": "304000", "fontsize": 12, "halo": 0.8 }, "geometry": { "type": "Point", "coordinates": [ 84.638672, 19.642588 ] } }
{"year": "AD662",  "type": "Feature", "tippecanoe": { "layer": "7F5D83FF72401585558896553", "minzoom": 2, "maxzoom": 8 }, "properties": { "title": "阿努拉德普勒王国", "color": "#202020", "oid": "103:1585278513358", "tyid": "304000", "fontsize": 12, "halo": 0.8 }, "geometry": { "type": "Point", "coordinates": [ 80.683594, 7.623887 ] } }
{"year": "AD662",  "type": "Feature", "tippecanoe": { "layer": "7F5D83FF72401585558896553", "minzoom": 2, "maxzoom": 8 }, "properties": { "title": "迦摩缕波王国", "color": "#202020", "oid": "103:1585278513407", "tyid": "304000", "fontsize": 12, "halo": 0.8 }, "geometry": { "type": "Point", "coordinates": [ 91.845703, 25.878994 ] } }
{"year": "AD662",  "type": "Feature", "tippecanoe": { "layer": "7F5D83FF72401585558896553", "minzoom": 2, "maxzoom": 8 }, "properties": { "title": "古曼尼普尔王国", "color": "#202020", "oid": "103:1585278513370", "tyid": "304000", "fontsize": 12, "halo": 0.8 }, "geometry": { "type": "Point", "coordinates": [ 94.042969, 25.085599 ] } }
{"year": "AD662",  "type": "Feature", "tippecanoe": { "layer": "7F5D83FF72401585558896553", "minzoom": 2, "maxzoom": 8 }, "properties": { "title": "骇黎朋猜国", "color": "#202020", "oid": "103:1585278513372", "tyid": "304000", "fontsize": 12, "halo": 0.8 }, "geometry": { "type": "Point", "coordinates": [ 99.667969, 18.229351 ] } }
{"year": "AD662",  "type": "Feature", "tippecanoe": { "layer": "7F5D83FF72401585558896553", "minzoom": 2, "maxzoom": 8 }, "properties": { "title": "直通王国", "color": "#202020", "oid": "103:1585278513383", "tyid": "304000", "fontsize": 12, "halo": 0.8 }, "geometry": { "type": "Point", "coordinates": [ 98.085938, 16.130262 ] } }
{"year": "AD662",  "type": "Feature", "tippecanoe": { "layer": "7F5D83FF72401585558896553", "minzoom": 2, "maxzoom": 8 }, "properties": { "title": "陀罗钵地王国", "color": "#202020", "oid": "103:1585278513403", "tyid": "304000", "fontsize": 12, "halo": 0.8 }, "geometry": { "type": "Point", "coordinates": [ 100.195312, 14.604847 ] } }
{"year": "AD662",  "type": "Feature", "tippecanoe": { "layer": "7F5D83FF72401585558896553", "minzoom": 2, "maxzoom": 8 }, "properties": { "title": "狼牙脩国", "color": "#202020", "oid": "103:1585278513354", "tyid": "304000", "fontsize": 12, "halo": 0.8 }, "geometry": { "type": "Point", "coordinates": [ 99.316406, 8.320212 ] } }
{"year": "AD662",  "type": "Feature", "tippecanoe": { "layer": "7F5D83FF72401585558896553", "minzoom": 2, "maxzoom": 8 }, "properties": { "title": "林邑国", "color": "#202020", "oid": "103:1585278513405", "tyid": "304000", "fontsize": 12, "halo": 0.8 }, "geometry": { "type": "Point", "coordinates": [ 106.699219, 16.888660 ] } }
{"year": "AD662",  "type": "Feature", "tippecanoe": { "layer": "7F5D83FF72401585558896553", "minzoom": 2, "maxzoom": 8 }, "properties": { "title": "新罗", "color": "#202020", "oid": "103:1585278513414", "tyid": "304000", "fontsize": 12, "halo": 0.8 }, "geometry": { "type": "Point", "coordinates": [ 128.056641, 37.160317 ] } }
{"year": "AD662",  "type": "Feature", "tippecanoe": { "layer": "7F5D83FF72401585558896553", "minzoom": 2, "maxzoom": 8 }, "properties": { "title": "虾夷", "color": "#262626", "oid": "103:1585278513380", "tyid": "304002", "fontsize": 12, "halo": 0.8 }, "geometry": { "type": "Point", "coordinates": [ 142.558594, 43.389082 ] } }
{"year": "AD662",  "type": "Feature", "tippecanoe": { "layer": "7F5D83FF77801585558896560", "minzoom": 2, "maxzoom": 8 }, "properties": { "title": "西哥特王国", "color": "#202020", "oid": "103:1585278513413", "tyid": "304000", "fontsize": 12, "halo": 0.8 }, "geometry": { "type": "Point", "coordinates": [ -3.955078, 40.446947 ] } }
{"year": "AD662",  "type": "Feature", "tippecanoe": { "layer": "7F5D83FF77801585558896560", "minzoom": 2, "maxzoom": 8 }, "properties": { "title": "法兰克王国", "color": "#202020", "oid": "103:1585278513411", "tyid": "304000", "fontsize": 12, "halo": 0.8 }, "geometry": { "type": "Point", "coordinates": [ 4.394531, 47.694974 ] } }
{"year": "AD662",  "type": "Feature", "tippecanoe": { "layer": "7F5D83FF77801585558896560", "minzoom": 2, "maxzoom": 8 }, "properties": { "title": "东罗马帝国", "color": "#202020", "oid": "103:1585278513420", "tyid": "304000", "fontsize": 12, "halo": 0.8 }, "geometry": { "type": "Point", "coordinates": [ 21.972656, 42.358544 ] } }
{"year": "AD662",  "type": "Feature", "tippecanoe": { "layer": "7F5D83FF77801585558896560", "minzoom": 2, "maxzoom": 8 }, "properties": { "title": "波罗的人", "color": "#262626", "oid": "103:1585278513428", "tyid": "304002", "fontsize": 12, "halo": 0.8 }, "geometry": { "type": "Point", "coordinates": [ 27.773438, 54.418930 ] } }
{"year": "AD662",  "type": "Feature", "tippecanoe": { "layer": "7F5D83FF77801585558896560", "minzoom": 2, "maxzoom": 8 }, "properties": { "title": "斯拉夫人", "color": "#262626", "oid": "103:1585278513427", "tyid": "304002", "fontsize": 12, "halo": 0.8 }, "geometry": { "type": "Point", "coordinates": [ 25.400391, 50.680797 ] } }
{"year": "AD662",  "type": "Feature", "tippecanoe": { "layer": "7F5D83FF77801585558896560", "minzoom": 2, "maxzoom": 8 }, "properties": { "title": "阿瓦尔汗国", "color": "#202020", "oid": "103:1585278513423", "tyid": "304000", "fontsize": 12, "halo": 0.8 }, "geometry": { "type": "Point", "coordinates": [ 22.939453, 46.619261 ] } }
{"year": "AD662",  "type": "Feature", "tippecanoe": { "layer": "7F5D83FF77801585558896560", "minzoom": 2, "maxzoom": 8 }, "properties": { "title": "伍麦叶哈里发国", "color": "#202020", "oid": "103:1585278513425", "tyid": "304000", "fontsize": 12, "halo": 0.8 }, "geometry": { "type": "Point", "coordinates": [ 42.626953, 33.651208 ] } }
{"year": "AD662",  "type": "Feature", "tippecanoe": { "layer": "7F5D83FF77801585558896560", "minzoom": 2, "maxzoom": 8 }, "properties": { "title": "马库里亚王国", "color": "#202020", "oid": "103:1585278513387", "tyid": "304000", "fontsize": 12, "halo": 0.8 }, "geometry": { "type": "Point", "coordinates": [ 31.904297, 19.228177 ] } }
{"year": "AD662",  "type": "Feature", "tippecanoe": { "layer": "7F5D83FF77801585558896560", "minzoom": 2, "maxzoom": 8 }, "properties": { "title": "阿罗底亚王国", "color": "#202020", "oid": "103:1585278513362", "tyid": "304000", "fontsize": 12, "halo": 0.8 }, "geometry": { "type": "Point", "coordinates": [ 33.310547, 13.752725 ] } }
{"year": "AD662",  "type": "Feature", "tippecanoe": { "layer": "7F5D83FF77801585558896560", "minzoom": 2, "maxzoom": 8 }, "properties": { "title": "阿克苏姆王国", "color": "#202020", "oid": "103:1585278513385", "tyid": "304000", "fontsize": 12, "halo": 0.8 }, "geometry": { "type": "Point", "coordinates": [ 39.111328, 13.581921 ] } }
{"year": "AD662",  "type": "Feature", "tippecanoe": { "layer": "7F5D83FF77801585558896560", "minzoom": 2, "maxzoom": 8 }, "properties": { "title": "婆罗门王朝", "color": "#202020", "oid": "103:1585278513388", "tyid": "304000", "fontsize": 12, "halo": 0.8 }, "geometry": { "type": "Point", "coordinates": [ 67.851562, 27.527758 ] } }
{"year": "AD662",  "type": "Feature", "tippecanoe": { "layer": "7F5D83FF77801585558896560", "minzoom": 2, "maxzoom": 8 }, "properties": { "title": "瞿折罗王国", "color": "#202020", "oid": "103:1585278513363", "tyid": "304000", "fontsize": 12, "halo": 0.8 }, "geometry": { "type": "Point", "coordinates": [ 72.246094, 26.745610 ] } }
{"year": "AD662",  "type": "Feature", "tippecanoe": { "layer": "7F5D83FF77801585558896560", "minzoom": 2, "maxzoom": 8 }, "properties": { "title": "梅特拉卡王朝", "color": "#202020", "oid": "103:1585278513365", "tyid": "304000", "fontsize": 12, "halo": 0.8 }, "geometry": { "type": "Point", "coordinates": [ 75.585938, 24.766785 ] } }
{"year": "AD662",  "type": "Feature", "tippecanoe": { "layer": "7F5D83FF77801585558896560", "minzoom": 2, "maxzoom": 8 }, "properties": { "title": "卡尔科塔王朝", "color": "#202020", "oid": "103:1585278513409", "tyid": "304000", "fontsize": 12, "halo": 0.8 }, "geometry": { "type": "Point", "coordinates": [ 82.441406, 25.799891 ] } }
{"year": "AD662",  "type": "Feature", "tippecanoe": { "layer": "7F5D83FF77801585558896560", "minzoom": 2, "maxzoom": 8 }, "properties": { "title": "吐蕃", "color": "#202020", "oid": "103:1585278513417", "tyid": "304000", "fontsize": 12, "halo": 0.8 }, "geometry": { "type": "Point", "coordinates": [ 86.748047, 30.977609 ] } }
{"year": "AD662",  "type": "Feature", "tippecanoe": { "layer": "7F5D83FF77801585558896560", "minzoom": 2, "maxzoom": 8 }, "properties": { "title": "遮娄其王朝", "color": "#202020", "oid": "103:1585278513390", "tyid": "304000", "fontsize": 12, "halo": 0.8 }, "geometry": { "type": "Point", "coordinates": [ 76.552734, 18.812718 ] } }
{"year": "AD662",  "type": "Feature", "tippecanoe": { "layer": "7F5D83FF77801585558896560", "minzoom": 2, "maxzoom": 8 }, "properties": { "title": "室韦诸部", "color": "#262626", "oid": "103:1585278513376", "tyid": "304001", "fontsize": 12, "halo": 0.8 }, "geometry": { "type": "Point", "coordinates": [ 124.716797, 53.120405 ] } }
{"year": "AD662",  "type": "Feature", "tippecanoe": { "layer": "7F5D83FF77801585558896560", "minzoom": 2, "maxzoom": 8 }, "properties": { "title": "缅族", "color": "#262626", "oid": "103:1585278513451", "tyid": "304002", "fontsize": 12, "halo": 0.8 }, "geometry": { "type": "Point", "coordinates": [ 99.228516, 22.187405 ] } }
{"year": "AD662",  "type": "Feature", "tippecanoe": { "layer": "7F5D83FF77801585558896560", "minzoom": 2, "maxzoom": 8 }, "properties": { "title": "骠国", "color": "#202020", "oid": "103:1585278513381", "tyid": "304000", "fontsize": 12, "halo": 0.8 }, "geometry": { "type": "Point", "coordinates": [ 95.273438, 20.220966 ] } }
{"year": "AD662",  "type": "Feature", "tippecanoe": { "layer": "7F5D83FF77801585558896560", "minzoom": 2, "maxzoom": 8 }, "properties": { "title": "真腊王国", "color": "#202020", "oid": "103:1585278513356", "tyid": "304000", "fontsize": 12, "halo": 0.8 }, "geometry": { "type": "Point", "coordinates": [ 104.853516, 14.179186 ] } }
{"year": "AD662",  "type": "Feature", "tippecanoe": { "layer": "7F5D83FF77801585558896560", "minzoom": 2, "maxzoom": 8 }, "properties": { "title": "唐", "color": "#202020", "oid": "103:1585278513418", "tyid": "304000", "fontsize": 12, "halo": 0.8 }, "geometry": { "type": "Point", "coordinates": [ 113.203125, 39.909736 ] } }
{"year": "AD662",  "type": "Feature", "tippecanoe": { "layer": "7F5D83FF77801585558896560", "minzoom": 2, "maxzoom": 8 }, "properties": { "title": "马来人", "color": "#262626", "oid": "103:1585278513452", "tyid": "304002", "fontsize": 12, "halo": 0.8 }, "geometry": { "type": "Point", "coordinates": [ 114.169922, 0.878872 ] } }
{"year": "AD662",  "type": "Feature", "tippecanoe": { "layer": "7F5D83FF77801585558896560", "minzoom": 2, "maxzoom": 8 }, "properties": { "title": "飞鸟时代", "color": "#202020", "oid": "103:1585278513349", "tyid": "304000", "fontsize": 12, "halo": 0.8 }, "geometry": { "type": "Point", "coordinates": [ 137.636719, 36.244273 ] } }
{"year": "AD662",  "type": "Feature", "tippecanoe": { "layer": "7F5D83FF77801585558896560", "minzoom": 2, "maxzoom": 8 }, "properties": { "title": "三佛齐王国", "color": "#202020", "oid": "103:1585278513360", "tyid": "304000", "fontsize": 12, "halo": 0.8 }, "geometry": { "type": "Point", "coordinates": [ 102.216797, -0.703107 ] } }
{"year": "AD662",  "type": "Feature", "tippecanoe": { "layer": "7F5D83FF8A581585558896538", "minzoom": 2, "maxzoom": 8 }, "properties": { "title": "达尔里阿达王国", "color": "#202020", "oid": "103:1585278513432", "tyid": "304000", "fontsize": 12, "halo": 0.8 }, "geometry": { "type": "Point", "coordinates": [ -5.273438, 56.267761 ] } }
{"year": "AD662",  "type": "Feature", "tippecanoe": { "layer": "7F5D83FF8A581585558896538", "minzoom": 2, "maxzoom": 8 }, "properties": { "title": "萨塞克斯王国", "color": "#202020", "oid": "103:1585278513447", "tyid": "304000", "fontsize": 12, "halo": 0.8 }, "geometry": { "type": "Point", "coordinates": [ -0.175781, 50.958427 ] } }
{"year": "AD662",  "type": "Feature", "tippecanoe": { "layer": "7F5D83FF8A581585558896538", "minzoom": 2, "maxzoom": 8 }, "properties": { "title": "东盎格利亚王国", "color": "#202020", "oid": "103:1585278513441", "tyid": "304000", "fontsize": 12, "halo": 0.8 }, "geometry": { "type": "Point", "coordinates": [ 0.966797, 52.536273 ] } }
{"year": "AD662",  "type": "Feature", "tippecanoe": { "layer": "7F5D83FF8A581585558896538", "minzoom": 2, "maxzoom": 8 }, "properties": { "title": "埃塞克斯王国", "color": "#202020", "oid": "103:1585278513443", "tyid": "304000", "fontsize": 12, "halo": 0.8 }, "geometry": { "type": "Point", "coordinates": [ 0.263672, 51.781436 ] } }
{"year": "AD662",  "type": "Feature", "tippecanoe": { "layer": "7F5D83FF8A581585558896538", "minzoom": 2, "maxzoom": 8 }, "properties": { "title": "肯特王国", "color": "#202020", "oid": "103:1585278513445", "tyid": "304000", "fontsize": 12, "halo": 0.8 }, "geometry": { "type": "Point", "coordinates": [ 0.703125, 51.179343 ] } }
{"year": "AD662",  "type": "Feature", "tippecanoe": { "layer": "7F5D83FF8A581585558896538", "minzoom": 2, "maxzoom": 8 }, "properties": { "title": "阿拉帕王朝", "color": "#202020", "oid": "103:1585278513393", "tyid": "304000", "fontsize": 12, "halo": 0.8 }, "geometry": { "type": "Point", "coordinates": [ 75.322266, 12.726084 ] } }
{"year": "AD662",  "type": "Feature", "tippecanoe": { "layer": "7F5D83FF8A581585558896538", "minzoom": 2, "maxzoom": 8 }, "properties": { "title": "耽罗国", "color": "#262626", "oid": "103:1585278513352", "tyid": "304002", "fontsize": 12, "halo": 0.8 }, "geometry": { "type": "Point", "coordinates": [ 126.474609, 33.431441 ] } }
{"year": "AD662",  "type": "Feature", "tippecanoe": { "layer": "7F5D83FF8EB81585558896541", "minzoom": 2, "maxzoom": 8 }, "properties": { "title": "皮克特诸王国", "color": "#0056E7", "oid": "103:1585278513429", "tyid": "304000", "fontsize": 12, "halo": 1.8 }, "geometry": { "type": "Point", "coordinates": [ -4.042969, 56.848972 ] } }
{"year": "AD662",  "type": "Feature", "tippecanoe": { "layer": "7F5D83FF8EB81585558896541", "minzoom": 2, "maxzoom": 8 }, "properties": { "title": "斯特拉瑟克雷德王国", "color": "#0056E7", "oid": "103:1585278513435", "tyid": "304000", "fontsize": 12, "halo": 1.8 }, "geometry": { "type": "Point", "coordinates": [ -3.779297, 55.128649 ] } }
{"year": "AD662",  "type": "Feature", "tippecanoe": { "layer": "7F5D83FF8EB81585558896541", "minzoom": 2, "maxzoom": 8 }, "properties": { "title": "诺森布里亚王国", "color": "#0056E7", "oid": "103:1585278513437", "tyid": "304000", "fontsize": 12, "halo": 1.8 }, "geometry": { "type": "Point", "coordinates": [ -1.933594, 54.673831 ] } }
{"year": "AD662",  "type": "Feature", "tippecanoe": { "layer": "7F5D83FF8EB81585558896541", "minzoom": 2, "maxzoom": 8 }, "properties": { "title": "麦西亚王国", "color": "#0056E7", "oid": "103:1585278513439", "tyid": "304000", "fontsize": 12, "halo": 1.8 }, "geometry": { "type": "Point", "coordinates": [ -1.494141, 52.696361 ] } }
{"year": "AD662",  "type": "Feature", "tippecanoe": { "layer": "7F5D83FF8EB81585558896541", "minzoom": 2, "maxzoom": 8 }, "properties": { "title": "凯尔特布立吞人", "color": "#0056E7", "oid": "103:1585278513377", "tyid": "304000", "fontsize": 12, "halo": 1.8 }, "geometry": { "type": "Point", "coordinates": [ -3.779297, 52.321911 ] } }
{"year": "AD662",  "type": "Feature", "tippecanoe": { "layer": "7F5D83FF8EB81585558896541", "minzoom": 2, "maxzoom": 8 }, "properties": { "title": "威塞克斯王国", "color": "#0056E7", "oid": "103:1585278513449", "tyid": "304000", "fontsize": 12, "halo": 1.8 }, "geometry": { "type": "Point", "coordinates": [ -2.636719, 51.013755 ] } }
{"year": "AD662",  "type": "Feature", "tippecanoe": { "layer": "7F5D83FF8EB81585558896541", "minzoom": 2, "maxzoom": 8 }, "properties": { "title": "伦巴第王国", "color": "#0056E7", "oid": "103:1585278513421", "tyid": "304000", "fontsize": 12, "halo": 1.8 }, "geometry": { "type": "Point", "coordinates": [ 10.107422, 45.151053 ] } }
{"year": "AD662",  "type": "Feature", "tippecanoe": { "layer": "7F5D83FF8EB81585558896541", "minzoom": 2, "maxzoom": 8 }, "properties": { "title": "西恒伽王朝", "color": "#0056E7", "oid": "103:1585278513394", "tyid": "304000", "fontsize": 12, "halo": 1.8 }, "geometry": { "type": "Point", "coordinates": [ 77.343750, 13.410994 ] } }
{"year": "AD662",  "type": "Feature", "tippecanoe": { "layer": "7F5D83FF8EB81585558896541", "minzoom": 2, "maxzoom": 8 }, "properties": { "title": "哲罗国", "color": "#0056E7", "oid": "103:1585278513367", "tyid": "304000", "fontsize": 12, "halo": 1.8 }, "geometry": { "type": "Point", "coordinates": [ 76.552734, 10.401378 ] } }
{"year": "AD662",  "type": "Feature", "tippecanoe": { "layer": "7F5D83FF8EB81585558896541", "minzoom": 2, "maxzoom": 8 }, "properties": { "title": "潘地亚王国", "color": "#0056E7", "oid": "103:1585278513368", "tyid": "304000", "fontsize": 12, "halo": 1.8 }, "geometry": { "type": "Point", "coordinates": [ 78.134766, 10.141932 ] } }
{"year": "AD662",  "type": "Feature", "tippecanoe": { "layer": "7F5D83FF8EB81585558896541", "minzoom": 2, "maxzoom": 8 }, "properties": { "title": "巴纳王国", "color": "#0056E7", "oid": "103:1585278513398", "tyid": "304000", "fontsize": 12, "halo": 1.8 }, "geometry": { "type": "Point", "coordinates": [ 81.298828, 19.394068 ] } }
{"year": "AD662",  "type": "Feature", "tippecanoe": { "layer": "7F5D83FF8EB81585558896541", "minzoom": 2, "maxzoom": 8 }, "properties": { "title": "东遮娄其王朝", "color": "#0056E7", "oid": "103:1585278513374", "tyid": "304000", "fontsize": 12, "halo": 1.8 }, "geometry": { "type": "Point", "coordinates": [ 80.859375, 16.720385 ] } }
{"year": "AD662",  "type": "Feature", "tippecanoe": { "layer": "7F5D83FF8EB81585558896541", "minzoom": 2, "maxzoom": 8 }, "properties": { "title": "帕拉瓦王朝", "color": "#0056E7", "oid": "103:1585278513396", "tyid": "304000", "fontsize": 12, "halo": 1.8 }, "geometry": { "type": "Point", "coordinates": [ 79.277344, 13.410994 ] } }
{"year": "AD662",  "type": "Feature", "tippecanoe": { "layer": "7F5D83FF8EB81585558896541", "minzoom": 2, "maxzoom": 8 }, "properties": { "title": "沙罗哈瓦王朝", "color": "#0056E7", "oid": "103:1585278513401", "tyid": "304000", "fontsize": 12, "halo": 1.8 }, "geometry": { "type": "Point", "coordinates": [ 84.638672, 19.642588 ] } }
{"year": "AD662",  "type": "Feature", "tippecanoe": { "layer": "7F5D83FF8EB81585558896541", "minzoom": 2, "maxzoom": 8 }, "properties": { "title": "阿努拉德普勒王国", "color": "#0056E7", "oid": "103:1585278513358", "tyid": "304000", "fontsize": 12, "halo": 1.8 }, "geometry": { "type": "Point", "coordinates": [ 80.683594, 7.623887 ] } }
{"year": "AD662",  "type": "Feature", "tippecanoe": { "layer": "7F5D83FF8EB81585558896541", "minzoom": 2, "maxzoom": 8 }, "properties": { "title": "迦摩缕波王国", "color": "#0056E7", "oid": "103:1585278513407", "tyid": "304000", "fontsize": 12, "halo": 1.8 }, "geometry": { "type": "Point", "coordinates": [ 91.845703, 25.878994 ] } }
{"year": "AD662",  "type": "Feature", "tippecanoe": { "layer": "7F5D83FF8EB81585558896541", "minzoom": 2, "maxzoom": 8 }, "properties": { "title": "古曼尼普尔王国", "color": "#0056E7", "oid": "103:1585278513370", "tyid": "304000", "fontsize": 12, "halo": 1.8 }, "geometry": { "type": "Point", "coordinates": [ 94.042969, 25.085599 ] } }
{"year": "AD662",  "type": "Feature", "tippecanoe": { "layer": "7F5D83FF8EB81585558896541", "minzoom": 2, "maxzoom": 8 }, "properties": { "title": "骇黎朋猜国", "color": "#0056E7", "oid": "103:1585278513372", "tyid": "304000", "fontsize": 12, "halo": 1.8 }, "geometry": { "type": "Point", "coordinates": [ 99.667969, 18.229351 ] } }
{"year": "AD662",  "type": "Feature", "tippecanoe": { "layer": "7F5D83FF8EB81585558896541", "minzoom": 2, "maxzoom": 8 }, "properties": { "title": "直通王国", "color": "#0056E7", "oid": "103:1585278513383", "tyid": "304000", "fontsize": 12, "halo": 1.8 }, "geometry": { "type": "Point", "coordinates": [ 98.085938, 16.130262 ] } }
{"year": "AD662",  "type": "Feature", "tippecanoe": { "layer": "7F5D83FF8EB81585558896541", "minzoom": 2, "maxzoom": 8 }, "properties": { "title": "陀罗钵地王国", "color": "#0056E7", "oid": "103:1585278513403", "tyid": "304000", "fontsize": 12, "halo": 1.8 }, "geometry": { "type": "Point", "coordinates": [ 100.195312, 14.604847 ] } }
{"year": "AD662",  "type": "Feature", "tippecanoe": { "layer": "7F5D83FF8EB81585558896541", "minzoom": 2, "maxzoom": 8 }, "properties": { "title": "狼牙脩国", "color": "#0056E7", "oid": "103:1585278513354", "tyid": "304000", "fontsize": 12, "halo": 1.8 }, "geometry": { "type": "Point", "coordinates": [ 99.316406, 8.320212 ] } }
{"year": "AD662",  "type": "Feature", "tippecanoe": { "layer": "7F5D83FF8EB81585558896541", "minzoom": 2, "maxzoom": 8 }, "properties": { "title": "林邑国", "color": "#0056E7", "oid": "103:1585278513405", "tyid": "304000", "fontsize": 12, "halo": 1.8 }, "geometry": { "type": "Point", "coordinates": [ 106.699219, 16.888660 ] } }
{"year": "AD662",  "type": "Feature", "tippecanoe": { "layer": "7F5D83FF8EB81585558896541", "minzoom": 2, "maxzoom": 8 }, "properties": { "title": "新罗", "color": "#0056E7", "oid": "103:1585278513414", "tyid": "304000", "fontsize": 12, "halo": 1.8 }, "geometry": { "type": "Point", "coordinates": [ 128.056641, 37.160317 ] } }
{"year": "AD662",  "type": "Feature", "tippecanoe": { "layer": "7F5D83FF8EB81585558896541", "minzoom": 2, "maxzoom": 8 }, "properties": { "title": "虾夷", "color": "#0056E7", "oid": "103:1585278513380", "tyid": "304002", "fontsize": 12, "halo": 1.6 }, "geometry": { "type": "Point", "coordinates": [ 142.558594, 43.389082 ] } }
{"year": "AD662",  "type": "Feature", "tippecanoe": { "layer": "7F5D83FFBDA01585558896547", "minzoom": 2, "maxzoom": 8 }, "properties": { "title": "达尔里阿达王国", "color": "#0056E7", "oid": "103:1585278513432", "tyid": "304000", "fontsize": 12, "halo": 1.8 }, "geometry": { "type": "Point", "coordinates": [ -5.273438, 56.267761 ] } }
{"year": "AD662",  "type": "Feature", "tippecanoe": { "layer": "7F5D83FFBDA01585558896547", "minzoom": 2, "maxzoom": 8 }, "properties": { "title": "萨塞克斯王国", "color": "#0056E7", "oid": "103:1585278513447", "tyid": "304000", "fontsize": 12, "halo": 1.8 }, "geometry": { "type": "Point", "coordinates": [ -0.175781, 50.958427 ] } }
{"year": "AD662",  "type": "Feature", "tippecanoe": { "layer": "7F5D83FFBDA01585558896547", "minzoom": 2, "maxzoom": 8 }, "properties": { "title": "东盎格利亚王国", "color": "#0056E7", "oid": "103:1585278513441", "tyid": "304000", "fontsize": 12, "halo": 1.8 }, "geometry": { "type": "Point", "coordinates": [ 0.966797, 52.536273 ] } }
{"year": "AD662",  "type": "Feature", "tippecanoe": { "layer": "7F5D83FFBDA01585558896547", "minzoom": 2, "maxzoom": 8 }, "properties": { "title": "埃塞克斯王国", "color": "#0056E7", "oid": "103:1585278513443", "tyid": "304000", "fontsize": 12, "halo": 1.8 }, "geometry": { "type": "Point", "coordinates": [ 0.263672, 51.781436 ] } }
{"year": "AD662",  "type": "Feature", "tippecanoe": { "layer": "7F5D83FFBDA01585558896547", "minzoom": 2, "maxzoom": 8 }, "properties": { "title": "肯特王国", "color": "#0056E7", "oid": "103:1585278513445", "tyid": "304000", "fontsize": 12, "halo": 1.8 }, "geometry": { "type": "Point", "coordinates": [ 0.703125, 51.179343 ] } }
{"year": "AD662",  "type": "Feature", "tippecanoe": { "layer": "7F5D83FFBDA01585558896547", "minzoom": 2, "maxzoom": 8 }, "properties": { "title": "阿拉帕王朝", "color": "#0056E7", "oid": "103:1585278513393", "tyid": "304000", "fontsize": 12, "halo": 1.8 }, "geometry": { "type": "Point", "coordinates": [ 75.322266, 12.726084 ] } }
{"year": "AD662",  "type": "Feature", "tippecanoe": { "layer": "7F5D83FFBDA01585558896547", "minzoom": 2, "maxzoom": 8 }, "properties": { "title": "耽罗国", "color": "#0056E7", "oid": "103:1585278513352", "tyid": "304002", "fontsize": 12, "halo": 1.6 }, "geometry": { "type": "Point", "coordinates": [ 126.474609, 33.431441 ] } }
