{"year": "AD74",  "type": "Feature", "tippecanoe": { "layer": "2AFCA0F522E81583917768781", "minzoom": 2, "maxzoom": 8 }, "properties": { "halo": 1.6, "title": "古白令海文化", "fontsize": 12, "tyid": "304002", "oid": "103:1562760074859", "color": "#0056E7" }, "geometry": { "type": "Point", "coordinates": [ -170.332031, 63.470145 ] } }
{"year": "AD74",  "type": "Feature", "tippecanoe": { "layer": "2AFCA0F522E81583917768781", "minzoom": 2, "maxzoom": 8 }, "properties": { "halo": 1.6, "title": "查普卡洛文化", "fontsize": 12, "tyid": "304002", "oid": "103:1562760074410", "color": "#0056E7" }, "geometry": { "type": "Point", "coordinates": [ -99.931641, 20.303418 ] } }
{"year": "AD74",  "type": "Feature", "tippecanoe": { "layer": "2AFCA0F522E81583917768781", "minzoom": 2, "maxzoom": 8 }, "properties": { "halo": 1.6, "title": "特奥蒂瓦坎", "fontsize": 12, "tyid": "304002", "oid": "103:1562760074876", "color": "#0056E7" }, "geometry": { "type": "Point", "coordinates": [ -99.404297, 19.808054 ] } }
{"year": "AD74",  "type": "Feature", "tippecanoe": { "layer": "2AFCA0F522E81583917768781", "minzoom": 2, "maxzoom": 8 }, "properties": { "halo": 1.6, "title": "米斯特克人", "fontsize": 12, "tyid": "304001", "oid": "103:1562760074522", "color": "#0056E7" }, "geometry": { "type": "Point", "coordinates": [ -98.349609, 17.224758 ] } }
{"year": "AD74",  "type": "Feature", "tippecanoe": { "layer": "2AFCA0F522E81583917768781", "minzoom": 2, "maxzoom": 8 }, "properties": { "halo": 1.6, "title": "特里克人", "fontsize": 12, "tyid": "304001", "oid": "103:1562760074335", "color": "#0056E7" }, "geometry": { "type": "Point", "coordinates": [ -97.294922, 17.644022 ] } }
{"year": "AD74",  "type": "Feature", "tippecanoe": { "layer": "2AFCA0F522E81583917768781", "minzoom": 2, "maxzoom": 8 }, "properties": { "halo": 1.6, "title": "洛瓦贾达斯文化", "fontsize": 12, "tyid": "304002", "oid": "103:1562760074420", "color": "#0056E7" }, "geometry": { "type": "Point", "coordinates": [ -96.416016, 19.145168 ] } }
{"year": "AD74",  "type": "Feature", "tippecanoe": { "layer": "2AFCA0F522E81583917768781", "minzoom": 2, "maxzoom": 8 }, "properties": { "halo": 1.6, "title": "麦克斯人", "fontsize": 12, "tyid": "304001", "oid": "103:1562760074928", "color": "#0056E7" }, "geometry": { "type": "Point", "coordinates": [ -96.328125, 18.062312 ] } }
{"year": "AD74",  "type": "Feature", "tippecanoe": { "layer": "2AFCA0F522E81583917768781", "minzoom": 2, "maxzoom": 8 }, "properties": { "halo": 1.6, "title": "后奥尔梅克文化", "fontsize": 12, "tyid": "304002", "oid": "103:1562760074223", "color": "#0056E7" }, "geometry": { "type": "Point", "coordinates": [ -95.625000, 18.479609 ] } }
{"year": "AD74",  "type": "Feature", "tippecanoe": { "layer": "2AFCA0F522E81583917768781", "minzoom": 2, "maxzoom": 8 }, "properties": { "halo": 1.6, "title": "佐齐尔人", "fontsize": 12, "tyid": "304001", "oid": "103:1562760074344", "color": "#0056E7" }, "geometry": { "type": "Point", "coordinates": [ -93.339844, 16.551962 ] } }
{"year": "AD74",  "type": "Feature", "tippecanoe": { "layer": "2AFCA0F522E81583917768781", "minzoom": 2, "maxzoom": 8 }, "properties": { "halo": 1.6, "title": "祖赫人", "fontsize": 12, "tyid": "304001", "oid": "103:1562760074460", "color": "#0056E7" }, "geometry": { "type": "Point", "coordinates": [ -92.109375, 16.045813 ] } }
{"year": "AD74",  "type": "Feature", "tippecanoe": { "layer": "2AFCA0F522E81583917768781", "minzoom": 2, "maxzoom": 8 }, "properties": { "halo": 1.6, "title": "基切人", "fontsize": 12, "tyid": "304001", "oid": "103:1562760074432", "color": "#0056E7" }, "geometry": { "type": "Point", "coordinates": [ -90.966797, 15.029686 ] } }
{"year": "AD74",  "type": "Feature", "tippecanoe": { "layer": "2AFCA0F522E81583917768781", "minzoom": 2, "maxzoom": 8 }, "properties": { "halo": 1.6, "title": "阿尔托山文化", "fontsize": 12, "tyid": "304002", "oid": "103:1562760074867", "color": "#0056E7" }, "geometry": { "type": "Point", "coordinates": [ -91.054688, 14.349548 ] } }
{"year": "AD74",  "type": "Feature", "tippecanoe": { "layer": "2AFCA0F522E81583917768781", "minzoom": 2, "maxzoom": 8 }, "properties": { "halo": 1.6, "title": "怒溪文化", "fontsize": 12, "tyid": "304002", "oid": "103:1562760074874", "color": "#0056E7" }, "geometry": { "type": "Point", "coordinates": [ -72.421875, 41.574361 ] } }
{"year": "AD74",  "type": "Feature", "tippecanoe": { "layer": "2AFCA0F522E81583917768781", "minzoom": 2, "maxzoom": 8 }, "properties": { "halo": 1.6, "title": "威廉文化", "fontsize": 12, "tyid": "304002", "oid": "103:1562760074441", "color": "#0056E7" }, "geometry": { "type": "Point", "coordinates": [ -80.771484, 39.639538 ] } }
{"year": "AD74",  "type": "Feature", "tippecanoe": { "layer": "2AFCA0F522E81583917768781", "minzoom": 2, "maxzoom": 8 }, "properties": { "halo": 1.6, "title": "玛纳索塔文化", "fontsize": 12, "tyid": "304002", "oid": "103:1562760074545", "color": "#0056E7" }, "geometry": { "type": "Point", "coordinates": [ -82.441406, 27.683528 ] } }
{"year": "AD74",  "type": "Feature", "tippecanoe": { "layer": "2AFCA0F522E81583917768781", "minzoom": 2, "maxzoom": 8 }, "properties": { "halo": 1.6, "title": "卡卢萨人", "fontsize": 12, "tyid": "304001", "oid": "103:1562760074774", "color": "#0056E7" }, "geometry": { "type": "Point", "coordinates": [ -81.650391, 27.137368 ] } }
{"year": "AD74",  "type": "Feature", "tippecanoe": { "layer": "2AFCA0F522E81583917768781", "minzoom": 2, "maxzoom": 8 }, "properties": { "halo": 1.6, "title": "圣约翰文化", "fontsize": 12, "tyid": "304002", "oid": "103:1562760074626", "color": "#0056E7" }, "geometry": { "type": "Point", "coordinates": [ -81.474609, 29.382175 ] } }
{"year": "AD74",  "type": "Feature", "tippecanoe": { "layer": "2AFCA0F522E81583917768781", "minzoom": 2, "maxzoom": 8 }, "properties": { "halo": 1.6, "title": "贝尔格莱德文化", "fontsize": 12, "tyid": "304002", "oid": "103:1562760074940", "color": "#0056E7" }, "geometry": { "type": "Point", "coordinates": [ -80.859375, 27.449790 ] } }
{"year": "AD74",  "type": "Feature", "tippecanoe": { "layer": "2AFCA0F522E81583917768781", "minzoom": 2, "maxzoom": 8 }, "properties": { "halo": 1.6, "title": "格莱兹文化", "fontsize": 12, "tyid": "304002", "oid": "103:1562760074843", "color": "#0056E7" }, "geometry": { "type": "Point", "coordinates": [ -80.771484, 26.037042 ] } }
{"year": "AD74",  "type": "Feature", "tippecanoe": { "layer": "2AFCA0F522E81583917768781", "minzoom": 2, "maxzoom": 8 }, "properties": { "halo": 1.6, "title": "德贵斯塔族", "fontsize": 12, "tyid": "304001", "oid": "103:1562760074242", "color": "#0056E7" }, "geometry": { "type": "Point", "coordinates": [ -80.419922, 25.562265 ] } }
{"year": "AD74",  "type": "Feature", "tippecanoe": { "layer": "2AFCA0F522E81583917768781", "minzoom": 2, "maxzoom": 8 }, "properties": { "halo": 1.6, "title": "雷卡人", "fontsize": 12, "tyid": "304001", "oid": "103:1562760074714", "color": "#0056E7" }, "geometry": { "type": "Point", "coordinates": [ -87.802734, 13.752725 ] } }
{"year": "AD74",  "type": "Feature", "tippecanoe": { "layer": "2AFCA0F522E81583917768781", "minzoom": 2, "maxzoom": 8 }, "properties": { "halo": 1.6, "title": "格兰科克勒文化", "fontsize": 12, "tyid": "304002", "oid": "103:1562760074751", "color": "#0056E7" }, "geometry": { "type": "Point", "coordinates": [ -80.507812, 8.581021 ] } }
{"year": "AD74",  "type": "Feature", "tippecanoe": { "layer": "2AFCA0F522E81583917768781", "minzoom": 2, "maxzoom": 8 }, "properties": { "halo": 1.6, "title": "泰罗纳", "fontsize": 12, "tyid": "304002", "oid": "103:1562760074300", "color": "#0056E7" }, "geometry": { "type": "Point", "coordinates": [ -73.564453, 10.833306 ] } }
{"year": "AD74",  "type": "Feature", "tippecanoe": { "layer": "2AFCA0F522E81583917768781", "minzoom": 2, "maxzoom": 8 }, "properties": { "halo": 1.6, "title": "卡利玛文化", "fontsize": 12, "tyid": "304002", "oid": "103:1562760074512", "color": "#0056E7" }, "geometry": { "type": "Point", "coordinates": [ -76.728516, 4.214943 ] } }
{"year": "AD74",  "type": "Feature", "tippecanoe": { "layer": "2AFCA0F522E81583917768781", "minzoom": 2, "maxzoom": 8 }, "properties": { "halo": 1.6, "title": "马拉加纳文化", "fontsize": 12, "tyid": "304002", "oid": "103:1562760074712", "color": "#0056E7" }, "geometry": { "type": "Point", "coordinates": [ -76.289062, 3.425692 ] } }
{"year": "AD74",  "type": "Feature", "tippecanoe": { "layer": "2AFCA0F522E81583917768781", "minzoom": 2, "maxzoom": 8 }, "properties": { "halo": 1.6, "title": "昆巴雅文明", "fontsize": 12, "tyid": "304002", "oid": "103:1562760074339", "color": "#0056E7" }, "geometry": { "type": "Point", "coordinates": [ -75.761719, 5.090944 ] } }
{"year": "AD74",  "type": "Feature", "tippecanoe": { "layer": "2AFCA0F522E81583917768781", "minzoom": 2, "maxzoom": 8 }, "properties": { "halo": 1.6, "title": "科罗索文化", "fontsize": 12, "tyid": "304002", "oid": "103:1562760074926", "color": "#0056E7" }, "geometry": { "type": "Point", "coordinates": [ -66.533203, 18.229351 ] } }
{"year": "AD74",  "type": "Feature", "tippecanoe": { "layer": "2AFCA0F522E81583917768781", "minzoom": 2, "maxzoom": 8 }, "properties": { "halo": 1.6, "title": "大庄园文化", "fontsize": 12, "tyid": "304002", "oid": "103:1562760074507", "color": "#0056E7" }, "geometry": { "type": "Point", "coordinates": [ -65.917969, 18.396230 ] } }
{"year": "AD74",  "type": "Feature", "tippecanoe": { "layer": "2AFCA0F522E81583917768781", "minzoom": 2, "maxzoom": 8 }, "properties": { "halo": 1.6, "title": "萨拉杜文化", "fontsize": 12, "tyid": "304002", "oid": "103:1562760074505", "color": "#0056E7" }, "geometry": { "type": "Point", "coordinates": [ -61.699219, 16.214675 ] } }
{"year": "AD74",  "type": "Feature", "tippecanoe": { "layer": "2AFCA0F522E81583917768781", "minzoom": 2, "maxzoom": 8 }, "properties": { "halo": 1.6, "title": "皮克特人", "fontsize": 12, "tyid": "304001", "oid": "103:1562760074736", "color": "#0056E7" }, "geometry": { "type": "Point", "coordinates": [ -1.406250, 60.326948 ] } }
{"year": "AD74",  "type": "Feature", "tippecanoe": { "layer": "2AFCA0F522E81583917768781", "minzoom": 2, "maxzoom": 8 }, "properties": { "halo": 1.6, "title": "凯雷尼人", "fontsize": 12, "tyid": "304001", "oid": "103:1562760074763", "color": "#0056E7" }, "geometry": { "type": "Point", "coordinates": [ -5.097656, 58.077876 ] } }
{"year": "AD74",  "type": "Feature", "tippecanoe": { "layer": "2AFCA0F522E81583917768781", "minzoom": 2, "maxzoom": 8 }, "properties": { "halo": 1.6, "title": "卡诺奈卡人", "fontsize": 12, "tyid": "304001", "oid": "103:1562760074768", "color": "#0056E7" }, "geometry": { "type": "Point", "coordinates": [ -5.537109, 57.657158 ] } }
{"year": "AD74",  "type": "Feature", "tippecanoe": { "layer": "2AFCA0F522E81583917768781", "minzoom": 2, "maxzoom": 8 }, "properties": { "halo": 1.6, "title": "斯梅尔泰人", "fontsize": 12, "tyid": "304001", "oid": "103:1562760074677", "color": "#0056E7" }, "geometry": { "type": "Point", "coordinates": [ -4.746094, 57.984808 ] } }
{"year": "AD74",  "type": "Feature", "tippecanoe": { "layer": "2AFCA0F522E81583917768781", "minzoom": 2, "maxzoom": 8 }, "properties": { "halo": 1.6, "title": "卢吉人", "fontsize": 12, "tyid": "304001", "oid": "103:1562760074553", "color": "#0056E7" }, "geometry": { "type": "Point", "coordinates": [ -4.130859, 58.124320 ] } }
{"year": "AD74",  "type": "Feature", "tippecanoe": { "layer": "2AFCA0F522E81583917768781", "minzoom": 2, "maxzoom": 8 }, "properties": { "halo": 1.6, "title": "克洛维人[凯瑟尼斯]", "fontsize": 12, "tyid": "304001", "oid": "103:1576922398077", "color": "#0056E7" }, "geometry": { "type": "Point", "coordinates": [ -3.867188, 58.447733 ] } }
{"year": "AD74",  "type": "Feature", "tippecanoe": { "layer": "2AFCA0F522E81583917768781", "minzoom": 2, "maxzoom": 8 }, "properties": { "halo": 1.6, "title": "德坎泰人", "fontsize": 12, "tyid": "304001", "oid": "103:1562760074555", "color": "#0056E7" }, "geometry": { "type": "Point", "coordinates": [ -4.218750, 57.610107 ] } }
{"year": "AD74",  "type": "Feature", "tippecanoe": { "layer": "2AFCA0F522E81583917768781", "minzoom": 2, "maxzoom": 8 }, "properties": { "halo": 1.6, "title": "维格梅京人", "fontsize": 12, "tyid": "304001", "oid": "103:1562760074562", "color": "#0056E7" }, "geometry": { "type": "Point", "coordinates": [ -3.339844, 57.515823 ] } }
{"year": "AD74",  "type": "Feature", "tippecanoe": { "layer": "2AFCA0F522E81583917768781", "minzoom": 2, "maxzoom": 8 }, "properties": { "halo": 1.6, "title": "克鲁尼人", "fontsize": 12, "tyid": "304001", "oid": "103:1562760074560", "color": "#0056E7" }, "geometry": { "type": "Point", "coordinates": [ -5.449219, 57.040730 ] } }
{"year": "AD74",  "type": "Feature", "tippecanoe": { "layer": "2AFCA0F522E81583917768781", "minzoom": 2, "maxzoom": 8 }, "properties": { "halo": 1.6, "title": "埃皮迪人", "fontsize": 12, "tyid": "304001", "oid": "103:1562760074552", "color": "#0056E7" }, "geometry": { "type": "Point", "coordinates": [ -5.273438, 56.267761 ] } }
{"year": "AD74",  "type": "Feature", "tippecanoe": { "layer": "2AFCA0F522E81583917768781", "minzoom": 2, "maxzoom": 8 }, "properties": { "halo": 1.6, "title": "维尼科内人", "fontsize": 12, "tyid": "304001", "oid": "103:1562760074683", "color": "#0056E7" }, "geometry": { "type": "Point", "coordinates": [ -3.691406, 56.365250 ] } }
{"year": "AD74",  "type": "Feature", "tippecanoe": { "layer": "2AFCA0F522E81583917768781", "minzoom": 2, "maxzoom": 8 }, "properties": { "halo": 1.6, "title": "德克萨利人", "fontsize": 12, "tyid": "304001", "oid": "103:1562760074615", "color": "#0056E7" }, "geometry": { "type": "Point", "coordinates": [ -2.197266, 57.326521 ] } }
{"year": "AD74",  "type": "Feature", "tippecanoe": { "layer": "2AFCA0F522E81583917768781", "minzoom": 2, "maxzoom": 8 }, "properties": { "halo": 1.6, "title": "诺万忒人", "fontsize": 12, "tyid": "304001", "oid": "103:1562760074548", "color": "#0056E7" }, "geometry": { "type": "Point", "coordinates": [ -4.658203, 55.078367 ] } }
{"year": "AD74",  "type": "Feature", "tippecanoe": { "layer": "2AFCA0F522E81583917768781", "minzoom": 2, "maxzoom": 8 }, "properties": { "halo": 1.6, "title": "达姆诺尼人", "fontsize": 12, "tyid": "304001", "oid": "103:1562760074685", "color": "#0056E7" }, "geometry": { "type": "Point", "coordinates": [ -4.130859, 55.776573 ] } }
{"year": "AD74",  "type": "Feature", "tippecanoe": { "layer": "2AFCA0F522E81583917768781", "minzoom": 2, "maxzoom": 8 }, "properties": { "halo": 1.6, "title": "赛格威人", "fontsize": 12, "tyid": "304001", "oid": "103:1562760074690", "color": "#0056E7" }, "geometry": { "type": "Point", "coordinates": [ -3.691406, 55.229023 ] } }
{"year": "AD74",  "type": "Feature", "tippecanoe": { "layer": "2AFCA0F522E81583917768781", "minzoom": 2, "maxzoom": 8 }, "properties": { "halo": 1.6, "title": "卡尔维蒂人[坎布里亚郡]", "fontsize": 12, "tyid": "304001", "oid": "103:1576922398087", "color": "#0056E7" }, "geometry": { "type": "Point", "coordinates": [ -3.076172, 54.572062 ] } }
{"year": "AD74",  "type": "Feature", "tippecanoe": { "layer": "2AFCA0F522E81583917768781", "minzoom": 2, "maxzoom": 8 }, "properties": { "halo": 1.6, "title": "甘加尼人", "fontsize": 12, "tyid": "304001", "oid": "103:1562760074550", "color": "#0056E7" }, "geometry": { "type": "Point", "coordinates": [ -4.570312, 52.908902 ] } }
{"year": "AD74",  "type": "Feature", "tippecanoe": { "layer": "2AFCA0F522E81583917768781", "minzoom": 2, "maxzoom": 8 }, "properties": { "halo": 1.6, "title": "奥陶维斯人", "fontsize": 12, "tyid": "304001", "oid": "103:1562760074679", "color": "#0056E7" }, "geometry": { "type": "Point", "coordinates": [ -3.691406, 52.643063 ] } }
{"year": "AD74",  "type": "Feature", "tippecanoe": { "layer": "2AFCA0F522E81583917768781", "minzoom": 2, "maxzoom": 8 }, "properties": { "halo": 1.6, "title": "德克安格利人", "fontsize": 12, "tyid": "304001", "oid": "103:1562760074919", "color": "#0056E7" }, "geometry": { "type": "Point", "coordinates": [ -3.427734, 53.173119 ] } }
{"year": "AD74",  "type": "Feature", "tippecanoe": { "layer": "2AFCA0F522E81583917768781", "minzoom": 2, "maxzoom": 8 }, "properties": { "halo": 1.8, "title": "沃塔迪尼人", "fontsize": 12, "tyid": "304000", "oid": "103:1562760074692", "color": "#0056E7" }, "geometry": { "type": "Point", "coordinates": [ -2.724609, 55.677584 ] } }
{"year": "AD74",  "type": "Feature", "tippecanoe": { "layer": "2AFCA0F522E81583917768781", "minzoom": 2, "maxzoom": 8 }, "properties": { "halo": 1.6, "title": "克洛维人[米德兰兹]", "fontsize": 12, "tyid": "304001", "oid": "103:1576922398079", "color": "#0056E7" }, "geometry": { "type": "Point", "coordinates": [ -2.724609, 52.908902 ] } }
{"year": "AD74",  "type": "Feature", "tippecanoe": { "layer": "2AFCA0F522E81583917768781", "minzoom": 2, "maxzoom": 8 }, "properties": { "halo": 1.6, "title": "帕里斯人", "fontsize": 12, "tyid": "304001", "oid": "103:1562760074697", "color": "#0056E7" }, "geometry": { "type": "Point", "coordinates": [ -0.615234, 53.956086 ] } }
{"year": "AD74",  "type": "Feature", "tippecanoe": { "layer": "2AFCA0F522E81583917768781", "minzoom": 2, "maxzoom": 8 }, "properties": { "halo": 1.6, "title": "德米忒人", "fontsize": 12, "tyid": "304001", "oid": "103:1562760074681", "color": "#0056E7" }, "geometry": { "type": "Point", "coordinates": [ -4.658203, 51.944265 ] } }
{"year": "AD74",  "type": "Feature", "tippecanoe": { "layer": "2AFCA0F522E81583917768781", "minzoom": 2, "maxzoom": 8 }, "properties": { "halo": 1.6, "title": "西卢尔人", "fontsize": 12, "tyid": "304001", "oid": "103:1562760074765", "color": "#0056E7" }, "geometry": { "type": "Point", "coordinates": [ -3.515625, 51.835778 ] } }
{"year": "AD74",  "type": "Feature", "tippecanoe": { "layer": "2AFCA0F522E81583917768781", "minzoom": 2, "maxzoom": 8 }, "properties": { "halo": 1.6, "title": "杜蒙尼人", "fontsize": 12, "tyid": "304001", "oid": "103:1562760074557", "color": "#0056E7" }, "geometry": { "type": "Point", "coordinates": [ -4.130859, 50.736455 ] } }
{"year": "AD74",  "type": "Feature", "tippecanoe": { "layer": "2AFCA0F522E81583917768781", "minzoom": 2, "maxzoom": 8 }, "properties": { "halo": 1.6, "title": "关切人", "fontsize": 12, "tyid": "304001", "oid": "103:1562760074739", "color": "#0056E7" }, "geometry": { "type": "Point", "coordinates": [ -16.611328, 28.304381 ] } }
{"year": "AD74",  "type": "Feature", "tippecanoe": { "layer": "2AFCA0F522E81583917768781", "minzoom": 2, "maxzoom": 8 }, "properties": { "halo": 1.6, "title": "瓜纳加拉文化", "fontsize": 12, "tyid": "304002", "oid": "103:1562760074524", "color": "#0056E7" }, "geometry": { "type": "Point", "coordinates": [ -80.595703, -1.669686 ] } }
{"year": "AD74",  "type": "Feature", "tippecanoe": { "layer": "2AFCA0F522E81583917768781", "minzoom": 2, "maxzoom": 8 }, "properties": { "halo": 1.6, "title": "巴伊亚文化", "fontsize": 12, "tyid": "304002", "oid": "103:1562760074595", "color": "#0056E7" }, "geometry": { "type": "Point", "coordinates": [ -80.068359, -0.527336 ] } }
{"year": "AD74",  "type": "Feature", "tippecanoe": { "layer": "2AFCA0F522E81583917768781", "minzoom": 2, "maxzoom": 8 }, "properties": { "halo": 1.6, "title": "维克斯文化", "fontsize": 12, "tyid": "304002", "oid": "103:1562760074415", "color": "#0056E7" }, "geometry": { "type": "Point", "coordinates": [ -80.419922, -5.878332 ] } }
{"year": "AD74",  "type": "Feature", "tippecanoe": { "layer": "2AFCA0F522E81583917768781", "minzoom": 2, "maxzoom": 8 }, "properties": { "halo": 1.6, "title": "萨利纳尔文化", "fontsize": 12, "tyid": "304002", "oid": "103:1562760074408", "color": "#0056E7" }, "geometry": { "type": "Point", "coordinates": [ -78.925781, -7.885147 ] } }
{"year": "AD74",  "type": "Feature", "tippecanoe": { "layer": "2AFCA0F522E81583917768781", "minzoom": 2, "maxzoom": 8 }, "properties": { "halo": 1.6, "title": "维鲁文化", "fontsize": 12, "tyid": "304002", "oid": "103:1562760074872", "color": "#0056E7" }, "geometry": { "type": "Point", "coordinates": [ -78.837891, -8.320212 ] } }
{"year": "AD74",  "type": "Feature", "tippecanoe": { "layer": "2AFCA0F522E81583917768781", "minzoom": 2, "maxzoom": 8 }, "properties": { "halo": 1.6, "title": "瑞克文化", "fontsize": 12, "tyid": "304002", "oid": "103:1562760074382", "color": "#0056E7" }, "geometry": { "type": "Point", "coordinates": [ -77.607422, -9.622414 ] } }
{"year": "AD74",  "type": "Feature", "tippecanoe": { "layer": "2AFCA0F522E81583917768781", "minzoom": 2, "maxzoom": 8 }, "properties": { "halo": 1.6, "title": "加伊纳索文化", "fontsize": 12, "tyid": "304002", "oid": "103:1562760074730", "color": "#0056E7" }, "geometry": { "type": "Point", "coordinates": [ -77.080078, -11.092166 ] } }
{"year": "AD74",  "type": "Feature", "tippecanoe": { "layer": "2AFCA0F522E81583917768781", "minzoom": 2, "maxzoom": 8 }, "properties": { "halo": 1.6, "title": "托帕拉文化", "fontsize": 12, "tyid": "304002", "oid": "103:1562760074717", "color": "#0056E7" }, "geometry": { "type": "Point", "coordinates": [ -75.937500, -13.667338 ] } }
{"year": "AD74",  "type": "Feature", "tippecanoe": { "layer": "2AFCA0F522E81583917768781", "minzoom": 2, "maxzoom": 8 }, "properties": { "halo": 1.6, "title": "华帕文化", "fontsize": 12, "tyid": "304002", "oid": "103:1562760074447", "color": "#0056E7" }, "geometry": { "type": "Point", "coordinates": [ -74.179688, -13.581921 ] } }
{"year": "AD74",  "type": "Feature", "tippecanoe": { "layer": "2AFCA0F522E81583917768781", "minzoom": 2, "maxzoom": 8 }, "properties": { "halo": 1.6, "title": "纳斯卡文化", "fontsize": 12, "tyid": "304002", "oid": "103:1562760074422", "color": "#0056E7" }, "geometry": { "type": "Point", "coordinates": [ -75.058594, -14.944785 ] } }
{"year": "AD74",  "type": "Feature", "tippecanoe": { "layer": "2AFCA0F522E81583917768781", "minzoom": 2, "maxzoom": 8 }, "properties": { "halo": 1.6, "title": "普加拉文化", "fontsize": 12, "tyid": "304002", "oid": "103:1562760074424", "color": "#0056E7" }, "geometry": { "type": "Point", "coordinates": [ -69.697266, -13.838080 ] } }
{"year": "AD74",  "type": "Feature", "tippecanoe": { "layer": "2AFCA0F522E81583917768781", "minzoom": 2, "maxzoom": 8 }, "properties": { "halo": 1.6, "title": "塔夫文化", "fontsize": 12, "tyid": "304002", "oid": "103:1562760074329", "color": "#0056E7" }, "geometry": { "type": "Point", "coordinates": [ -65.654297, -26.980829 ] } }
{"year": "AD74",  "type": "Feature", "tippecanoe": { "layer": "2AFCA0F522E81583917768781", "minzoom": 2, "maxzoom": 8 }, "properties": { "halo": 1.6, "title": "豪什人", "fontsize": 12, "tyid": "304001", "oid": "103:1562760074526", "color": "#0056E7" }, "geometry": { "type": "Point", "coordinates": [ -65.917969, -54.724620 ] } }
{"year": "AD74",  "type": "Feature", "tippecanoe": { "layer": "2AFCA0F522E81583917768781", "minzoom": 2, "maxzoom": 8 }, "properties": { "halo": 1.6, "title": "哥得兰人", "fontsize": 12, "tyid": "304001", "oid": "103:1562760074540", "color": "#0056E7" }, "geometry": { "type": "Point", "coordinates": [ 18.457031, 57.515823 ] } }
{"year": "AD74",  "type": "Feature", "tippecanoe": { "layer": "2AFCA0F522E81583917768781", "minzoom": 2, "maxzoom": 8 }, "properties": { "halo": 1.6, "title": "盎格鲁人", "fontsize": 12, "tyid": "304001", "oid": "103:1562760074606", "color": "#0056E7" }, "geometry": { "type": "Point", "coordinates": [ 9.316406, 54.622978 ] } }
{"year": "AD74",  "type": "Feature", "tippecanoe": { "layer": "2AFCA0F522E81583917768781", "minzoom": 2, "maxzoom": 8 }, "properties": { "halo": 1.6, "title": "萨克森人", "fontsize": 12, "tyid": "304001", "oid": "103:1562760074702", "color": "#0056E7" }, "geometry": { "type": "Point", "coordinates": [ 10.019531, 54.007769 ] } }
{"year": "AD74",  "type": "Feature", "tippecanoe": { "layer": "2AFCA0F522E81583917768781", "minzoom": 2, "maxzoom": 8 }, "properties": { "halo": 1.6, "title": "查马维人", "fontsize": 12, "tyid": "304001", "oid": "103:1562760074611", "color": "#0056E7" }, "geometry": { "type": "Point", "coordinates": [ 7.119141, 51.944265 ] } }
{"year": "AD74",  "type": "Feature", "tippecanoe": { "layer": "2AFCA0F522E81583917768781", "minzoom": 2, "maxzoom": 8 }, "properties": { "halo": 1.6, "title": "辛坎布雷人", "fontsize": 12, "tyid": "304001", "oid": "103:1562760074609", "color": "#0056E7" }, "geometry": { "type": "Point", "coordinates": [ 7.646484, 51.289406 ] } }
{"year": "AD74",  "type": "Feature", "tippecanoe": { "layer": "2AFCA0F522E81583917768781", "minzoom": 2, "maxzoom": 8 }, "properties": { "halo": 1.6, "title": "布鲁克特人", "fontsize": 12, "tyid": "304001", "oid": "103:1562760074189", "color": "#0056E7" }, "geometry": { "type": "Point", "coordinates": [ 8.437500, 51.998410 ] } }
{"year": "AD74",  "type": "Feature", "tippecanoe": { "layer": "2AFCA0F522E81583917768781", "minzoom": 2, "maxzoom": 8 }, "properties": { "halo": 1.6, "title": "奥耶塞利人", "fontsize": 12, "tyid": "304001", "oid": "103:1562760074771", "color": "#0056E7" }, "geometry": { "type": "Point", "coordinates": [ 22.500000, 58.447733 ] } }
{"year": "AD74",  "type": "Feature", "tippecanoe": { "layer": "2AFCA0F522E81583917768781", "minzoom": 2, "maxzoom": 8 }, "properties": { "halo": 1.6, "title": "罗克索拉尼人", "fontsize": 12, "tyid": "304001", "oid": "103:1562760074591", "color": "#0056E7" }, "geometry": { "type": "Point", "coordinates": [ 27.158203, 44.902578 ] } }
{"year": "AD74",  "type": "Feature", "tippecanoe": { "layer": "2AFCA0F522E81583917768781", "minzoom": 2, "maxzoom": 8 }, "properties": { "halo": 1.6, "title": "奥里维亚", "fontsize": 12, "tyid": "304002", "oid": "103:1562760074839", "color": "#0056E7" }, "geometry": { "type": "Point", "coordinates": [ 31.816406, 46.679594 ] } }
{"year": "AD74",  "type": "Feature", "tippecanoe": { "layer": "2AFCA0F522E81583917768781", "minzoom": 2, "maxzoom": 8 }, "properties": { "halo": 1.8, "title": "自由拉科尼亚同盟", "fontsize": 12, "tyid": "304000", "oid": "103:1562760075013", "color": "#0056E7" }, "geometry": { "type": "Point", "coordinates": [ 22.763672, 36.949892 ] } }
{"year": "AD74",  "type": "Feature", "tippecanoe": { "layer": "2AFCA0F522E81583917768781", "minzoom": 2, "maxzoom": 8 }, "properties": { "halo": 1.6, "title": "德卡波利斯联盟", "fontsize": 12, "tyid": "304002", "oid": "103:1562760075054", "color": "#0056E7" }, "geometry": { "type": "Point", "coordinates": [ 35.859375, 32.546813 ] } }
{"year": "AD74",  "type": "Feature", "tippecanoe": { "layer": "2AFCA0F522E81583917768781", "minzoom": 2, "maxzoom": 8 }, "properties": { "halo": 1.8, "title": "埃米萨王朝", "fontsize": 12, "tyid": "304000", "oid": "103:1562760074961", "color": "#0056E7" }, "geometry": { "type": "Point", "coordinates": [ 36.650391, 34.741612 ] } }
{"year": "AD74",  "type": "Feature", "tippecanoe": { "layer": "2AFCA0F522E81583917768781", "minzoom": 2, "maxzoom": 8 }, "properties": { "halo": 1.8, "title": "卡尔基斯王国", "fontsize": 12, "tyid": "304000", "oid": "103:1562760074992", "color": "#0056E7" }, "geometry": { "type": "Point", "coordinates": [ 36.562500, 32.768800 ] } }
{"year": "AD74",  "type": "Feature", "tippecanoe": { "layer": "2AFCA0F522E81583917768781", "minzoom": 2, "maxzoom": 8 }, "properties": { "halo": 1.8, "title": "索芬尼王国", "fontsize": 12, "tyid": "304000", "oid": "103:1562760074358", "color": "#0056E7" }, "geometry": { "type": "Point", "coordinates": [ 39.638672, 37.996163 ] } }
{"year": "AD74",  "type": "Feature", "tippecanoe": { "layer": "2AFCA0F522E81583917768781", "minzoom": 2, "maxzoom": 8 }, "properties": { "halo": 1.6, "title": "列兹金人", "fontsize": 12, "tyid": "304001", "oid": "103:1562760074304", "color": "#0056E7" }, "geometry": { "type": "Point", "coordinates": [ 47.812500, 41.640078 ] } }
{"year": "AD74",  "type": "Feature", "tippecanoe": { "layer": "2AFCA0F522E81583917768781", "minzoom": 2, "maxzoom": 8 }, "properties": { "halo": 1.8, "title": "西且弥国", "fontsize": 12, "tyid": "304000", "oid": "103:1562760075029", "color": "#0056E7" }, "geometry": { "type": "Point", "coordinates": [ 86.220703, 43.834527 ] } }
{"year": "AD74",  "type": "Feature", "tippecanoe": { "layer": "2AFCA0F522E81583917768781", "minzoom": 2, "maxzoom": 8 }, "properties": { "halo": 1.8, "title": "东且弥国", "fontsize": 12, "tyid": "304000", "oid": "103:1562760075034", "color": "#0056E7" }, "geometry": { "type": "Point", "coordinates": [ 86.923828, 43.707594 ] } }
{"year": "AD74",  "type": "Feature", "tippecanoe": { "layer": "2AFCA0F522E81583917768781", "minzoom": 2, "maxzoom": 8 }, "properties": { "halo": 1.8, "title": "劫国", "fontsize": 12, "tyid": "304000", "oid": "103:1562760074964", "color": "#0056E7" }, "geometry": { "type": "Point", "coordinates": [ 87.802734, 44.150681 ] } }
{"year": "AD74",  "type": "Feature", "tippecanoe": { "layer": "2AFCA0F522E81583917768781", "minzoom": 2, "maxzoom": 8 }, "properties": { "halo": 1.8, "title": "卑陆国", "fontsize": 12, "tyid": "304000", "oid": "103:1562760075011", "color": "#0056E7" }, "geometry": { "type": "Point", "coordinates": [ 87.539062, 43.644026 ] } }
{"year": "AD74",  "type": "Feature", "tippecanoe": { "layer": "2AFCA0F522E81583917768781", "minzoom": 2, "maxzoom": 8 }, "properties": { "halo": 1.8, "title": "卡塔班王国", "fontsize": 12, "tyid": "304000", "oid": "103:1562760074958", "color": "#0056E7" }, "geometry": { "type": "Point", "coordinates": [ 45.791016, 14.774883 ] } }
{"year": "AD74",  "type": "Feature", "tippecanoe": { "layer": "2AFCA0F522E81583917768781", "minzoom": 2, "maxzoom": 8 }, "properties": { "halo": 1.8, "title": "奥桑王国", "fontsize": 12, "tyid": "304000", "oid": "103:1568109433007", "color": "#0056E7" }, "geometry": { "type": "Point", "coordinates": [ 46.230469, 13.752725 ] } }
{"year": "AD74",  "type": "Feature", "tippecanoe": { "layer": "2AFCA0F522E81583917768781", "minzoom": 2, "maxzoom": 8 }, "properties": { "halo": 1.8, "title": "蒲犁国", "fontsize": 12, "tyid": "304000", "oid": "103:1562760074972", "color": "#0056E7" }, "geometry": { "type": "Point", "coordinates": [ 75.234375, 37.996163 ] } }
{"year": "AD74",  "type": "Feature", "tippecanoe": { "layer": "2AFCA0F522E81583917768781", "minzoom": 2, "maxzoom": 8 }, "properties": { "halo": 1.8, "title": "依耐国", "fontsize": 12, "tyid": "304000", "oid": "103:1562760074997", "color": "#0056E7" }, "geometry": { "type": "Point", "coordinates": [ 75.937500, 38.616870 ] } }
{"year": "AD74",  "type": "Feature", "tippecanoe": { "layer": "2AFCA0F522E81583917768781", "minzoom": 2, "maxzoom": 8 }, "properties": { "halo": 1.8, "title": "子合国", "fontsize": 12, "tyid": "304000", "oid": "103:1562760074956", "color": "#0056E7" }, "geometry": { "type": "Point", "coordinates": [ 76.376953, 37.718590 ] } }
{"year": "AD74",  "type": "Feature", "tippecanoe": { "layer": "2AFCA0F522E81583917768781", "minzoom": 2, "maxzoom": 8 }, "properties": { "halo": 1.8, "title": "戎卢国", "fontsize": 12, "tyid": "304000", "oid": "103:1562760075059", "color": "#0056E7" }, "geometry": { "type": "Point", "coordinates": [ 83.144531, 36.668419 ] } }
{"year": "AD74",  "type": "Feature", "tippecanoe": { "layer": "2AFCA0F522E81583917768781", "minzoom": 2, "maxzoom": 8 }, "properties": { "halo": 1.8, "title": "罗昂", "fontsize": 12, "tyid": "304000", "oid": "103:1562760074798", "color": "#0056E7" }, "geometry": { "type": "Point", "coordinates": [ 89.208984, 29.152161 ] } }
{"year": "AD74",  "type": "Feature", "tippecanoe": { "layer": "2AFCA0F522E81583917768781", "minzoom": 2, "maxzoom": 8 }, "properties": { "halo": 1.8, "title": "藏", "fontsize": 12, "tyid": "304000", "oid": "103:1562760074400", "color": "#0056E7" }, "geometry": { "type": "Point", "coordinates": [ 89.736328, 28.844674 ] } }
{"year": "AD74",  "type": "Feature", "tippecanoe": { "layer": "2AFCA0F522E81583917768781", "minzoom": 2, "maxzoom": 8 }, "properties": { "halo": 1.8, "title": "卓木南木松", "fontsize": 12, "tyid": "304000", "oid": "103:1562760074854", "color": "#0056E7" }, "geometry": { "type": "Point", "coordinates": [ 88.945312, 27.839076 ] } }
{"year": "AD74",  "type": "Feature", "tippecanoe": { "layer": "2AFCA0F522E81583917768781", "minzoom": 2, "maxzoom": 8 }, "properties": { "halo": 1.8, "title": "牟湿迦王国", "fontsize": 12, "tyid": "304000", "oid": "103:1562760074897", "color": "#0056E7" }, "geometry": { "type": "Point", "coordinates": [ 75.322266, 12.640338 ] } }
{"year": "AD74",  "type": "Feature", "tippecanoe": { "layer": "2AFCA0F522E81583917768781", "minzoom": 2, "maxzoom": 8 }, "properties": { "halo": 1.8, "title": "阿伊王国", "fontsize": 12, "tyid": "304000", "oid": "103:1562760074887", "color": "#0056E7" }, "geometry": { "type": "Point", "coordinates": [ 77.080078, 8.667918 ] } }
{"year": "AD74",  "type": "Feature", "tippecanoe": { "layer": "2AFCA0F522E81583917768781", "minzoom": 2, "maxzoom": 8 }, "properties": { "halo": 1.8, "title": "吉", "fontsize": 12, "tyid": "304000", "oid": "103:1562760074856", "color": "#0056E7" }, "geometry": { "type": "Point", "coordinates": [ 91.406250, 29.764377 ] } }
{"year": "AD74",  "type": "Feature", "tippecanoe": { "layer": "2AFCA0F522E81583917768781", "minzoom": 2, "maxzoom": 8 }, "properties": { "halo": 1.8, "title": "琛", "fontsize": 12, "tyid": "304000", "oid": "103:1562760074395", "color": "#0056E7" }, "geometry": { "type": "Point", "coordinates": [ 91.230469, 29.382175 ] } }
{"year": "AD74",  "type": "Feature", "tippecanoe": { "layer": "2AFCA0F522E81583917768781", "minzoom": 2, "maxzoom": 8 }, "properties": { "halo": 1.8, "title": "悉补野", "fontsize": 12, "tyid": "304000", "oid": "103:1562760074892", "color": "#0056E7" }, "geometry": { "type": "Point", "coordinates": [ 91.845703, 29.152161 ] } }
{"year": "AD74",  "type": "Feature", "tippecanoe": { "layer": "2AFCA0F522E81583917768781", "minzoom": 2, "maxzoom": 8 }, "properties": { "halo": 1.8, "title": "俄玉邦噶", "fontsize": 12, "tyid": "304000", "oid": "103:1562760074895", "color": "#0056E7" }, "geometry": { "type": "Point", "coordinates": [ 92.548828, 29.152161 ] } }
{"year": "AD74",  "type": "Feature", "tippecanoe": { "layer": "2AFCA0F522E81583917768781", "minzoom": 2, "maxzoom": 8 }, "properties": { "halo": 1.8, "title": "娘", "fontsize": 12, "tyid": "304000", "oid": "103:1562760074812", "color": "#0056E7" }, "geometry": { "type": "Point", "coordinates": [ 93.339844, 29.916852 ] } }
{"year": "AD74",  "type": "Feature", "tippecanoe": { "layer": "2AFCA0F522E81583917768781", "minzoom": 2, "maxzoom": 8 }, "properties": { "halo": 1.8, "title": "贡", "fontsize": 12, "tyid": "304000", "oid": "103:1562760074889", "color": "#0056E7" }, "geometry": { "type": "Point", "coordinates": [ 94.482422, 29.688053 ] } }
{"year": "AD74",  "type": "Feature", "tippecanoe": { "layer": "2AFCA0F522E81583917768781", "minzoom": 2, "maxzoom": 8 }, "properties": { "halo": 1.8, "title": "达", "fontsize": 12, "tyid": "304000", "oid": "103:1562760074725", "color": "#0056E7" }, "geometry": { "type": "Point", "coordinates": [ 93.603516, 29.152161 ] } }
{"year": "AD74",  "type": "Feature", "tippecanoe": { "layer": "2AFCA0F522E81583917768781", "minzoom": 2, "maxzoom": 8 }, "properties": { "halo": 1.6, "title": "石坛文化", "fontsize": 12, "tyid": "304002", "oid": "103:1562760074800", "color": "#0056E7" }, "geometry": { "type": "Point", "coordinates": [ 103.359375, 19.559790 ] } }
{"year": "AD74",  "type": "Feature", "tippecanoe": { "layer": "2AFCA0F522E81583917768781", "minzoom": 2, "maxzoom": 8 }, "properties": { "halo": 1.6, "title": "番仔园文化", "fontsize": 12, "tyid": "304002", "oid": "103:1568109433019", "color": "#0056E7" }, "geometry": { "type": "Point", "coordinates": [ 120.673828, 24.287027 ] } }
{"year": "AD74",  "type": "Feature", "tippecanoe": { "layer": "2AFCA0F522E81583917768781", "minzoom": 2, "maxzoom": 8 }, "properties": { "halo": 1.6, "title": "茑松文化", "fontsize": 12, "tyid": "304002", "oid": "103:1568109433012", "color": "#0056E7" }, "geometry": { "type": "Point", "coordinates": [ 120.322266, 23.079732 ] } }
{"year": "AD74",  "type": "Feature", "tippecanoe": { "layer": "2AFCA0F522E81583917768781", "minzoom": 2, "maxzoom": 8 }, "properties": { "halo": 1.6, "title": "龟山文化", "fontsize": 12, "tyid": "304002", "oid": "103:1568109433014", "color": "#0056E7" }, "geometry": { "type": "Point", "coordinates": [ 120.585938, 22.674847 ] } }
{"year": "AD74",  "type": "Feature", "tippecanoe": { "layer": "2AFCA0F522E81583917768781", "minzoom": 2, "maxzoom": 8 }, "properties": { "halo": 1.6, "title": "十三行文化", "fontsize": 12, "tyid": "304002", "oid": "103:1568109433009", "color": "#0056E7" }, "geometry": { "type": "Point", "coordinates": [ 121.376953, 24.846565 ] } }
{"year": "AD74",  "type": "Feature", "tippecanoe": { "layer": "2AFCA0F522E81583917768781", "minzoom": 2, "maxzoom": 8 }, "properties": { "halo": 1.6, "title": "静浦文化", "fontsize": 12, "tyid": "304002", "oid": "103:1568109433016", "color": "#0056E7" }, "geometry": { "type": "Point", "coordinates": [ 121.025391, 22.998852 ] } }
{"year": "AD74",  "type": "Feature", "tippecanoe": { "layer": "2AFCA0F522E81583917768781", "minzoom": 2, "maxzoom": 8 }, "properties": { "halo": 1.8, "title": "百济", "fontsize": 12, "tyid": "304000", "oid": "103:1562760074597", "color": "#0056E7" }, "geometry": { "type": "Point", "coordinates": [ 127.089844, 37.300275 ] } }
{"year": "AD74",  "type": "Feature", "tippecanoe": { "layer": "2AFCA0F522E81583917768781", "minzoom": 2, "maxzoom": 8 }, "properties": { "halo": 1.8, "title": "耽罗国", "fontsize": 12, "tyid": "304000", "oid": "103:1562760074503", "color": "#0056E7" }, "geometry": { "type": "Point", "coordinates": [ 126.474609, 33.431441 ] } }
{"year": "AD74",  "type": "Feature", "tippecanoe": { "layer": "2AFCA0F522E81583917768781", "minzoom": 2, "maxzoom": 8 }, "properties": { "halo": 1.6, "title": "弁韩", "fontsize": 12, "tyid": "304001", "oid": "103:1562760074570", "color": "#0056E7" }, "geometry": { "type": "Point", "coordinates": [ 127.968750, 35.317366 ] } }
{"year": "AD74",  "type": "Feature", "tippecanoe": { "layer": "2AFCA0F522E81583917768781", "minzoom": 2, "maxzoom": 8 }, "properties": { "halo": 1.8, "title": "伽倻", "fontsize": 12, "tyid": "304000", "oid": "103:1562760074796", "color": "#0056E7" }, "geometry": { "type": "Point", "coordinates": [ 128.847656, 35.245619 ] } }
{"year": "AD74",  "type": "Feature", "tippecanoe": { "layer": "2AFCA0F522E81583917768781", "minzoom": 2, "maxzoom": 8 }, "properties": { "halo": 1.8, "title": "对马国", "fontsize": 12, "tyid": "304000", "oid": "103:1562760074574", "color": "#0056E7" }, "geometry": { "type": "Point", "coordinates": [ 129.287109, 34.524661 ] } }
{"year": "AD74",  "type": "Feature", "tippecanoe": { "layer": "2AFCA0F522E81583917768781", "minzoom": 2, "maxzoom": 8 }, "properties": { "halo": 1.8, "title": "一支国", "fontsize": 12, "tyid": "304000", "oid": "103:1562760074494", "color": "#0056E7" }, "geometry": { "type": "Point", "coordinates": [ 129.638672, 33.797409 ] } }
{"year": "AD74",  "type": "Feature", "tippecanoe": { "layer": "2AFCA0F522E81583917768781", "minzoom": 2, "maxzoom": 8 }, "properties": { "halo": 1.8, "title": "末卢国", "fontsize": 12, "tyid": "304000", "oid": "103:1562760074184", "color": "#0056E7" }, "geometry": { "type": "Point", "coordinates": [ 129.902344, 33.431441 ] } }
{"year": "AD74",  "type": "Feature", "tippecanoe": { "layer": "2AFCA0F522E81583917768781", "minzoom": 2, "maxzoom": 8 }, "properties": { "halo": 1.8, "title": "伊都国", "fontsize": 12, "tyid": "304000", "oid": "103:1562760074572", "color": "#0056E7" }, "geometry": { "type": "Point", "coordinates": [ 130.166016, 33.578015 ] } }
{"year": "AD74",  "type": "Feature", "tippecanoe": { "layer": "2AFCA0F522E81583917768781", "minzoom": 2, "maxzoom": 8 }, "properties": { "halo": 1.8, "title": "奴国", "fontsize": 12, "tyid": "304000", "oid": "103:1562760074586", "color": "#0056E7" }, "geometry": { "type": "Point", "coordinates": [ 130.605469, 33.724340 ] } }
{"year": "AD74",  "type": "Feature", "tippecanoe": { "layer": "2AFCA0F522E81583917768781", "minzoom": 2, "maxzoom": 8 }, "properties": { "halo": 1.8, "title": "不弥国", "fontsize": 12, "tyid": "304000", "oid": "103:1562760074496", "color": "#0056E7" }, "geometry": { "type": "Point", "coordinates": [ 130.957031, 33.651208 ] } }
{"year": "AD74",  "type": "Feature", "tippecanoe": { "layer": "2AFCA0F522E81583917768781", "minzoom": 2, "maxzoom": 8 }, "properties": { "halo": 1.8, "title": "邪马台国", "fontsize": 12, "tyid": "304000", "oid": "103:1562760074266", "color": "#0056E7" }, "geometry": { "type": "Point", "coordinates": [ 130.869141, 33.137551 ] } }
{"year": "AD74",  "type": "Feature", "tippecanoe": { "layer": "2AFCA0F522E81583917768781", "minzoom": 2, "maxzoom": 8 }, "properties": { "halo": 1.8, "title": "投马国", "fontsize": 12, "tyid": "304000", "oid": "103:1562760074498", "color": "#0056E7" }, "geometry": { "type": "Point", "coordinates": [ 131.220703, 32.249974 ] } }
{"year": "AD74",  "type": "Feature", "tippecanoe": { "layer": "2AFCA0F522E81583917768781", "minzoom": 2, "maxzoom": 8 }, "properties": { "halo": 1.8, "title": "狗奴国", "fontsize": 12, "tyid": "304000", "oid": "103:1562760074490", "color": "#0056E7" }, "geometry": { "type": "Point", "coordinates": [ 130.605469, 31.952162 ] } }
{"year": "AD74",  "type": "Feature", "tippecanoe": { "layer": "2AFCA0F522E81583917768781", "minzoom": 2, "maxzoom": 8 }, "properties": { "halo": 1.6, "title": "托雷斯海峡岛民", "fontsize": 12, "tyid": "304001", "oid": "103:1562760074744", "color": "#0056E7" }, "geometry": { "type": "Point", "coordinates": [ 142.382812, -11.264612 ] } }
{"year": "AD74",  "type": "Feature", "tippecanoe": { "layer": "2AFCA0F525C01583917768784", "minzoom": 2, "maxzoom": 8 }, "properties": { "halo": 0.8, "title": "图勒人", "fontsize": 12, "tyid": "304001", "oid": "103:1562760074251", "color": "#262626" }, "geometry": { "type": "Point", "coordinates": [ -130.781250, 68.942607 ] } }
{"year": "AD74",  "type": "Feature", "tippecanoe": { "layer": "2AFCA0F525C01583917768784", "minzoom": 2, "maxzoom": 8 }, "properties": { "halo": 0.8, "title": "诺顿文化", "fontsize": 12, "tyid": "304002", "oid": "103:1562760074389", "color": "#262626" }, "geometry": { "type": "Point", "coordinates": [ -163.740234, 65.330178 ] } }
{"year": "AD74",  "type": "Feature", "tippecanoe": { "layer": "2AFCA0F525C01583917768784", "minzoom": 2, "maxzoom": 8 }, "properties": { "halo": 0.8, "title": "尤皮克人", "fontsize": 12, "tyid": "304001", "oid": "103:1562760074439", "color": "#262626" }, "geometry": { "type": "Point", "coordinates": [ -159.169922, 60.630102 ] } }
{"year": "AD74",  "type": "Feature", "tippecanoe": { "layer": "2AFCA0F525C01583917768784", "minzoom": 2, "maxzoom": 8 }, "properties": { "halo": 0.8, "title": "因纽皮雅特人", "fontsize": 12, "tyid": "304001", "oid": "103:1562760074529", "color": "#262626" }, "geometry": { "type": "Point", "coordinates": [ -150.908203, 65.476508 ] } }
{"year": "AD74",  "type": "Feature", "tippecanoe": { "layer": "2AFCA0F525C01583917768784", "minzoom": 2, "maxzoom": 8 }, "properties": { "halo": 0.8, "title": "阿留申人", "fontsize": 12, "tyid": "304001", "oid": "103:1562760074309", "color": "#262626" }, "geometry": { "type": "Point", "coordinates": [ -152.226562, 61.312452 ] } }
{"year": "AD74",  "type": "Feature", "tippecanoe": { "layer": "2AFCA0F525C01583917768784", "minzoom": 2, "maxzoom": 8 }, "properties": { "halo": 0.8, "title": "因纽特人", "fontsize": 12, "tyid": "304001", "oid": "103:1562760074519", "color": "#262626" }, "geometry": { "type": "Point", "coordinates": [ -97.822266, 64.997939 ] } }
{"year": "AD74",  "type": "Feature", "tippecanoe": { "layer": "2AFCA0F525C01583917768784", "minzoom": 2, "maxzoom": 8 }, "properties": { "halo": 0.8, "title": "泰萨勒页岩文化", "fontsize": 12, "tyid": "304002", "oid": "103:1562760074776", "color": "#262626" }, "geometry": { "type": "Point", "coordinates": [ -100.371094, 56.559482 ] } }
{"year": "AD74",  "type": "Feature", "tippecanoe": { "layer": "2AFCA0F525C01583917768784", "minzoom": 2, "maxzoom": 8 }, "properties": { "halo": 0.8, "title": "坎贝尔文化", "fontsize": 12, "tyid": "304002", "oid": "103:1562760074634", "color": "#262626" }, "geometry": { "type": "Point", "coordinates": [ -121.289062, 38.685510 ] } }
{"year": "AD74",  "type": "Feature", "tippecanoe": { "layer": "2AFCA0F525C01583917768784", "minzoom": 2, "maxzoom": 8 }, "properties": { "halo": 0.8, "title": "圣迪基图文化", "fontsize": 12, "tyid": "304002", "oid": "103:1562760074346", "color": "#262626" }, "geometry": { "type": "Point", "coordinates": [ -115.224609, 33.211116 ] } }
{"year": "AD74",  "type": "Feature", "tippecanoe": { "layer": "2AFCA0F525C01583917768784", "minzoom": 2, "maxzoom": 8 }, "properties": { "halo": 0.8, "title": "多赛特文化", "fontsize": 12, "tyid": "304002", "oid": "103:1562760074337", "color": "#262626" }, "geometry": { "type": "Point", "coordinates": [ -70.312500, 67.609221 ] } }
{"year": "AD74",  "type": "Feature", "tippecanoe": { "layer": "2AFCA0F525C01583917768784", "minzoom": 2, "maxzoom": 8 }, "properties": { "halo": 0.8, "title": "波茵特半岛文化", "fontsize": 12, "tyid": "304002", "oid": "103:1562760074861", "color": "#262626" }, "geometry": { "type": "Point", "coordinates": [ -76.816406, 45.336702 ] } }
{"year": "AD74",  "type": "Feature", "tippecanoe": { "layer": "2AFCA0F525C01583917768784", "minzoom": 2, "maxzoom": 8 }, "properties": { "halo": 0.8, "title": "古海洋文化", "fontsize": 12, "tyid": "304002", "oid": "103:1562760074824", "color": "#262626" }, "geometry": { "type": "Point", "coordinates": [ -68.466797, 46.920255 ] } }
{"year": "AD74",  "type": "Feature", "tippecanoe": { "layer": "2AFCA0F525C01583917768784", "minzoom": 2, "maxzoom": 8 }, "properties": { "halo": 0.8, "title": "巴富尔人", "fontsize": 12, "tyid": "304001", "oid": "103:1562760074657", "color": "#262626" }, "geometry": { "type": "Point", "coordinates": [ -8.261719, 22.755921 ] } }
{"year": "AD74",  "type": "Feature", "tippecanoe": { "layer": "2AFCA0F525C01583917768784", "minzoom": 2, "maxzoom": 8 }, "properties": { "halo": 0.8, "title": "索宁克人", "fontsize": 12, "tyid": "304001", "oid": "103:1562760074830", "color": "#262626" }, "geometry": { "type": "Point", "coordinates": [ -8.964844, 15.284185 ] } }
{"year": "AD74",  "type": "Feature", "tippecanoe": { "layer": "2AFCA0F525C01583917768784", "minzoom": 2, "maxzoom": 8 }, "properties": { "halo": 0.8, "title": "曼德人", "fontsize": 12, "tyid": "304001", "oid": "103:1562760074579", "color": "#262626" }, "geometry": { "type": "Point", "coordinates": [ -7.558594, 8.146243 ] } }
{"year": "AD74",  "type": "Feature", "tippecanoe": { "layer": "2AFCA0F525C01583917768784", "minzoom": 2, "maxzoom": 8 }, "properties": { "halo": 0.8, "title": "图皮人", "fontsize": 12, "tyid": "304001", "oid": "103:1562760074659", "color": "#262626" }, "geometry": { "type": "Point", "coordinates": [ -47.812500, -23.966176 ] } }
{"year": "AD74",  "type": "Feature", "tippecanoe": { "layer": "2AFCA0F525C01583917768784", "minzoom": 2, "maxzoom": 8 }, "properties": { "halo": 0.8, "title": "萨米人", "fontsize": 12, "tyid": "304001", "oid": "103:1562760074938", "color": "#262626" }, "geometry": { "type": "Point", "coordinates": [ 25.400391, 68.171555 ] } }
{"year": "AD74",  "type": "Feature", "tippecanoe": { "layer": "2AFCA0F525C01583917768784", "minzoom": 2, "maxzoom": 8 }, "properties": { "halo": 0.8, "title": "乌斯特波卢伊文化", "fontsize": 12, "tyid": "304002", "oid": "103:1562760074449", "color": "#262626" }, "geometry": { "type": "Point", "coordinates": [ 70.488281, 68.974164 ] } }
{"year": "AD74",  "type": "Feature", "tippecanoe": { "layer": "2AFCA0F525C01583917768784", "minzoom": 2, "maxzoom": 8 }, "properties": { "halo": 0.8, "title": "原始日耳曼人", "fontsize": 12, "tyid": "304001", "oid": "103:1562760074953", "color": "#262626" }, "geometry": { "type": "Point", "coordinates": [ 8.437500, 60.500525 ] } }
{"year": "AD74",  "type": "Feature", "tippecanoe": { "layer": "2AFCA0F525C01583917768784", "minzoom": 2, "maxzoom": 8 }, "properties": { "halo": 0.8, "title": "古瑞典人", "fontsize": 12, "tyid": "304001", "oid": "103:1562760074452", "color": "#262626" }, "geometry": { "type": "Point", "coordinates": [ 15.820312, 61.312452 ] } }
{"year": "AD74",  "type": "Feature", "tippecanoe": { "layer": "2AFCA0F525C01583917768784", "minzoom": 2, "maxzoom": 8 }, "properties": { "halo": 0.8, "title": "罗马帝国", "fontsize": 12, "tyid": "304000", "oid": "103:1562760074665", "color": "#202020" }, "geometry": { "type": "Point", "coordinates": [ 5.800781, 46.498392 ] } }
{"year": "AD74",  "type": "Feature", "tippecanoe": { "layer": "2AFCA0F525C01583917768784", "minzoom": 2, "maxzoom": 8 }, "properties": { "halo": 0.8, "title": "芬尼人", "fontsize": 12, "tyid": "304001", "oid": "103:1562760074709", "color": "#262626" }, "geometry": { "type": "Point", "coordinates": [ 29.970703, 64.510643 ] } }
{"year": "AD74",  "type": "Feature", "tippecanoe": { "layer": "2AFCA0F525C01583917768784", "minzoom": 2, "maxzoom": 8 }, "properties": { "halo": 0.8, "title": "波罗的人", "fontsize": 12, "tyid": "304002", "oid": "103:1562760074916", "color": "#262626" }, "geometry": { "type": "Point", "coordinates": [ 24.785156, 54.622978 ] } }
{"year": "AD74",  "type": "Feature", "tippecanoe": { "layer": "2AFCA0F525C01583917768784", "minzoom": 2, "maxzoom": 8 }, "properties": { "halo": 0.8, "title": "维内德人", "fontsize": 12, "tyid": "304001", "oid": "103:1562760074230", "color": "#262626" }, "geometry": { "type": "Point", "coordinates": [ 25.839844, 51.013755 ] } }
{"year": "AD74",  "type": "Feature", "tippecanoe": { "layer": "2AFCA0F525C01583917768784", "minzoom": 2, "maxzoom": 8 }, "properties": { "halo": 0.8, "title": "第聂伯河波罗的人", "fontsize": 12, "tyid": "304001", "oid": "103:1562760074306", "color": "#262626" }, "geometry": { "type": "Point", "coordinates": [ 33.134766, 55.528631 ] } }
{"year": "AD74",  "type": "Feature", "tippecanoe": { "layer": "2AFCA0F525C01583917768784", "minzoom": 2, "maxzoom": 8 }, "properties": { "halo": 0.8, "title": "伏尔加芬兰人", "fontsize": 12, "tyid": "304001", "oid": "103:1562760074314", "color": "#262626" }, "geometry": { "type": "Point", "coordinates": [ 42.890625, 55.528631 ] } }
{"year": "AD74",  "type": "Feature", "tippecanoe": { "layer": "2AFCA0F525C01583917768784", "minzoom": 2, "maxzoom": 8 }, "properties": { "halo": 0.8, "title": "萨尔马提亚人", "fontsize": 12, "tyid": "304001", "oid": "103:1562760074350", "color": "#262626" }, "geometry": { "type": "Point", "coordinates": [ 44.121094, 50.792047 ] } }
{"year": "AD74",  "type": "Feature", "tippecanoe": { "layer": "2AFCA0F525C01583917768784", "minzoom": 2, "maxzoom": 8 }, "properties": { "halo": 0.8, "title": "柏柏尔人诸部", "fontsize": 12, "tyid": "304001", "oid": "103:1562760074483", "color": "#262626" }, "geometry": { "type": "Point", "coordinates": [ 2.724609, 25.324167 ] } }
{"year": "AD74",  "type": "Feature", "tippecanoe": { "layer": "2AFCA0F525C01583917768784", "minzoom": 2, "maxzoom": 8 }, "properties": { "halo": 0.8, "title": "加拉曼特人", "fontsize": 12, "tyid": "304001", "oid": "103:1562760074832", "color": "#262626" }, "geometry": { "type": "Point", "coordinates": [ 18.544922, 26.980829 ] } }
{"year": "AD74",  "type": "Feature", "tippecanoe": { "layer": "2AFCA0F525C01583917768784", "minzoom": 2, "maxzoom": 8 }, "properties": { "halo": 0.8, "title": "诺克文化", "fontsize": 12, "tyid": "304002", "oid": "103:1562760074465", "color": "#262626" }, "geometry": { "type": "Point", "coordinates": [ 7.119141, 10.574222 ] } }
{"year": "AD74",  "type": "Feature", "tippecanoe": { "layer": "2AFCA0F525C01583917768784", "minzoom": 2, "maxzoom": 8 }, "properties": { "halo": 0.8, "title": "萨奥文明", "fontsize": 12, "tyid": "304002", "oid": "103:1562760074296", "color": "#262626" }, "geometry": { "type": "Point", "coordinates": [ 15.205078, 13.410994 ] } }
{"year": "AD74",  "type": "Feature", "tippecanoe": { "layer": "2AFCA0F525C01583917768784", "minzoom": 2, "maxzoom": 8 }, "properties": { "halo": 0.8, "title": "巴卡人", "fontsize": 12, "tyid": "304001", "oid": "103:1562760074272", "color": "#262626" }, "geometry": { "type": "Point", "coordinates": [ 18.105469, 5.441022 ] } }
{"year": "AD74",  "type": "Feature", "tippecanoe": { "layer": "2AFCA0F525C01583917768784", "minzoom": 2, "maxzoom": 8 }, "properties": { "halo": 0.8, "title": "亚美尼亚阿萨息斯王朝", "fontsize": 12, "tyid": "304000", "oid": "103:1562760074987", "color": "#202020" }, "geometry": { "type": "Point", "coordinates": [ 43.857422, 39.707187 ] } }
{"year": "AD74",  "type": "Feature", "tippecanoe": { "layer": "2AFCA0F525C01583917768784", "minzoom": 2, "maxzoom": 8 }, "properties": { "halo": 0.8, "title": "塔努联盟", "fontsize": 12, "tyid": "304002", "oid": "103:1562760074770", "color": "#262626" }, "geometry": { "type": "Point", "coordinates": [ 40.869141, 32.546813 ] } }
{"year": "AD74",  "type": "Feature", "tippecanoe": { "layer": "2AFCA0F525C01583917768784", "minzoom": 2, "maxzoom": 8 }, "properties": { "halo": 0.8, "title": "纳巴泰王国", "fontsize": 12, "tyid": "304000", "oid": "103:1562760074808", "color": "#202020" }, "geometry": { "type": "Point", "coordinates": [ 36.298828, 29.152161 ] } }
{"year": "AD74",  "type": "Feature", "tippecanoe": { "layer": "2AFCA0F525C01583917768784", "minzoom": 2, "maxzoom": 8 }, "properties": { "halo": 0.8, "title": "赛莫德人", "fontsize": 12, "tyid": "304001", "oid": "103:1562760074469", "color": "#262626" }, "geometry": { "type": "Point", "coordinates": [ 42.363281, 22.674847 ] } }
{"year": "AD74",  "type": "Feature", "tippecanoe": { "layer": "2AFCA0F525C01583917768784", "minzoom": 2, "maxzoom": 8 }, "properties": { "halo": 0.8, "title": "北非贝都因人", "fontsize": 12, "tyid": "304001", "oid": "103:1562760074379", "color": "#262626" }, "geometry": { "type": "Point", "coordinates": [ 22.763672, 20.303418 ] } }
{"year": "AD74",  "type": "Feature", "tippecanoe": { "layer": "2AFCA0F525C01583917768784", "minzoom": 2, "maxzoom": 8 }, "properties": { "halo": 0.8, "title": "札加瓦人", "fontsize": 12, "tyid": "304001", "oid": "103:1568109433021", "color": "#262626" }, "geometry": { "type": "Point", "coordinates": [ 22.851562, 15.623037 ] } }
{"year": "AD74",  "type": "Feature", "tippecanoe": { "layer": "2AFCA0F525C01583917768784", "minzoom": 2, "maxzoom": 8 }, "properties": { "halo": 0.8, "title": "富尔人", "fontsize": 12, "tyid": "304001", "oid": "103:1562760074467", "color": "#262626" }, "geometry": { "type": "Point", "coordinates": [ 26.015625, 12.983148 ] } }
{"year": "AD74",  "type": "Feature", "tippecanoe": { "layer": "2AFCA0F525C01583917768784", "minzoom": 2, "maxzoom": 8 }, "properties": { "halo": 0.8, "title": "库施王国", "fontsize": 12, "tyid": "304000", "oid": "103:1562760074517", "color": "#202020" }, "geometry": { "type": "Point", "coordinates": [ 32.255859, 18.729502 ] } }
{"year": "AD74",  "type": "Feature", "tippecanoe": { "layer": "2AFCA0F525C01583917768784", "minzoom": 2, "maxzoom": 8 }, "properties": { "halo": 0.8, "title": "尼罗特人", "fontsize": 12, "tyid": "304001", "oid": "103:1562760074911", "color": "#262626" }, "geometry": { "type": "Point", "coordinates": [ 33.398438, 2.372369 ] } }
{"year": "AD74",  "type": "Feature", "tippecanoe": { "layer": "2AFCA0F525C01583917768784", "minzoom": 2, "maxzoom": 8 }, "properties": { "halo": 0.8, "title": "卢欧诸部", "fontsize": 12, "tyid": "304001", "oid": "103:1562760074755", "color": "#262626" }, "geometry": { "type": "Point", "coordinates": [ 35.156250, 8.667918 ] } }
{"year": "AD74",  "type": "Feature", "tippecanoe": { "layer": "2AFCA0F525C01583917768784", "minzoom": 2, "maxzoom": 8 }, "properties": { "halo": 0.8, "title": "库希特人", "fontsize": 12, "tyid": "304001", "oid": "103:1562760074289", "color": "#262626" }, "geometry": { "type": "Point", "coordinates": [ 44.121094, 4.477856 ] } }
{"year": "AD74",  "type": "Feature", "tippecanoe": { "layer": "2AFCA0F525C01583917768784", "minzoom": 2, "maxzoom": 8 }, "properties": { "halo": 0.8, "title": "彼尔姆人", "fontsize": 12, "tyid": "304001", "oid": "103:1562760074280", "color": "#262626" }, "geometry": { "type": "Point", "coordinates": [ 55.722656, 57.704147 ] } }
{"year": "AD74",  "type": "Feature", "tippecanoe": { "layer": "2AFCA0F525C01583917768784", "minzoom": 2, "maxzoom": 8 }, "properties": { "halo": 0.8, "title": "东马扎尔人", "fontsize": 12, "tyid": "304001", "oid": "103:1562760074260", "color": "#262626" }, "geometry": { "type": "Point", "coordinates": [ 59.238281, 61.396719 ] } }
{"year": "AD74",  "type": "Feature", "tippecanoe": { "layer": "2AFCA0F525C01583917768784", "minzoom": 2, "maxzoom": 8 }, "properties": { "halo": 0.8, "title": "阿兰人", "fontsize": 12, "tyid": "304001", "oid": "103:1562760074365", "color": "#262626" }, "geometry": { "type": "Point", "coordinates": [ 57.568359, 47.219568 ] } }
{"year": "AD74",  "type": "Feature", "tippecanoe": { "layer": "2AFCA0F525C01583917768784", "minzoom": 2, "maxzoom": 8 }, "properties": { "halo": 0.8, "title": "汉特人", "fontsize": 12, "tyid": "304001", "oid": "103:1562760074226", "color": "#262626" }, "geometry": { "type": "Point", "coordinates": [ 70.048828, 61.606396 ] } }
{"year": "AD74",  "type": "Feature", "tippecanoe": { "layer": "2AFCA0F525C01583917768784", "minzoom": 2, "maxzoom": 8 }, "properties": { "halo": 0.8, "title": "曼西人", "fontsize": 12, "tyid": "304001", "oid": "103:1562760074236", "color": "#262626" }, "geometry": { "type": "Point", "coordinates": [ 67.675781, 57.562995 ] } }
{"year": "AD74",  "type": "Feature", "tippecanoe": { "layer": "2AFCA0F525C01583917768784", "minzoom": 2, "maxzoom": 8 }, "properties": { "halo": 0.8, "title": "库莱文化", "fontsize": 12, "tyid": "304002", "oid": "103:1562760074361", "color": "#262626" }, "geometry": { "type": "Point", "coordinates": [ 81.123047, 57.231503 ] } }
{"year": "AD74",  "type": "Feature", "tippecanoe": { "layer": "2AFCA0F525C01583917768784", "minzoom": 2, "maxzoom": 8 }, "properties": { "halo": 0.8, "title": "萨迦蒂安文化", "fontsize": 12, "tyid": "304002", "oid": "103:1562760074947", "color": "#262626" }, "geometry": { "type": "Point", "coordinates": [ 68.027344, 53.067627 ] } }
{"year": "AD74",  "type": "Feature", "tippecanoe": { "layer": "2AFCA0F525C01583917768784", "minzoom": 2, "maxzoom": 8 }, "properties": { "halo": 0.8, "title": "康居国", "fontsize": 12, "tyid": "304001", "oid": "103:1562760074368", "color": "#262626" }, "geometry": { "type": "Point", "coordinates": [ 67.939453, 44.777936 ] } }
{"year": "AD74",  "type": "Feature", "tippecanoe": { "layer": "2AFCA0F525C01583917768784", "minzoom": 2, "maxzoom": 8 }, "properties": { "halo": 0.8, "title": "乌孙国", "fontsize": 12, "tyid": "304000", "oid": "103:1562760074293", "color": "#202020" }, "geometry": { "type": "Point", "coordinates": [ 78.837891, 43.961191 ] } }
{"year": "AD74",  "type": "Feature", "tippecanoe": { "layer": "2AFCA0F525C01583917768784", "minzoom": 2, "maxzoom": 8 }, "properties": { "halo": 0.8, "title": "帕提亚帝国", "fontsize": 12, "tyid": "304000", "oid": "103:1562760074186", "color": "#202020" }, "geometry": { "type": "Point", "coordinates": [ 55.195312, 32.990236 ] } }
{"year": "AD74",  "type": "Feature", "tippecanoe": { "layer": "2AFCA0F525C01583917768784", "minzoom": 2, "maxzoom": 8 }, "properties": { "halo": 0.8, "title": "贝都因人", "fontsize": 12, "tyid": "304001", "oid": "103:1562760075061", "color": "#262626" }, "geometry": { "type": "Point", "coordinates": [ 47.460938, 23.644524 ] } }
{"year": "AD74",  "type": "Feature", "tippecanoe": { "layer": "2AFCA0F525C01583917768784", "minzoom": 2, "maxzoom": 8 }, "properties": { "halo": 0.8, "title": "印度-帕提亚王国", "fontsize": 12, "tyid": "304000", "oid": "103:1562760075024", "color": "#202020" }, "geometry": { "type": "Point", "coordinates": [ 63.457031, 29.840644 ] } }
{"year": "AD74",  "type": "Feature", "tippecanoe": { "layer": "2AFCA0F525C01583917768784", "minzoom": 2, "maxzoom": 8 }, "properties": { "halo": 0.8, "title": "索马里诸城邦", "fontsize": 12, "tyid": "304002", "oid": "103:1562760074746", "color": "#262626" }, "geometry": { "type": "Point", "coordinates": [ 49.130859, 9.102097 ] } }
{"year": "AD74",  "type": "Feature", "tippecanoe": { "layer": "2AFCA0F525C01583917768784", "minzoom": 2, "maxzoom": 8 }, "properties": { "halo": 0.8, "title": "贵霜帝国", "fontsize": 12, "tyid": "304000", "oid": "103:1562760074291", "color": "#202020" }, "geometry": { "type": "Point", "coordinates": [ 70.312500, 32.101190 ] } }
{"year": "AD74",  "type": "Feature", "tippecanoe": { "layer": "2AFCA0F525C01583917768784", "minzoom": 2, "maxzoom": 8 }, "properties": { "halo": 0.8, "title": "西萨特拉普王朝", "fontsize": 12, "tyid": "304000", "oid": "103:1562760074270", "color": "#202020" }, "geometry": { "type": "Point", "coordinates": [ 74.707031, 23.241346 ] } }
{"year": "AD74",  "type": "Feature", "tippecanoe": { "layer": "2AFCA0F525C01583917768784", "minzoom": 2, "maxzoom": 8 }, "properties": { "halo": 0.8, "title": "象雄王国", "fontsize": 12, "tyid": "304000", "oid": "103:1562760074852", "color": "#202020" }, "geometry": { "type": "Point", "coordinates": [ 82.177734, 31.428663 ] } }
{"year": "AD74",  "type": "Feature", "tippecanoe": { "layer": "2AFCA0F525C01583917768784", "minzoom": 2, "maxzoom": 8 }, "properties": { "halo": 0.8, "title": "百乘王朝", "fontsize": 12, "tyid": "304000", "oid": "103:1562760074197", "color": "#202020" }, "geometry": { "type": "Point", "coordinates": [ 76.992188, 18.229351 ] } }
{"year": "AD74",  "type": "Feature", "tippecanoe": { "layer": "2AFCA0F525C01583917768784", "minzoom": 2, "maxzoom": 8 }, "properties": { "halo": 0.8, "title": "北匈奴", "fontsize": 12, "tyid": "304000", "oid": "103:1562760074588", "color": "#202020" }, "geometry": { "type": "Point", "coordinates": [ 102.392578, 49.837982 ] } }
{"year": "AD74",  "type": "Feature", "tippecanoe": { "layer": "2AFCA0F525C01583917768784", "minzoom": 2, "maxzoom": 8 }, "properties": { "halo": 0.8, "title": "通古斯人", "fontsize": 12, "tyid": "304001", "oid": "103:1562760074636", "color": "#262626" }, "geometry": { "type": "Point", "coordinates": [ 116.718750, 60.759160 ] } }
{"year": "AD74",  "type": "Feature", "tippecanoe": { "layer": "2AFCA0F525C01583917768784", "minzoom": 2, "maxzoom": 8 }, "properties": { "halo": 0.8, "title": "鲜卑", "fontsize": 12, "tyid": "304001", "oid": "103:1562760074978", "color": "#262626" }, "geometry": { "type": "Point", "coordinates": [ 120.585938, 48.864715 ] } }
{"year": "AD74",  "type": "Feature", "tippecanoe": { "layer": "2AFCA0F525C01583917768784", "minzoom": 2, "maxzoom": 8 }, "properties": { "halo": 0.8, "title": "扶余", "fontsize": 12, "tyid": "304000", "oid": "103:1562760074354", "color": "#202020" }, "geometry": { "type": "Point", "coordinates": [ 124.892578, 45.089036 ] } }
{"year": "AD74",  "type": "Feature", "tippecanoe": { "layer": "2AFCA0F525C01583917768784", "minzoom": 2, "maxzoom": 8 }, "properties": { "halo": 0.8, "title": "挹娄", "fontsize": 12, "tyid": "304001", "oid": "103:1562760074510", "color": "#262626" }, "geometry": { "type": "Point", "coordinates": [ 132.451172, 47.100045 ] } }
{"year": "AD74",  "type": "Feature", "tippecanoe": { "layer": "2AFCA0F525C01583917768784", "minzoom": 2, "maxzoom": 8 }, "properties": { "halo": 0.8, "title": "苏毗", "fontsize": 12, "tyid": "304001", "oid": "103:1562760074655", "color": "#262626" }, "geometry": { "type": "Point", "coordinates": [ 93.603516, 33.137551 ] } }
{"year": "AD74",  "type": "Feature", "tippecanoe": { "layer": "2AFCA0F525C01583917768784", "minzoom": 2, "maxzoom": 8 }, "properties": { "halo": 0.8, "title": "古羌人", "fontsize": 12, "tyid": "304001", "oid": "103:1562760075063", "color": "#262626" }, "geometry": { "type": "Point", "coordinates": [ 100.458984, 32.175612 ] } }
{"year": "AD74",  "type": "Feature", "tippecanoe": { "layer": "2AFCA0F525C01583917768784", "minzoom": 2, "maxzoom": 8 }, "properties": { "halo": 0.8, "title": "东汉", "fontsize": 12, "tyid": "304000", "oid": "103:1562760074670", "color": "#202020" }, "geometry": { "type": "Point", "coordinates": [ 111.621094, 33.137551 ] } }
{"year": "AD74",  "type": "Feature", "tippecanoe": { "layer": "2AFCA0F525C01583917768784", "minzoom": 2, "maxzoom": 8 }, "properties": { "halo": 0.8, "title": "扶南王国", "fontsize": 12, "tyid": "304000", "oid": "103:1562760074795", "color": "#202020" }, "geometry": { "type": "Point", "coordinates": [ 105.380859, 11.953349 ] } }
{"year": "AD74",  "type": "Feature", "tippecanoe": { "layer": "2AFCA0F525C01583917768784", "minzoom": 2, "maxzoom": 8 }, "properties": { "halo": 0.8, "title": "南岛人", "fontsize": 12, "tyid": "304001", "oid": "103:1562760074639", "color": "#262626" }, "geometry": { "type": "Point", "coordinates": [ 114.169922, 0.878872 ] } }
{"year": "AD74",  "type": "Feature", "tippecanoe": { "layer": "2AFCA0F525C01583917768784", "minzoom": 2, "maxzoom": 8 }, "properties": { "halo": 0.8, "title": "尤卡吉尔人", "fontsize": 12, "tyid": "304001", "oid": "103:1562760074849", "color": "#262626" }, "geometry": { "type": "Point", "coordinates": [ 155.214844, 64.886265 ] } }
{"year": "AD74",  "type": "Feature", "tippecanoe": { "layer": "2AFCA0F525C01583917768784", "minzoom": 2, "maxzoom": 8 }, "properties": { "halo": 0.8, "title": "尼夫赫人", "fontsize": 12, "tyid": "304001", "oid": "103:1562760074783", "color": "#262626" }, "geometry": { "type": "Point", "coordinates": [ 138.779297, 51.890054 ] } }
{"year": "AD74",  "type": "Feature", "tippecanoe": { "layer": "2AFCA0F525C01583917768784", "minzoom": 2, "maxzoom": 8 }, "properties": { "halo": 0.8, "title": "科里亚克族", "fontsize": 12, "tyid": "304001", "oid": "103:1562760074214", "color": "#262626" }, "geometry": { "type": "Point", "coordinates": [ 167.431641, 62.267923 ] } }
{"year": "AD74",  "type": "Feature", "tippecanoe": { "layer": "2AFCA0F525C01583917768784", "minzoom": 2, "maxzoom": 8 }, "properties": { "halo": 0.8, "title": "楚科奇人", "fontsize": 12, "tyid": "304001", "oid": "103:1562760074802", "color": "#262626" }, "geometry": { "type": "Point", "coordinates": [ 171.035156, 66.443107 ] } }
{"year": "AD74",  "type": "Feature", "tippecanoe": { "layer": "2AFCA0F525C01583917768784", "minzoom": 2, "maxzoom": 8 }, "properties": { "halo": 0.8, "title": "西北班图人诸部", "fontsize": 12, "tyid": "304001", "oid": "103:1562760074582", "color": "#262626" }, "geometry": { "type": "Point", "coordinates": [ 20.742188, -0.527336 ] } }
{"year": "AD74",  "type": "Feature", "tippecanoe": { "layer": "2AFCA0F525C01583917768784", "minzoom": 2, "maxzoom": 8 }, "properties": { "halo": 0.8, "title": "西班图人诸部", "fontsize": 12, "tyid": "304001", "oid": "103:1562760074267", "color": "#262626" }, "geometry": { "type": "Point", "coordinates": [ 21.708984, -9.102097 ] } }
{"year": "AD74",  "type": "Feature", "tippecanoe": { "layer": "2AFCA0F525C01583917768784", "minzoom": 2, "maxzoom": 8 }, "properties": { "halo": 0.8, "title": "东班图人诸部", "fontsize": 12, "tyid": "304001", "oid": "103:1562760074286", "color": "#262626" }, "geometry": { "type": "Point", "coordinates": [ 32.255859, -11.867351 ] } }
{"year": "AD74",  "type": "Feature", "tippecanoe": { "layer": "2AFCA0F525C01583917768784", "minzoom": 2, "maxzoom": 8 }, "properties": { "halo": 0.8, "title": "阿扎尼亚诸城邦", "fontsize": 12, "tyid": "304002", "oid": "103:1562760074758", "color": "#262626" }, "geometry": { "type": "Point", "coordinates": [ 39.023438, -0.615223 ] } }
{"year": "AD74",  "type": "Feature", "tippecanoe": { "layer": "2AFCA0F525C01583917768784", "minzoom": 2, "maxzoom": 8 }, "properties": { "halo": 0.8, "title": "科伊桑人", "fontsize": 12, "tyid": "304001", "oid": "103:1562760074827", "color": "#262626" }, "geometry": { "type": "Point", "coordinates": [ 23.115234, -23.160563 ] } }
{"year": "AD74",  "type": "Feature", "tippecanoe": { "layer": "2AFCA0F525C01583917768784", "minzoom": 2, "maxzoom": 8 }, "properties": { "halo": 0.8, "title": "澳洲原住民", "fontsize": 12, "tyid": "304001", "oid": "103:1562760074444", "color": "#262626" }, "geometry": { "type": "Point", "coordinates": [ 134.296875, -25.562265 ] } }
{"year": "AD74",  "type": "Feature", "tippecanoe": { "layer": "2AFCA0F525C01583917768784", "minzoom": 2, "maxzoom": 8 }, "properties": { "halo": 0.8, "title": "巴布亚人", "fontsize": 12, "tyid": "304001", "oid": "103:1562760074536", "color": "#262626" }, "geometry": { "type": "Point", "coordinates": [ 140.888672, -5.266008 ] } }
{"year": "AD74",  "type": "Feature", "tippecanoe": { "layer": "2AFCA13B33C81583917768764", "minzoom": 2, "maxzoom": 8 }, "properties": { "halo": 0.8, "title": "拉霍亚文化", "fontsize": 12, "tyid": "304002", "oid": "103:1562760074248", "color": "#262626" }, "geometry": { "type": "Point", "coordinates": [ -118.916016, 34.597042 ] } }
{"year": "AD74",  "type": "Feature", "tippecanoe": { "layer": "2AFCA13B33C81583917768764", "minzoom": 2, "maxzoom": 8 }, "properties": { "halo": 0.8, "title": "维珍阿纳萨齐人", "fontsize": 12, "tyid": "304001", "oid": "103:1562760074342", "color": "#262626" }, "geometry": { "type": "Point", "coordinates": [ -113.818359, 36.879621 ] } }
{"year": "AD74",  "type": "Feature", "tippecanoe": { "layer": "2AFCA13B33C81583917768764", "minzoom": 2, "maxzoom": 8 }, "properties": { "halo": 0.8, "title": "弗里蒙特文化", "fontsize": 12, "tyid": "304002", "oid": "103:1562760074405", "color": "#262626" }, "geometry": { "type": "Point", "coordinates": [ -111.533203, 38.134557 ] } }
{"year": "AD74",  "type": "Feature", "tippecanoe": { "layer": "2AFCA13B33C81583917768764", "minzoom": 2, "maxzoom": 8 }, "properties": { "halo": 0.8, "title": "奥沙拉文化", "fontsize": 12, "tyid": "304002", "oid": "103:1562760074434", "color": "#262626" }, "geometry": { "type": "Point", "coordinates": [ -107.841797, 37.509726 ] } }
{"year": "AD74",  "type": "Feature", "tippecanoe": { "layer": "2AFCA13B33C81583917768764", "minzoom": 2, "maxzoom": 8 }, "properties": { "halo": 0.8, "title": "古普韦布洛人", "fontsize": 12, "tyid": "304001", "oid": "103:1562760074878", "color": "#262626" }, "geometry": { "type": "Point", "coordinates": [ -109.951172, 36.527295 ] } }
{"year": "AD74",  "type": "Feature", "tippecanoe": { "layer": "2AFCA13B33C81583917768764", "minzoom": 2, "maxzoom": 8 }, "properties": { "halo": 0.8, "title": "奇瓦瓦文化", "fontsize": 12, "tyid": "304002", "oid": "103:1562760074648", "color": "#262626" }, "geometry": { "type": "Point", "coordinates": [ -107.226562, 32.768800 ] } }
{"year": "AD74",  "type": "Feature", "tippecanoe": { "layer": "2AFCA13B33C81583917768764", "minzoom": 2, "maxzoom": 8 }, "properties": { "halo": 0.8, "title": "瓜伊库拉人", "fontsize": 12, "tyid": "304001", "oid": "103:1562760074652", "color": "#262626" }, "geometry": { "type": "Point", "coordinates": [ -111.269531, 24.846565 ] } }
{"year": "AD74",  "type": "Feature", "tippecanoe": { "layer": "2AFCA13B33C81583917768764", "minzoom": 2, "maxzoom": 8 }, "properties": { "halo": 0.8, "title": "堪萨斯城霍普韦尔文化", "fontsize": 12, "tyid": "304002", "oid": "103:1562760074864", "color": "#262626" }, "geometry": { "type": "Point", "coordinates": [ -94.042969, 39.027719 ] } }
{"year": "AD74",  "type": "Feature", "tippecanoe": { "layer": "2AFCA13B33C81583917768764", "minzoom": 2, "maxzoom": 8 }, "properties": { "halo": 0.8, "title": "哈瓦那霍普韦尔文化", "fontsize": 12, "tyid": "304002", "oid": "103:1562760074384", "color": "#262626" }, "geometry": { "type": "Point", "coordinates": [ -91.054688, 40.446947 ] } }
{"year": "AD74",  "type": "Feature", "tippecanoe": { "layer": "2AFCA13B33C81583917768764", "minzoom": 2, "maxzoom": 8 }, "properties": { "halo": 0.8, "title": "喀多语密西西比文化", "fontsize": 12, "tyid": "304002", "oid": "103:1562760074392", "color": "#262626" }, "geometry": { "type": "Point", "coordinates": [ -94.482422, 35.960223 ] } }
{"year": "AD74",  "type": "Feature", "tippecanoe": { "layer": "2AFCA13B33C81583917768764", "minzoom": 2, "maxzoom": 8 }, "properties": { "halo": 0.8, "title": "福切马里尼文化", "fontsize": 12, "tyid": "304002", "oid": "103:1562760074788", "color": "#262626" }, "geometry": { "type": "Point", "coordinates": [ -94.306641, 33.358062 ] } }
{"year": "AD74",  "type": "Feature", "tippecanoe": { "layer": "2AFCA13B33C81583917768764", "minzoom": 2, "maxzoom": 8 }, "properties": { "halo": 0.8, "title": "楚拉时期", "fontsize": 12, "tyid": "304002", "oid": "103:1562760074462", "color": "#262626" }, "geometry": { "type": "Point", "coordinates": [ -92.021484, 32.472695 ] } }
{"year": "AD74",  "type": "Feature", "tippecanoe": { "layer": "2AFCA13B33C81583917768764", "minzoom": 2, "maxzoom": 8 }, "properties": { "halo": 0.8, "title": "华斯塔克文明", "fontsize": 12, "tyid": "304002", "oid": "103:1562760074207", "color": "#262626" }, "geometry": { "type": "Point", "coordinates": [ -98.613281, 22.105999 ] } }
{"year": "AD74",  "type": "Feature", "tippecanoe": { "layer": "2AFCA13B33C81583917768764", "minzoom": 2, "maxzoom": 8 }, "properties": { "halo": 0.8, "title": "奇蒂玛察人", "fontsize": 12, "tyid": "304001", "oid": "103:1562760074933", "color": "#262626" }, "geometry": { "type": "Point", "coordinates": [ -91.230469, 30.902225 ] } }
{"year": "AD74",  "type": "Feature", "tippecanoe": { "layer": "2AFCA13B33C81583917768764", "minzoom": 2, "maxzoom": 8 }, "properties": { "halo": 0.8, "title": "马克斯维尔文化", "fontsize": 12, "tyid": "304002", "oid": "103:1562760074387", "color": "#262626" }, "geometry": { "type": "Point", "coordinates": [ -90.878906, 29.764377 ] } }
{"year": "AD74",  "type": "Feature", "tippecanoe": { "layer": "2AFCA13B33C81583917768764", "minzoom": 2, "maxzoom": 8 }, "properties": { "halo": 0.8, "title": "特切特兰文化", "fontsize": 12, "tyid": "304002", "oid": "103:1562760074538", "color": "#262626" }, "geometry": { "type": "Point", "coordinates": [ -104.326172, 20.468189 ] } }
{"year": "AD74",  "type": "Feature", "tippecanoe": { "layer": "2AFCA13B33C81583917768764", "minzoom": 2, "maxzoom": 8 }, "properties": { "halo": 0.8, "title": "萨波特克文明", "fontsize": 12, "tyid": "304002", "oid": "103:1562760074426", "color": "#262626" }, "geometry": { "type": "Point", "coordinates": [ -96.064453, 16.636192 ] } }
{"year": "AD74",  "type": "Feature", "tippecanoe": { "layer": "2AFCA13B33C81583917768764", "minzoom": 2, "maxzoom": 8 }, "properties": { "halo": 0.8, "title": "古德尔文化", "fontsize": 12, "tyid": "304002", "oid": "103:1562760074199", "color": "#262626" }, "geometry": { "type": "Point", "coordinates": [ -85.869141, 43.133061 ] } }
{"year": "AD74",  "type": "Feature", "tippecanoe": { "layer": "2AFCA13B33C81583917768764", "minzoom": 2, "maxzoom": 8 }, "properties": { "halo": 0.8, "title": "索根文化", "fontsize": 12, "tyid": "304002", "oid": "103:1562760074936", "color": "#262626" }, "geometry": { "type": "Point", "coordinates": [ -81.298828, 43.707594 ] } }
{"year": "AD74",  "type": "Feature", "tippecanoe": { "layer": "2AFCA13B33C81583917768764", "minzoom": 2, "maxzoom": 8 }, "properties": { "halo": 0.8, "title": "俄亥俄霍普韦尔文化", "fontsize": 12, "tyid": "304002", "oid": "103:1562760074263", "color": "#262626" }, "geometry": { "type": "Point", "coordinates": [ -83.056641, 39.774769 ] } }
{"year": "AD74",  "type": "Feature", "tippecanoe": { "layer": "2AFCA13B33C81583917768764", "minzoom": 2, "maxzoom": 8 }, "properties": { "halo": 0.8, "title": "阿姆斯特朗文化", "fontsize": 12, "tyid": "304002", "oid": "103:1562760074881", "color": "#262626" }, "geometry": { "type": "Point", "coordinates": [ -82.968750, 38.134557 ] } }
{"year": "AD74",  "type": "Feature", "tippecanoe": { "layer": "2AFCA13B33C81583917768764", "minzoom": 2, "maxzoom": 8 }, "properties": { "halo": 0.8, "title": "德普特福德文化", "fontsize": 12, "tyid": "304002", "oid": "103:1562760074204", "color": "#262626" }, "geometry": { "type": "Point", "coordinates": [ -79.628906, 33.358062 ] } }
{"year": "AD74",  "type": "Feature", "tippecanoe": { "layer": "2AFCA13B33C81583917768764", "minzoom": 2, "maxzoom": 8 }, "properties": { "halo": 0.8, "title": "切格文特文化", "fontsize": 12, "tyid": "304002", "oid": "103:1562760074221", "color": "#262626" }, "geometry": { "type": "Point", "coordinates": [ -89.208984, 30.600094 ] } }
{"year": "AD74",  "type": "Feature", "tippecanoe": { "layer": "2AFCA13B33C81583917768764", "minzoom": 2, "maxzoom": 8 }, "properties": { "halo": 0.8, "title": "玛雅文明[前古典时期]", "fontsize": 12, "tyid": "304002", "oid": "103:1576922398069", "color": "#262626" }, "geometry": { "type": "Point", "coordinates": [ -89.296875, 17.056785 ] } }
{"year": "AD74",  "type": "Feature", "tippecanoe": { "layer": "2AFCA13B33C81583917768764", "minzoom": 2, "maxzoom": 8 }, "properties": { "halo": 0.8, "title": "兹努文化", "fontsize": 12, "tyid": "304002", "oid": "103:1562760074412", "color": "#262626" }, "geometry": { "type": "Point", "coordinates": [ -75.585938, 8.581021 ] } }
{"year": "AD74",  "type": "Feature", "tippecanoe": { "layer": "2AFCA13B33C81583917768764", "minzoom": 2, "maxzoom": 8 }, "properties": { "halo": 0.8, "title": "拉托利塔文化", "fontsize": 12, "tyid": "304002", "oid": "103:1562760074643", "color": "#262626" }, "geometry": { "type": "Point", "coordinates": [ -78.046875, 1.757537 ] } }
{"year": "AD74",  "type": "Feature", "tippecanoe": { "layer": "2AFCA13B33C81583917768764", "minzoom": 2, "maxzoom": 8 }, "properties": { "halo": 0.8, "title": "埃雷拉时期", "fontsize": 12, "tyid": "304002", "oid": "103:1562760074930", "color": "#262626" }, "geometry": { "type": "Point", "coordinates": [ -73.476562, 5.441022 ] } }
{"year": "AD74",  "type": "Feature", "tippecanoe": { "layer": "2AFCA13B33C81583917768764", "minzoom": 2, "maxzoom": 8 }, "properties": { "halo": 0.8, "title": "伊奈里人", "fontsize": 12, "tyid": "304001", "oid": "103:1562760074246", "color": "#262626" }, "geometry": { "type": "Point", "coordinates": [ -61.787109, 8.754795 ] } }
{"year": "AD74",  "type": "Feature", "tippecanoe": { "layer": "2AFCA13B33C81583917768764", "minzoom": 2, "maxzoom": 8 }, "properties": { "halo": 0.8, "title": "喀里多尼亚人", "fontsize": 12, "tyid": "304001", "oid": "103:1562760074195", "color": "#262626" }, "geometry": { "type": "Point", "coordinates": [ -4.042969, 56.992883 ] } }
{"year": "AD74",  "type": "Feature", "tippecanoe": { "layer": "2AFCA13B33C81583917768764", "minzoom": 2, "maxzoom": 8 }, "properties": { "halo": 0.8, "title": "盖尔人", "fontsize": 12, "tyid": "304001", "oid": "103:1562760074629", "color": "#262626" }, "geometry": { "type": "Point", "coordinates": [ -7.910156, 53.435719 ] } }
{"year": "AD74",  "type": "Feature", "tippecanoe": { "layer": "2AFCA13B33C81583917768764", "minzoom": 2, "maxzoom": 8 }, "properties": { "halo": 0.8, "title": "布里甘斯特人", "fontsize": 12, "tyid": "304001", "oid": "103:1562760074704", "color": "#262626" }, "geometry": { "type": "Point", "coordinates": [ -1.845703, 54.007769 ] } }
{"year": "AD74",  "type": "Feature", "tippecanoe": { "layer": "2AFCA13B33C81583917768764", "minzoom": 2, "maxzoom": 8 }, "properties": { "halo": 0.8, "title": "杰内-杰诺文化二期", "fontsize": 12, "tyid": "304002", "oid": "103:1568109432663", "color": "#262626" }, "geometry": { "type": "Point", "coordinates": [ -4.482422, 13.667338 ] } }
{"year": "AD74",  "type": "Feature", "tippecanoe": { "layer": "2AFCA13B33C81583917768764", "minzoom": 2, "maxzoom": 8 }, "properties": { "halo": 0.8, "title": "楚真文化", "fontsize": 12, "tyid": "304002", "oid": "103:1562760074646", "color": "#262626" }, "geometry": { "type": "Point", "coordinates": [ -70.576172, -16.299051 ] } }
{"year": "AD74",  "type": "Feature", "tippecanoe": { "layer": "2AFCA13B33C81583917768764", "minzoom": 2, "maxzoom": 8 }, "properties": { "halo": 0.8, "title": "普卡拉文化", "fontsize": 12, "tyid": "304002", "oid": "103:1562760074417", "color": "#262626" }, "geometry": { "type": "Point", "coordinates": [ -69.873047, -14.859850 ] } }
{"year": "AD74",  "type": "Feature", "tippecanoe": { "layer": "2AFCA13B33C81583917768764", "minzoom": 2, "maxzoom": 8 }, "properties": { "halo": 0.8, "title": "艾马拉人", "fontsize": 12, "tyid": "304001", "oid": "103:1562760074822", "color": "#262626" }, "geometry": { "type": "Point", "coordinates": [ -68.291016, -17.224758 ] } }
{"year": "AD74",  "type": "Feature", "tippecanoe": { "layer": "2AFCA13B33C81583917768764", "minzoom": 2, "maxzoom": 8 }, "properties": { "halo": 0.8, "title": "昌戈人", "fontsize": 12, "tyid": "304001", "oid": "103:1562760074436", "color": "#262626" }, "geometry": { "type": "Point", "coordinates": [ -69.960938, -23.725012 ] } }
{"year": "AD74",  "type": "Feature", "tippecanoe": { "layer": "2AFCA13B33C81583917768764", "minzoom": 2, "maxzoom": 8 }, "properties": { "halo": 0.8, "title": "阿拉米托文化", "fontsize": 12, "tyid": "304002", "oid": "103:1562760074923", "color": "#262626" }, "geometry": { "type": "Point", "coordinates": [ -67.851562, -26.588527 ] } }
{"year": "AD74",  "type": "Feature", "tippecanoe": { "layer": "2AFCA13B33C81583917768764", "minzoom": 2, "maxzoom": 8 }, "properties": { "halo": 0.8, "title": "埃尔莫尔文化", "fontsize": 12, "tyid": "304002", "oid": "103:1562760074244", "color": "#262626" }, "geometry": { "type": "Point", "coordinates": [ -70.927734, -30.675715 ] } }
{"year": "AD74",  "type": "Feature", "tippecanoe": { "layer": "2AFCA13B33C81583917768764", "minzoom": 2, "maxzoom": 8 }, "properties": { "halo": 0.8, "title": "安西尔塔文化", "fontsize": 12, "tyid": "304002", "oid": "103:1562760074817", "color": "#262626" }, "geometry": { "type": "Point", "coordinates": [ -68.818359, -31.353637 ] } }
{"year": "AD74",  "type": "Feature", "tippecanoe": { "layer": "2AFCA13B33C81583917768764", "minzoom": 2, "maxzoom": 8 }, "properties": { "halo": 0.8, "title": "巴托文化", "fontsize": 12, "tyid": "304002", "oid": "103:1562760074514", "color": "#262626" }, "geometry": { "type": "Point", "coordinates": [ -70.839844, -33.431441 ] } }
{"year": "AD74",  "type": "Feature", "tippecanoe": { "layer": "2AFCA13B33C81583917768764", "minzoom": 2, "maxzoom": 8 }, "properties": { "halo": 0.8, "title": "马普切人", "fontsize": 12, "tyid": "304001", "oid": "103:1562760074429", "color": "#262626" }, "geometry": { "type": "Point", "coordinates": [ -71.455078, -38.959409 ] } }
{"year": "AD74",  "type": "Feature", "tippecanoe": { "layer": "2AFCA13B33C81583917768764", "minzoom": 2, "maxzoom": 8 }, "properties": { "halo": 0.8, "title": "希德拉里卡文化", "fontsize": 12, "tyid": "304002", "oid": "103:1562760074837", "color": "#262626" }, "geometry": { "type": "Point", "coordinates": [ -66.005859, -12.297068 ] } }
{"year": "AD74",  "type": "Feature", "tippecanoe": { "layer": "2AFCA13B33C81583917768764", "minzoom": 2, "maxzoom": 8 }, "properties": { "halo": 0.8, "title": "摩克索人", "fontsize": 12, "tyid": "304001", "oid": "103:1562760074568", "color": "#262626" }, "geometry": { "type": "Point", "coordinates": [ -65.830078, -13.923404 ] } }
{"year": "AD74",  "type": "Feature", "tippecanoe": { "layer": "2AFCA13B33C81583917768764", "minzoom": 2, "maxzoom": 8 }, "properties": { "halo": 0.8, "title": "瓦卡拉尼文化", "fontsize": 12, "tyid": "304002", "oid": "103:1562760074734", "color": "#262626" }, "geometry": { "type": "Point", "coordinates": [ -64.951172, -17.811456 ] } }
{"year": "AD74",  "type": "Feature", "tippecanoe": { "layer": "2AFCA13B33C81583917768764", "minzoom": 2, "maxzoom": 8 }, "properties": { "halo": 0.8, "title": "康多拉瓦西文化", "fontsize": 12, "tyid": "304002", "oid": "103:1562760074806", "color": "#262626" }, "geometry": { "type": "Point", "coordinates": [ -66.708984, -27.293689 ] } }
{"year": "AD74",  "type": "Feature", "tippecanoe": { "layer": "2AFCA13B33C81583917768764", "minzoom": 2, "maxzoom": 8 }, "properties": { "halo": 0.8, "title": "拉斯梅塞德斯文化", "fontsize": 12, "tyid": "304002", "oid": "103:1562760074543", "color": "#262626" }, "geometry": { "type": "Point", "coordinates": [ -63.808594, -27.605671 ] } }
{"year": "AD74",  "type": "Feature", "tippecanoe": { "layer": "2AFCA13B33C81583917768764", "minzoom": 2, "maxzoom": 8 }, "properties": { "halo": 0.8, "title": "查鲁亚人", "fontsize": 12, "tyid": "304001", "oid": "103:1562760074819", "color": "#262626" }, "geometry": { "type": "Point", "coordinates": [ -57.128906, -32.398516 ] } }
{"year": "AD74",  "type": "Feature", "tippecanoe": { "layer": "2AFCA13B33C81583917768764", "minzoom": 2, "maxzoom": 8 }, "properties": { "halo": 0.8, "title": "特胡尔切人", "fontsize": 12, "tyid": "304001", "oid": "103:1562760074302", "color": "#262626" }, "geometry": { "type": "Point", "coordinates": [ -70.751953, -50.176898 ] } }
{"year": "AD74",  "type": "Feature", "tippecanoe": { "layer": "2AFCA13B33C81583917768764", "minzoom": 2, "maxzoom": 8 }, "properties": { "halo": 0.8, "title": "塞尔克南人", "fontsize": 12, "tyid": "304001", "oid": "103:1562760074209", "color": "#262626" }, "geometry": { "type": "Point", "coordinates": [ -68.378906, -53.696706 ] } }
{"year": "AD74",  "type": "Feature", "tippecanoe": { "layer": "2AFCA13B33C81583917768764", "minzoom": 2, "maxzoom": 8 }, "properties": { "halo": 0.8, "title": "雅干人", "fontsize": 12, "tyid": "304001", "oid": "103:1562760074732", "color": "#262626" }, "geometry": { "type": "Point", "coordinates": [ -68.554688, -54.521081 ] } }
{"year": "AD74",  "type": "Feature", "tippecanoe": { "layer": "2AFCA13B33C81583917768764", "minzoom": 2, "maxzoom": 8 }, "properties": { "halo": 0.8, "title": "朱特人", "fontsize": 12, "tyid": "304001", "oid": "103:1562760074761", "color": "#262626" }, "geometry": { "type": "Point", "coordinates": [ 9.316406, 56.267761 ] } }
{"year": "AD74",  "type": "Feature", "tippecanoe": { "layer": "2AFCA13B33C81583917768764", "minzoom": 2, "maxzoom": 8 }, "properties": { "halo": 0.8, "title": "耶阿特人", "fontsize": 12, "tyid": "304001", "oid": "103:1562760074921", "color": "#262626" }, "geometry": { "type": "Point", "coordinates": [ 13.710938, 57.657158 ] } }
{"year": "AD74",  "type": "Feature", "tippecanoe": { "layer": "2AFCA13B33C81583917768764", "minzoom": 2, "maxzoom": 8 }, "properties": { "halo": 0.8, "title": "赫鲁利人", "fontsize": 12, "tyid": "304001", "oid": "103:1562760074632", "color": "#262626" }, "geometry": { "type": "Point", "coordinates": [ 13.447266, 55.875311 ] } }
{"year": "AD74",  "type": "Feature", "tippecanoe": { "layer": "2AFCA13B33C81583917768764", "minzoom": 2, "maxzoom": 8 }, "properties": { "halo": 0.8, "title": "弗里西人", "fontsize": 12, "tyid": "304001", "oid": "103:1562760074903", "color": "#262626" }, "geometry": { "type": "Point", "coordinates": [ 6.503906, 52.696361 ] } }
{"year": "AD74",  "type": "Feature", "tippecanoe": { "layer": "2AFCA13B33C81583917768764", "minzoom": 2, "maxzoom": 8 }, "properties": { "halo": 0.8, "title": "乔西人", "fontsize": 12, "tyid": "304001", "oid": "103:1562760074901", "color": "#262626" }, "geometry": { "type": "Point", "coordinates": [ 8.613281, 53.120405 ] } }
{"year": "AD74",  "type": "Feature", "tippecanoe": { "layer": "2AFCA13B33C81583917768764", "minzoom": 2, "maxzoom": 8 }, "properties": { "halo": 0.8, "title": "切鲁西人", "fontsize": 12, "tyid": "304001", "oid": "103:1562760074604", "color": "#262626" }, "geometry": { "type": "Point", "coordinates": [ 10.634766, 52.429222 ] } }
{"year": "AD74",  "type": "Feature", "tippecanoe": { "layer": "2AFCA13B33C81583917768764", "minzoom": 2, "maxzoom": 8 }, "properties": { "halo": 0.8, "title": "查蒂人", "fontsize": 12, "tyid": "304001", "oid": "103:1562760074602", "color": "#262626" }, "geometry": { "type": "Point", "coordinates": [ 8.964844, 50.736455 ] } }
{"year": "AD74",  "type": "Feature", "tippecanoe": { "layer": "2AFCA13B33C81583917768764", "minzoom": 2, "maxzoom": 8 }, "properties": { "halo": 0.8, "title": "赫门杜里人", "fontsize": 12, "tyid": "304001", "oid": "103:1562760074699", "color": "#262626" }, "geometry": { "type": "Point", "coordinates": [ 11.162109, 50.345460 ] } }
{"year": "AD74",  "type": "Feature", "tippecanoe": { "layer": "2AFCA13B33C81583917768764", "minzoom": 2, "maxzoom": 8 }, "properties": { "halo": 0.8, "title": "伦巴第人", "fontsize": 12, "tyid": "304001", "oid": "103:1562760074675", "color": "#262626" }, "geometry": { "type": "Point", "coordinates": [ 12.656250, 53.540307 ] } }
{"year": "AD74",  "type": "Feature", "tippecanoe": { "layer": "2AFCA13B33C81583917768764", "minzoom": 2, "maxzoom": 8 }, "properties": { "halo": 0.8, "title": "鲁基人", "fontsize": 12, "tyid": "304001", "oid": "103:1562760074673", "color": "#262626" }, "geometry": { "type": "Point", "coordinates": [ 16.611328, 53.748711 ] } }
{"year": "AD74",  "type": "Feature", "tippecanoe": { "layer": "2AFCA13B33C81583917768764", "minzoom": 2, "maxzoom": 8 }, "properties": { "halo": 0.8, "title": "苏维汇人", "fontsize": 12, "tyid": "304001", "oid": "103:1562760074687", "color": "#262626" }, "geometry": { "type": "Point", "coordinates": [ 13.271484, 51.672555 ] } }
{"year": "AD74",  "type": "Feature", "tippecanoe": { "layer": "2AFCA13B33C81583917768764", "minzoom": 2, "maxzoom": 8 }, "properties": { "halo": 0.8, "title": "马科曼尼人", "fontsize": 12, "tyid": "304001", "oid": "103:1562760074600", "color": "#262626" }, "geometry": { "type": "Point", "coordinates": [ 14.501953, 49.610710 ] } }
{"year": "AD74",  "type": "Feature", "tippecanoe": { "layer": "2AFCA13B33C81583917768764", "minzoom": 2, "maxzoom": 8 }, "properties": { "halo": 0.8, "title": "格皮德人", "fontsize": 12, "tyid": "304001", "oid": "103:1562760074707", "color": "#262626" }, "geometry": { "type": "Point", "coordinates": [ 19.687500, 53.278353 ] } }
{"year": "AD74",  "type": "Feature", "tippecanoe": { "layer": "2AFCA13B33C81583917768764", "minzoom": 2, "maxzoom": 8 }, "properties": { "halo": 0.8, "title": "勃艮第人", "fontsize": 12, "tyid": "304001", "oid": "103:1562760074228", "color": "#262626" }, "geometry": { "type": "Point", "coordinates": [ 17.929688, 52.375599 ] } }
{"year": "AD74",  "type": "Feature", "tippecanoe": { "layer": "2AFCA13B33C81583917768764", "minzoom": 2, "maxzoom": 8 }, "properties": { "halo": 0.8, "title": "汪达尔人", "fontsize": 12, "tyid": "304001", "oid": "103:1562760074320", "color": "#262626" }, "geometry": { "type": "Point", "coordinates": [ 17.490234, 50.736455 ] } }
{"year": "AD74",  "type": "Feature", "tippecanoe": { "layer": "2AFCA13B33C81583917768764", "minzoom": 2, "maxzoom": 8 }, "properties": { "halo": 0.8, "title": "卢基人", "fontsize": 12, "tyid": "304001", "oid": "103:1562760074327", "color": "#262626" }, "geometry": { "type": "Point", "coordinates": [ 20.390625, 50.958427 ] } }
{"year": "AD74",  "type": "Feature", "tippecanoe": { "layer": "2AFCA13B33C81583917768764", "minzoom": 2, "maxzoom": 8 }, "properties": { "halo": 0.8, "title": "哥蒂尼人", "fontsize": 12, "tyid": "304001", "oid": "103:1562760074906", "color": "#262626" }, "geometry": { "type": "Point", "coordinates": [ 21.796875, 49.210420 ] } }
{"year": "AD74",  "type": "Feature", "tippecanoe": { "layer": "2AFCA13B33C81583917768764", "minzoom": 2, "maxzoom": 8 }, "properties": { "halo": 0.8, "title": "夸迪人", "fontsize": 12, "tyid": "304001", "oid": "103:1562760074455", "color": "#262626" }, "geometry": { "type": "Point", "coordinates": [ 18.369141, 48.864715 ] } }
{"year": "AD74",  "type": "Feature", "tippecanoe": { "layer": "2AFCA13B33C81583917768764", "minzoom": 2, "maxzoom": 8 }, "properties": { "halo": 0.8, "title": "埃阿热格人", "fontsize": 12, "tyid": "304001", "oid": "103:1562760074233", "color": "#262626" }, "geometry": { "type": "Point", "coordinates": [ 20.478516, 46.800059 ] } }
{"year": "AD74",  "type": "Feature", "tippecanoe": { "layer": "2AFCA13B33C81583917768764", "minzoom": 2, "maxzoom": 8 }, "properties": { "halo": 0.8, "title": "古爱沙尼亚人", "fontsize": 12, "tyid": "304001", "oid": "103:1562760074870", "color": "#262626" }, "geometry": { "type": "Point", "coordinates": [ 25.576172, 58.995311 ] } }
{"year": "AD74",  "type": "Feature", "tippecanoe": { "layer": "2AFCA13B33C81583917768764", "minzoom": 2, "maxzoom": 8 }, "properties": { "halo": 0.8, "title": "利沃尼亚人", "fontsize": 12, "tyid": "304001", "oid": "103:1562760074318", "color": "#262626" }, "geometry": { "type": "Point", "coordinates": [ 25.839844, 58.170702 ] } }
{"year": "AD74",  "type": "Feature", "tippecanoe": { "layer": "2AFCA13B33C81583917768764", "minzoom": 2, "maxzoom": 8 }, "properties": { "halo": 0.8, "title": "古拉脱维亚人", "fontsize": 12, "tyid": "304001", "oid": "103:1562760074311", "color": "#262626" }, "geometry": { "type": "Point", "coordinates": [ 26.630859, 56.848972 ] } }
{"year": "AD74",  "type": "Feature", "tippecanoe": { "layer": "2AFCA13B33C81583917768764", "minzoom": 2, "maxzoom": 8 }, "properties": { "halo": 0.8, "title": "沃茨人", "fontsize": 12, "tyid": "304001", "oid": "103:1562760074786", "color": "#262626" }, "geometry": { "type": "Point", "coordinates": [ 29.794922, 59.040555 ] } }
{"year": "AD74",  "type": "Feature", "tippecanoe": { "layer": "2AFCA13B33C81583917768764", "minzoom": 2, "maxzoom": 8 }, "properties": { "halo": 0.8, "title": "达契亚人", "fontsize": 12, "tyid": "304001", "oid": "103:1562760074898", "color": "#262626" }, "geometry": { "type": "Point", "coordinates": [ 24.433594, 46.739861 ] } }
{"year": "AD74",  "type": "Feature", "tippecanoe": { "layer": "2AFCA13B33C81583917768764", "minzoom": 2, "maxzoom": 8 }, "properties": { "halo": 0.8, "title": "科斯多波克人", "fontsize": 12, "tyid": "304001", "oid": "103:1562760074945", "color": "#262626" }, "geometry": { "type": "Point", "coordinates": [ 27.158203, 46.860191 ] } }
{"year": "AD74",  "type": "Feature", "tippecanoe": { "layer": "2AFCA13B33C81583917768764", "minzoom": 2, "maxzoom": 8 }, "properties": { "halo": 0.8, "title": "达契亚王国", "fontsize": 12, "tyid": "304000", "oid": "103:1562760074283", "color": "#202020" }, "geometry": { "type": "Point", "coordinates": [ 23.906250, 44.902578 ] } }
{"year": "AD74",  "type": "Feature", "tippecanoe": { "layer": "2AFCA13B33C81583917768764", "minzoom": 2, "maxzoom": 8 }, "properties": { "halo": 0.8, "title": "巴斯塔奈人", "fontsize": 12, "tyid": "304001", "oid": "103:1562760074457", "color": "#262626" }, "geometry": { "type": "Point", "coordinates": [ 29.179688, 47.338823 ] } }
{"year": "AD74",  "type": "Feature", "tippecanoe": { "layer": "2AFCA13B33C81583917768764", "minzoom": 2, "maxzoom": 8 }, "properties": { "halo": 0.8, "title": "斯基泰人", "fontsize": 12, "tyid": "304001", "oid": "103:1562760074593", "color": "#262626" }, "geometry": { "type": "Point", "coordinates": [ 33.925781, 46.558860 ] } }
{"year": "AD74",  "type": "Feature", "tippecanoe": { "layer": "2AFCA13B33C81583917768764", "minzoom": 2, "maxzoom": 8 }, "properties": { "halo": 0.8, "title": "博斯普鲁斯王国", "fontsize": 12, "tyid": "304000", "oid": "103:1562760074981", "color": "#202020" }, "geometry": { "type": "Point", "coordinates": [ 38.408203, 45.213004 ] } }
{"year": "AD74",  "type": "Feature", "tippecanoe": { "layer": "2AFCA13B33C81583917768764", "minzoom": 2, "maxzoom": 8 }, "properties": { "halo": 0.8, "title": "西雷斯人", "fontsize": 12, "tyid": "304001", "oid": "103:1562760074277", "color": "#262626" }, "geometry": { "type": "Point", "coordinates": [ 41.396484, 45.644768 ] } }
{"year": "AD74",  "type": "Feature", "tippecanoe": { "layer": "2AFCA13B33C81583917768764", "minzoom": 2, "maxzoom": 8 }, "properties": { "halo": 0.8, "title": "切尔克斯人", "fontsize": 12, "tyid": "304001", "oid": "103:1562760074238", "color": "#262626" }, "geometry": { "type": "Point", "coordinates": [ 41.835938, 43.771094 ] } }
{"year": "AD74",  "type": "Feature", "tippecanoe": { "layer": "2AFCA13B33C81583917768764", "minzoom": 2, "maxzoom": 8 }, "properties": { "halo": 0.8, "title": "科尔基斯山中诸部", "fontsize": 12, "tyid": "304002", "oid": "103:1562760074356", "color": "#262626" }, "geometry": { "type": "Point", "coordinates": [ 42.451172, 42.875964 ] } }
{"year": "AD74",  "type": "Feature", "tippecanoe": { "layer": "2AFCA13B33C81583917768764", "minzoom": 2, "maxzoom": 8 }, "properties": { "halo": 0.8, "title": "高加索伊比利亚王国", "fontsize": 12, "tyid": "304000", "oid": "103:1562760074989", "color": "#202020" }, "geometry": { "type": "Point", "coordinates": [ 44.560547, 41.967659 ] } }
{"year": "AD74",  "type": "Feature", "tippecanoe": { "layer": "2AFCA13B33C81583917768764", "minzoom": 2, "maxzoom": 8 }, "properties": { "halo": 0.8, "title": "盖图里人", "fontsize": 12, "tyid": "304001", "oid": "103:1562760075039", "color": "#262626" }, "geometry": { "type": "Point", "coordinates": [ 1.933594, 34.234512 ] } }
{"year": "AD74",  "type": "Feature", "tippecanoe": { "layer": "2AFCA13B33C81583917768764", "minzoom": 2, "maxzoom": 8 }, "properties": { "halo": 0.8, "title": "加拉曼特王国", "fontsize": 12, "tyid": "304000", "oid": "103:1562760074471", "color": "#202020" }, "geometry": { "type": "Point", "coordinates": [ 13.886719, 26.902477 ] } }
{"year": "AD74",  "type": "Feature", "tippecanoe": { "layer": "2AFCA13B33C81583917768764", "minzoom": 2, "maxzoom": 8 }, "properties": { "halo": 0.8, "title": "约鲁巴人", "fontsize": 12, "tyid": "304001", "oid": "103:1562760074473", "color": "#262626" }, "geometry": { "type": "Point", "coordinates": [ 3.427734, 7.536764 ] } }
{"year": "AD74",  "type": "Feature", "tippecanoe": { "layer": "2AFCA13B33C81583917768764", "minzoom": 2, "maxzoom": 8 }, "properties": { "halo": 0.8, "title": "伊博人", "fontsize": 12, "tyid": "304001", "oid": "103:1562760074476", "color": "#262626" }, "geometry": { "type": "Point", "coordinates": [ 7.998047, 5.965754 ] } }
{"year": "AD74",  "type": "Feature", "tippecanoe": { "layer": "2AFCA13B33C81583917768764", "minzoom": 2, "maxzoom": 8 }, "properties": { "halo": 0.8, "title": "奥斯若恩王国", "fontsize": 12, "tyid": "304000", "oid": "103:1562760074951", "color": "#202020" }, "geometry": { "type": "Point", "coordinates": [ 38.759766, 36.949892 ] } }
{"year": "AD74",  "type": "Feature", "tippecanoe": { "layer": "2AFCA13B33C81583917768764", "minzoom": 2, "maxzoom": 8 }, "properties": { "halo": 0.8, "title": "帕尔米拉酋长国", "fontsize": 12, "tyid": "304000", "oid": "103:1562760074999", "color": "#202020" }, "geometry": { "type": "Point", "coordinates": [ 38.583984, 34.813803 ] } }
{"year": "AD74",  "type": "Feature", "tippecanoe": { "layer": "2AFCA13B33C81583917768764", "minzoom": 2, "maxzoom": 8 }, "properties": { "halo": 0.8, "title": "阿迪亚波纳王国", "fontsize": 12, "tyid": "304000", "oid": "103:1562760074974", "color": "#202020" }, "geometry": { "type": "Point", "coordinates": [ 43.945312, 36.597889 ] } }
{"year": "AD74",  "type": "Feature", "tippecanoe": { "layer": "2AFCA13B33C81583917768764", "minzoom": 2, "maxzoom": 8 }, "properties": { "halo": 0.8, "title": "布雷米耶国", "fontsize": 12, "tyid": "304001", "oid": "103:1562760074668", "color": "#262626" }, "geometry": { "type": "Point", "coordinates": [ 34.980469, 21.453069 ] } }
{"year": "AD74",  "type": "Feature", "tippecanoe": { "layer": "2AFCA13B33C81583917768764", "minzoom": 2, "maxzoom": 8 }, "properties": { "halo": 0.8, "title": "高原诸小王国", "fontsize": 12, "tyid": "304002", "oid": "103:1562760074531", "color": "#262626" }, "geometry": { "type": "Point", "coordinates": [ 37.968750, 17.056785 ] } }
{"year": "AD74",  "type": "Feature", "tippecanoe": { "layer": "2AFCA13B33C81583917768764", "minzoom": 2, "maxzoom": 8 }, "properties": { "halo": 0.8, "title": "贝扎人", "fontsize": 12, "tyid": "304001", "oid": "103:1562760074478", "color": "#262626" }, "geometry": { "type": "Point", "coordinates": [ 35.771484, 16.383391 ] } }
{"year": "AD74",  "type": "Feature", "tippecanoe": { "layer": "2AFCA13B33C81583917768764", "minzoom": 2, "maxzoom": 8 }, "properties": { "halo": 0.8, "title": "肯德部落", "fontsize": 12, "tyid": "304001", "oid": "103:1562760074753", "color": "#262626" }, "geometry": { "type": "Point", "coordinates": [ 43.945312, 18.979026 ] } }
{"year": "AD74",  "type": "Feature", "tippecanoe": { "layer": "2AFCA13B33C81583917768764", "minzoom": 2, "maxzoom": 8 }, "properties": { "halo": 0.8, "title": "原始-阿克苏姆铁器时代", "fontsize": 12, "tyid": "304002", "oid": "103:1562760074943", "color": "#262626" }, "geometry": { "type": "Point", "coordinates": [ 40.166016, 13.667338 ] } }
{"year": "AD74",  "type": "Feature", "tippecanoe": { "layer": "2AFCA13B33C81583917768764", "minzoom": 2, "maxzoom": 8 }, "properties": { "halo": 0.8, "title": "巴基尔联盟", "fontsize": 12, "tyid": "304002", "oid": "103:1562760074488", "color": "#262626" }, "geometry": { "type": "Point", "coordinates": [ 43.593750, 15.792254 ] } }
{"year": "AD74",  "type": "Feature", "tippecanoe": { "layer": "2AFCA13B33C81583917768764", "minzoom": 2, "maxzoom": 8 }, "properties": { "halo": 0.8, "title": "希木叶尔王国", "fontsize": 12, "tyid": "304000", "oid": "103:1562760074620", "color": "#202020" }, "geometry": { "type": "Point", "coordinates": [ 44.472656, 13.667338 ] } }
{"year": "AD74",  "type": "Feature", "tippecanoe": { "layer": "2AFCA13B33C81583917768764", "minzoom": 2, "maxzoom": 8 }, "properties": { "halo": 0.8, "title": "派诺博尔斯基文化", "fontsize": 12, "tyid": "304002", "oid": "103:1562760074324", "color": "#262626" }, "geometry": { "type": "Point", "coordinates": [ 50.449219, 56.897004 ] } }
{"year": "AD74",  "type": "Feature", "tippecanoe": { "layer": "2AFCA13B33C81583917768764", "minzoom": 2, "maxzoom": 8 }, "properties": { "halo": 0.8, "title": "奥苏伊人", "fontsize": 12, "tyid": "304001", "oid": "103:1562760074908", "color": "#262626" }, "geometry": { "type": "Point", "coordinates": [ 45.439453, 44.339565 ] } }
{"year": "AD74",  "type": "Feature", "tippecanoe": { "layer": "2AFCA13B33C81583917768764", "minzoom": 2, "maxzoom": 8 },