{ "type": "Feature", "tippecanoe": { "layer": "2AFCA15492781583915785059", "minzoom": 2, "maxzoom": 8 }, "properties": { "halo": 1.6, "title": "阿拉楚阿文化", "fontsize": 12, "tyid": "304002", "oid": "103:1576922419492", "color": "#0056E7" }, "geometry": { "type": "Point", "coordinates": [ -82.441406, 29.611670 ] } }
{ "type": "Feature", "tippecanoe": { "layer": "2AFCA15492781583915785059", "minzoom": 2, "maxzoom": 8 }, "properties": { "halo": 1.6, "title": "维京人", "fontsize": 12, "tyid": "304001", "oid": "103:1535120169894", "color": "#0056E7" }, "geometry": { "type": "Point", "coordinates": [ -1.406250, 60.326948 ] } }
{ "type": "Feature", "tippecanoe": { "layer": "2AFCA15492781583915785059", "minzoom": 2, "maxzoom": 8 }, "properties": { "halo": 1.8, "title": "达尔里阿达王国", "fontsize": 12, "tyid": "304000", "oid": "103:1535120169886", "color": "#0056E7" }, "geometry": { "type": "Point", "coordinates": [ -5.361328, 56.316537 ] } }
{ "type": "Feature", "tippecanoe": { "layer": "2AFCA15492781583915785059", "minzoom": 2, "maxzoom": 8 }, "properties": { "halo": 1.8, "title": "埃里克王国", "fontsize": 12, "tyid": "304000", "oid": "103:1535120169883", "color": "#0056E7" }, "geometry": { "type": "Point", "coordinates": [ -7.646484, 54.622978 ] } }
{ "type": "Feature", "tippecanoe": { "layer": "2AFCA15492781583915785059", "minzoom": 2, "maxzoom": 8 }, "properties": { "halo": 1.8, "title": "乌勒王国", "fontsize": 12, "tyid": "304000", "oid": "103:1535120169918", "color": "#0056E7" }, "geometry": { "type": "Point", "coordinates": [ -6.152344, 54.622978 ] } }
{ "type": "Feature", "tippecanoe": { "layer": "2AFCA15492781583915785059", "minzoom": 2, "maxzoom": 8 }, "properties": { "halo": 1.8, "title": "布雷芬内王国", "fontsize": 12, "tyid": "304000", "oid": "103:1535120169913", "color": "#0056E7" }, "geometry": { "type": "Point", "coordinates": [ -7.646484, 54.110943 ] } }
{ "type": "Feature", "tippecanoe": { "layer": "2AFCA15492781583915785059", "minzoom": 2, "maxzoom": 8 }, "properties": { "halo": 1.8, "title": "米瑟王国", "fontsize": 12, "tyid": "304000", "oid": "103:1537435995921", "color": "#0056E7" }, "geometry": { "type": "Point", "coordinates": [ -7.558594, 53.540307 ] } }
{ "type": "Feature", "tippecanoe": { "layer": "2AFCA15492781583915785059", "minzoom": 2, "maxzoom": 8 }, "properties": { "halo": 1.8, "title": "奥斯拉尔王国", "fontsize": 12, "tyid": "304000", "oid": "103:1535120169903", "color": "#0056E7" }, "geometry": { "type": "Point", "coordinates": [ -7.382812, 52.696361 ] } }
{ "type": "Feature", "tippecanoe": { "layer": "2AFCA15492781583915785059", "minzoom": 2, "maxzoom": 8 }, "properties": { "halo": 1.8, "title": "奥利尔王国", "fontsize": 12, "tyid": "304000", "oid": "103:1535120169916", "color": "#0056E7" }, "geometry": { "type": "Point", "coordinates": [ -6.855469, 54.162434 ] } }
{ "type": "Feature", "tippecanoe": { "layer": "2AFCA15492781583915785059", "minzoom": 2, "maxzoom": 8 }, "properties": { "halo": 1.8, "title": "伦斯特王国", "fontsize": 12, "tyid": "304000", "oid": "103:1535120169905", "color": "#0056E7" }, "geometry": { "type": "Point", "coordinates": [ -6.767578, 52.908902 ] } }
{ "type": "Feature", "tippecanoe": { "layer": "2AFCA15492781583915785059", "minzoom": 2, "maxzoom": 8 }, "properties": { "halo": 1.8, "title": "格温内斯王国", "fontsize": 12, "tyid": "304000", "oid": "103:1535120169878", "color": "#0056E7" }, "geometry": { "type": "Point", "coordinates": [ -3.867188, 53.014783 ] } }
{ "type": "Feature", "tippecanoe": { "layer": "2AFCA15492781583915785059", "minzoom": 2, "maxzoom": 8 }, "properties": { "halo": 1.8, "title": "波威斯王国", "fontsize": 12, "tyid": "304000", "oid": "103:1576922419428", "color": "#0056E7" }, "geometry": { "type": "Point", "coordinates": [ -3.339844, 52.589701 ] } }
{ "type": "Feature", "tippecanoe": { "layer": "2AFCA15492781583915785059", "minzoom": 2, "maxzoom": 8 }, "properties": { "halo": 1.8, "title": "达费德王国", "fontsize": 12, "tyid": "304000", "oid": "103:1576922419430", "color": "#0056E7" }, "geometry": { "type": "Point", "coordinates": [ -4.833984, 51.890054 ] } }
{ "type": "Feature", "tippecanoe": { "layer": "2AFCA15492781583915785059", "minzoom": 2, "maxzoom": 8 }, "properties": { "halo": 1.8, "title": "格温特王国", "fontsize": 12, "tyid": "304000", "oid": "103:1576922419427", "color": "#0056E7" }, "geometry": { "type": "Point", "coordinates": [ -3.691406, 51.890054 ] } }
{ "type": "Feature", "tippecanoe": { "layer": "2AFCA15492781583915785059", "minzoom": 2, "maxzoom": 8 }, "properties": { "halo": 1.8, "title": "萨塞克斯王国", "fontsize": 12, "tyid": "304000", "oid": "103:1535120169923", "color": "#0056E7" }, "geometry": { "type": "Point", "coordinates": [ -0.175781, 51.013755 ] } }
{ "type": "Feature", "tippecanoe": { "layer": "2AFCA15492781583915785059", "minzoom": 2, "maxzoom": 8 }, "properties": { "halo": 1.8, "title": "奈克尔埃米尔国", "fontsize": 12, "tyid": "304000", "oid": "103:1576922419431", "color": "#0056E7" }, "geometry": { "type": "Point", "coordinates": [ -3.515625, 35.029996 ] } }
{ "type": "Feature", "tippecanoe": { "layer": "2AFCA15492781583915785059", "minzoom": 2, "maxzoom": 8 }, "properties": { "halo": 1.6, "title": "哥得兰人", "fontsize": 12, "tyid": "304001", "oid": "103:1537435995985", "color": "#0056E7" }, "geometry": { "type": "Point", "coordinates": [ 18.457031, 57.515823 ] } }
{ "type": "Feature", "tippecanoe": { "layer": "2AFCA15492781583915785059", "minzoom": 2, "maxzoom": 8 }, "properties": { "halo": 1.8, "title": "埃塞克斯王国", "fontsize": 12, "tyid": "304000", "oid": "103:1535120169926", "color": "#0056E7" }, "geometry": { "type": "Point", "coordinates": [ 0.527344, 51.835778 ] } }
{ "type": "Feature", "tippecanoe": { "layer": "2AFCA15492781583915785059", "minzoom": 2, "maxzoom": 8 }, "properties": { "halo": 1.8, "title": "东盎格利亚王国", "fontsize": 12, "tyid": "304000", "oid": "103:1535120169928", "color": "#0056E7" }, "geometry": { "type": "Point", "coordinates": [ 0.966797, 52.482780 ] } }
{ "type": "Feature", "tippecanoe": { "layer": "2AFCA15492781583915785059", "minzoom": 2, "maxzoom": 8 }, "properties": { "halo": 1.8, "title": "肯特王国", "fontsize": 12, "tyid": "304000", "oid": "103:1535120169875", "color": "#0056E7" }, "geometry": { "type": "Point", "coordinates": [ 0.703125, 51.234407 ] } }
{ "type": "Feature", "tippecanoe": { "layer": "2AFCA15492781583915785059", "minzoom": 2, "maxzoom": 8 }, "properties": { "halo": 1.6, "title": "弗里斯兰人", "fontsize": 12, "tyid": "304001", "oid": "103:1535120169980", "color": "#0056E7" }, "geometry": { "type": "Point", "coordinates": [ 9.052734, 54.418930 ] } }
{ "type": "Feature", "tippecanoe": { "layer": "2AFCA15492781583915785059", "minzoom": 2, "maxzoom": 8 }, "properties": { "halo": 1.6, "title": "萨克森人", "fontsize": 12, "tyid": "304002", "oid": "103:1537435995999", "color": "#0056E7" }, "geometry": { "type": "Point", "coordinates": [ 9.843750, 54.007769 ] } }
{ "type": "Feature", "tippecanoe": { "layer": "2AFCA15492781583915785059", "minzoom": 2, "maxzoom": 8 }, "properties": { "halo": 1.8, "title": "威尼斯共和国", "fontsize": 12, "tyid": "304000", "oid": "103:1535120170429", "color": "#0056E7" }, "geometry": { "type": "Point", "coordinates": [ 12.304688, 45.583290 ] } }
{ "type": "Feature", "tippecanoe": { "layer": "2AFCA15492781583915785059", "minzoom": 2, "maxzoom": 8 }, "properties": { "halo": 1.6, "title": "纳伦廷人", "fontsize": 12, "tyid": "304001", "oid": "103:1576922419437", "color": "#0056E7" }, "geometry": { "type": "Point", "coordinates": [ 17.226562, 43.261206 ] } }
{ "type": "Feature", "tippecanoe": { "layer": "2AFCA15492781583915785059", "minzoom": 2, "maxzoom": 8 }, "properties": { "halo": 1.6, "title": "奥耶塞利人", "fontsize": 12, "tyid": "304001", "oid": "103:1537435995987", "color": "#0056E7" }, "geometry": { "type": "Point", "coordinates": [ 22.500000, 58.447733 ] } }
{ "type": "Feature", "tippecanoe": { "layer": "2AFCA15492781583915785059", "minzoom": 2, "maxzoom": 8 }, "properties": { "halo": 1.6, "title": "沃茨人", "fontsize": 12, "tyid": "304001", "oid": "103:1535120170031", "color": "#0056E7" }, "geometry": { "type": "Point", "coordinates": [ 29.003906, 59.310768 ] } }
{ "type": "Feature", "tippecanoe": { "layer": "2AFCA15492781583915785059", "minzoom": 2, "maxzoom": 8 }, "properties": { "halo": 1.6, "title": "莫拉玛人", "fontsize": 12, "tyid": "304001", "oid": "103:1535120170151", "color": "#0056E7" }, "geometry": { "type": "Point", "coordinates": [ 41.396484, 56.656226 ] } }
{ "type": "Feature", "tippecanoe": { "layer": "2AFCA15492781583915785059", "minzoom": 2, "maxzoom": 8 }, "properties": { "halo": 1.8, "title": "第比利斯埃米尔国", "fontsize": 12, "tyid": "304000", "oid": "103:1576922419481", "color": "#0056E7" }, "geometry": { "type": "Point", "coordinates": [ 44.560547, 41.442726 ] } }
{ "type": "Feature", "tippecanoe": { "layer": "2AFCA15492781583915785059", "minzoom": 2, "maxzoom": 8 }, "properties": { "halo": 1.8, "title": "乌斯鲁萨那公国", "fontsize": 12, "tyid": "304000", "oid": "103:1576922419483", "color": "#0056E7" }, "geometry": { "type": "Point", "coordinates": [ 68.466797, 39.909736 ] } }
{ "type": "Feature", "tippecanoe": { "layer": "2AFCA15492781583915785059", "minzoom": 2, "maxzoom": 8 }, "properties": { "halo": 1.8, "title": "阿拉帕王朝", "fontsize": 12, "tyid": "304000", "oid": "103:1537435996152", "color": "#0056E7" }, "geometry": { "type": "Point", "coordinates": [ 74.970703, 13.325485 ] } }
{ "type": "Feature", "tippecanoe": { "layer": "2AFCA15492781583915785059", "minzoom": 2, "maxzoom": 8 }, "properties": { "halo": 1.8, "title": "朱罗国", "fontsize": 12, "tyid": "304000", "oid": "103:1576922419460", "color": "#0056E7" }, "geometry": { "type": "Point", "coordinates": [ 79.541016, 10.833306 ] } }
{ "type": "Feature", "tippecanoe": { "layer": "2AFCA15492781583915785059", "minzoom": 2, "maxzoom": 8 }, "properties": { "halo": 1.8, "title": "罗涡国", "fontsize": 12, "tyid": "304000", "oid": "103:1576922419479", "color": "#0056E7" }, "geometry": { "type": "Point", "coordinates": [ 100.810547, 14.519780 ] } }
{ "type": "Feature", "tippecanoe": { "layer": "2AFCA15492781583915785059", "minzoom": 2, "maxzoom": 8 }, "properties": { "halo": 1.8, "title": "刚迦王国", "fontsize": 12, "tyid": "304000", "oid": "103:1535120170297", "color": "#0056E7" }, "geometry": { "type": "Point", "coordinates": [ 100.810547, 4.565474 ] } }
{ "type": "Feature", "tippecanoe": { "layer": "2AFCA15492781583915785059", "minzoom": 2, "maxzoom": 8 }, "properties": { "halo": 1.8, "title": "婆皇国", "fontsize": 12, "tyid": "304000", "oid": "103:1576922419480", "color": "#0056E7" }, "geometry": { "type": "Point", "coordinates": [ 103.095703, 3.425692 ] } }
{ "type": "Feature", "tippecanoe": { "layer": "2AFCA15492781583915785059", "minzoom": 2, "maxzoom": 8 }, "properties": { "halo": 1.8, "title": "巽他王国", "fontsize": 12, "tyid": "304000", "oid": "103:1535120170309", "color": "#0056E7" }, "geometry": { "type": "Point", "coordinates": [ 106.611328, -6.664608 ] } }
{ "type": "Feature", "tippecanoe": { "layer": "2AFCA1A0BA581583915785042", "minzoom": 2, "maxzoom": 8 }, "properties": { "halo": 0.8, "title": "福切马里尼文化", "fontsize": 12, "tyid": "304002", "oid": "103:1576922419490", "color": "#262626" }, "geometry": { "type": "Point", "coordinates": [ -94.570312, 33.943360 ] } }
{ "type": "Feature", "tippecanoe": { "layer": "2AFCA1A0BA581583915785042", "minzoom": 2, "maxzoom": 8 }, "properties": { "halo": 0.8, "title": "梅花河口文化", "fontsize": 12, "tyid": "304002", "oid": "103:1537435996371", "color": "#262626" }, "geometry": { "type": "Point", "coordinates": [ -91.669922, 34.669359 ] } }
{ "type": "Feature", "tippecanoe": { "layer": "2AFCA1A0BA581583915785042", "minzoom": 2, "maxzoom": 8 }, "properties": { "halo": 0.8, "title": "科尔斯溪文化", "fontsize": 12, "tyid": "304002", "oid": "103:1537435996356", "color": "#262626" }, "geometry": { "type": "Point", "coordinates": [ -91.318359, 31.353637 ] } }
{ "type": "Feature", "tippecanoe": { "layer": "2AFCA1A0BA581583915785042", "minzoom": 2, "maxzoom": 8 }, "properties": { "halo": 0.8, "title": "萨波特克文明", "fontsize": 12, "tyid": "304002", "oid": "103:1535120170456", "color": "#262626" }, "geometry": { "type": "Point", "coordinates": [ -95.888672, 16.888660 ] } }
{ "type": "Feature", "tippecanoe": { "layer": "2AFCA1A0BA581583915785042", "minzoom": 2, "maxzoom": 8 }, "properties": { "halo": 0.8, "title": "维登岛文化", "fontsize": 12, "tyid": "304002", "oid": "103:1537435996359", "color": "#262626" }, "geometry": { "type": "Point", "coordinates": [ -85.253906, 30.826781 ] } }
{ "type": "Feature", "tippecanoe": { "layer": "2AFCA1A0BA581583915785042", "minzoom": 2, "maxzoom": 8 }, "properties": { "halo": 0.8, "title": "皮克特诸王国", "fontsize": 12, "tyid": "304000", "oid": "103:1537435995971", "color": "#202020" }, "geometry": { "type": "Point", "coordinates": [ -4.042969, 56.704506 ] } }
{ "type": "Feature", "tippecanoe": { "layer": "2AFCA1A0BA581583915785042", "minzoom": 2, "maxzoom": 8 }, "properties": { "halo": 0.8, "title": "康诺特诸王国", "fontsize": 12, "tyid": "304002", "oid": "103:1537435995918", "color": "#262626" }, "geometry": { "type": "Point", "coordinates": [ -8.964844, 53.748711 ] } }
{ "type": "Feature", "tippecanoe": { "layer": "2AFCA1A0BA581583915785042", "minzoom": 2, "maxzoom": 8 }, "properties": { "halo": 0.8, "title": "明斯特王国", "fontsize": 12, "tyid": "304000", "oid": "103:1576922419425", "color": "#202020" }, "geometry": { "type": "Point", "coordinates": [ -8.789062, 52.321911 ] } }
{ "type": "Feature", "tippecanoe": { "layer": "2AFCA1A0BA581583915785042", "minzoom": 2, "maxzoom": 8 }, "properties": { "halo": 0.8, "title": "斯特拉瑟克雷德王国", "fontsize": 12, "tyid": "304000", "oid": "103:1537435995884", "color": "#202020" }, "geometry": { "type": "Point", "coordinates": [ -4.218750, 55.429013 ] } }
{ "type": "Feature", "tippecanoe": { "layer": "2AFCA1A0BA581583915785042", "minzoom": 2, "maxzoom": 8 }, "properties": { "halo": 0.8, "title": "诺森布里亚王国", "fontsize": 12, "tyid": "304000", "oid": "103:1535120169881", "color": "#202020" }, "geometry": { "type": "Point", "coordinates": [ -1.582031, 54.418930 ] } }
{ "type": "Feature", "tippecanoe": { "layer": "2AFCA1A0BA581583915785042", "minzoom": 2, "maxzoom": 8 }, "properties": { "halo": 0.8, "title": "麦西亚王国", "fontsize": 12, "tyid": "304000", "oid": "103:1535120169859", "color": "#202020" }, "geometry": { "type": "Point", "coordinates": [ -1.406250, 52.536273 ] } }
{ "type": "Feature", "tippecanoe": { "layer": "2AFCA1A0BA581583915785042", "minzoom": 2, "maxzoom": 8 }, "properties": { "halo": 0.8, "title": "威塞克斯王国", "fontsize": 12, "tyid": "304000", "oid": "103:1537435995890", "color": "#202020" }, "geometry": { "type": "Point", "coordinates": [ -2.724609, 51.013755 ] } }
{ "type": "Feature", "tippecanoe": { "layer": "2AFCA1A0BA581583915785042", "minzoom": 2, "maxzoom": 8 }, "properties": { "halo": 0.8, "title": "阿斯图里亚斯王国", "fontsize": 12, "tyid": "304000", "oid": "103:1535120169959", "color": "#202020" }, "geometry": { "type": "Point", "coordinates": [ -5.976562, 42.488302 ] } }
{ "type": "Feature", "tippecanoe": { "layer": "2AFCA1A0BA581583915785042", "minzoom": 2, "maxzoom": 8 }, "properties": { "halo": 0.8, "title": "凯尔特布立吞人", "fontsize": 12, "tyid": "304000", "oid": "103:1537435995962", "color": "#202020" }, "geometry": { "type": "Point", "coordinates": [ -3.164062, 48.224673 ] } }
{ "type": "Feature", "tippecanoe": { "layer": "2AFCA1A0BA581583915785042", "minzoom": 2, "maxzoom": 8 }, "properties": { "halo": 0.8, "title": "巴哈瓦塔联盟", "fontsize": 12, "tyid": "304002", "oid": "103:1535120169940", "color": "#262626" }, "geometry": { "type": "Point", "coordinates": [ -7.998047, 32.546813 ] } }
{ "type": "Feature", "tippecanoe": { "layer": "2AFCA1A0BA581583915785042", "minzoom": 2, "maxzoom": 8 }, "properties": { "halo": 0.8, "title": "特莱姆森伊芙兰埃米尔国", "fontsize": 12, "tyid": "304000", "oid": "103:1576922419433", "color": "#202020" }, "geometry": { "type": "Point", "coordinates": [ -0.966797, 34.597042 ] } }
{ "type": "Feature", "tippecanoe": { "layer": "2AFCA1A0BA581583915785042", "minzoom": 2, "maxzoom": 8 }, "properties": { "halo": 0.8, "title": "西吉尔马萨埃米尔国", "fontsize": 12, "tyid": "304000", "oid": "103:1576922419435", "color": "#202020" }, "geometry": { "type": "Point", "coordinates": [ -4.394531, 30.977609 ] } }
{ "type": "Feature", "tippecanoe": { "layer": "2AFCA1A0BA581583915785042", "minzoom": 2, "maxzoom": 8 }, "properties": { "halo": 0.8, "title": "加纳帝国", "fontsize": 12, "tyid": "304000", "oid": "103:1535120170372", "color": "#202020" }, "geometry": { "type": "Point", "coordinates": [ -8.789062, 15.368950 ] } }
{ "type": "Feature", "tippecanoe": { "layer": "2AFCA1A0BA581583915785042", "minzoom": 2, "maxzoom": 8 }, "properties": { "halo": 0.8, "title": "丹麦人", "fontsize": 12, "tyid": "304001", "oid": "103:1535120169982", "color": "#262626" }, "geometry": { "type": "Point", "coordinates": [ 9.052734, 56.218923 ] } }
{ "type": "Feature", "tippecanoe": { "layer": "2AFCA1A0BA581583915785042", "minzoom": 2, "maxzoom": 8 }, "properties": { "halo": 0.8, "title": "古拉脱维亚人", "fontsize": 12, "tyid": "304001", "oid": "103:1537435996012", "color": "#262626" }, "geometry": { "type": "Point", "coordinates": [ 22.412109, 57.088515 ] } }
{ "type": "Feature", "tippecanoe": { "layer": "2AFCA1A0BA581583915785042", "minzoom": 2, "maxzoom": 8 }, "properties": { "halo": 0.8, "title": "波西米亚人", "fontsize": 12, "tyid": "304001", "oid": "103:1535120170043", "color": "#262626" }, "geometry": { "type": "Point", "coordinates": [ 14.326172, 49.837982 ] } }
{ "type": "Feature", "tippecanoe": { "layer": "2AFCA1A0BA581583915785042", "minzoom": 2, "maxzoom": 8 }, "properties": { "halo": 0.8, "title": "古普鲁士人", "fontsize": 12, "tyid": "304001", "oid": "103:1535120170105", "color": "#262626" }, "geometry": { "type": "Point", "coordinates": [ 20.742188, 54.265224 ] } }
{ "type": "Feature", "tippecanoe": { "layer": "2AFCA1A0BA581583915785042", "minzoom": 2, "maxzoom": 8 }, "properties": { "halo": 0.8, "title": "巴伐利亚公国", "fontsize": 12, "tyid": "304000", "oid": "103:1535120170332", "color": "#202020" }, "geometry": { "type": "Point", "coordinates": [ 12.568359, 48.107431 ] } }
{ "type": "Feature", "tippecanoe": { "layer": "2AFCA1A0BA581583915785042", "minzoom": 2, "maxzoom": 8 }, "properties": { "halo": 0.8, "title": "卡兰塔尼亚亲王国", "fontsize": 12, "tyid": "304000", "oid": "103:1537435996042", "color": "#202020" }, "geometry": { "type": "Point", "coordinates": [ 14.765625, 47.100045 ] } }
{ "type": "Feature", "tippecanoe": { "layer": "2AFCA1A0BA581583915785042", "minzoom": 2, "maxzoom": 8 }, "properties": { "halo": 0.8, "title": "教皇国", "fontsize": 12, "tyid": "304000", "oid": "103:1535120170062", "color": "#202020" }, "geometry": { "type": "Point", "coordinates": [ 11.865234, 44.276671 ] } }
{ "type": "Feature", "tippecanoe": { "layer": "2AFCA1A0BA581583915785042", "minzoom": 2, "maxzoom": 8 }, "properties": { "halo": 0.8, "title": "克罗地亚公国", "fontsize": 12, "tyid": "304000", "oid": "103:1535120170088", "color": "#202020" }, "geometry": { "type": "Point", "coordinates": [ 16.435547, 44.840291 ] } }
{ "type": "Feature", "tippecanoe": { "layer": "2AFCA1A0BA581583915785042", "minzoom": 2, "maxzoom": 8 }, "properties": { "halo": 0.8, "title": "贝内文托亲王国", "fontsize": 12, "tyid": "304000", "oid": "103:1537435996023", "color": "#202020" }, "geometry": { "type": "Point", "coordinates": [ 15.380859, 41.112469 ] } }
{ "type": "Feature", "tippecanoe": { "layer": "2AFCA1A0BA581583915785042", "minzoom": 2, "maxzoom": 8 }, "properties": { "halo": 0.8, "title": "卡累利阿人", "fontsize": 12, "tyid": "304001", "oid": "103:1535120170025", "color": "#262626" }, "geometry": { "type": "Point", "coordinates": [ 31.552734, 61.689872 ] } }
{ "type": "Feature", "tippecanoe": { "layer": "2AFCA1A0BA581583915785042", "minzoom": 2, "maxzoom": 8 }, "properties": { "halo": 0.8, "title": "哈马莱舍特人", "fontsize": 12, "tyid": "304001", "oid": "103:1535120170007", "color": "#262626" }, "geometry": { "type": "Point", "coordinates": [ 24.785156, 61.354614 ] } }
{ "type": "Feature", "tippecanoe": { "layer": "2AFCA1A0BA581583915785042", "minzoom": 2, "maxzoom": 8 }, "properties": { "halo": 0.8, "title": "古爱沙尼亚人", "fontsize": 12, "tyid": "304001", "oid": "103:1535120169992", "color": "#262626" }, "geometry": { "type": "Point", "coordinates": [ 25.664062, 58.859224 ] } }
{ "type": "Feature", "tippecanoe": { "layer": "2AFCA1A0BA581583915785042", "minzoom": 2, "maxzoom": 8 }, "properties": { "halo": 0.8, "title": "利沃尼亚人", "fontsize": 12, "tyid": "304001", "oid": "103:1535120170033", "color": "#262626" }, "geometry": { "type": "Point", "coordinates": [ 25.488281, 57.562995 ] } }
{ "type": "Feature", "tippecanoe": { "layer": "2AFCA1A0BA581583915785042", "minzoom": 2, "maxzoom": 8 }, "properties": { "halo": 0.8, "title": "维普森人", "fontsize": 12, "tyid": "304001", "oid": "103:1535120170143", "color": "#262626" }, "geometry": { "type": "Point", "coordinates": [ 36.738281, 59.400365 ] } }
{ "type": "Feature", "tippecanoe": { "layer": "2AFCA1A0BA581583915785042", "minzoom": 2, "maxzoom": 8 }, "properties": { "halo": 0.8, "title": "米利亚人", "fontsize": 12, "tyid": "304001", "oid": "103:1535120170148", "color": "#262626" }, "geometry": { "type": "Point", "coordinates": [ 39.375000, 57.279043 ] } }
{ "type": "Feature", "tippecanoe": { "layer": "2AFCA1A0BA581583915785042", "minzoom": 2, "maxzoom": 8 }, "properties": { "halo": 0.8, "title": "米舒拉人", "fontsize": 12, "tyid": "304001", "oid": "103:1535120170153", "color": "#262626" }, "geometry": { "type": "Point", "coordinates": [ 40.693359, 55.875311 ] } }
{ "type": "Feature", "tippecanoe": { "layer": "2AFCA1A0BA581583915785042", "minzoom": 2, "maxzoom": 8 }, "properties": { "halo": 0.8, "title": "马里人", "fontsize": 12, "tyid": "304001", "oid": "103:1535120170156", "color": "#262626" }, "geometry": { "type": "Point", "coordinates": [ 43.681641, 58.447733 ] } }
{ "type": "Feature", "tippecanoe": { "layer": "2AFCA1A0BA581583915785042", "minzoom": 2, "maxzoom": 8 }, "properties": { "halo": 0.8, "title": "萨莫吉希亚人", "fontsize": 12, "tyid": "304001", "oid": "103:1576922419442", "color": "#262626" }, "geometry": { "type": "Point", "coordinates": [ 23.466797, 55.677584 ] } }
{ "type": "Feature", "tippecanoe": { "layer": "2AFCA1A0BA581583915785042", "minzoom": 2, "maxzoom": 8 }, "properties": { "halo": 0.8, "title": "古立陶宛人", "fontsize": 12, "tyid": "304001", "oid": "103:1535120170110", "color": "#262626" }, "geometry": { "type": "Point", "coordinates": [ 24.257812, 54.470038 ] } }
{ "type": "Feature", "tippecanoe": { "layer": "2AFCA1A0BA581583915785042", "minzoom": 2, "maxzoom": 8 }, "properties": { "halo": 0.8, "title": "约特文基人", "fontsize": 12, "tyid": "304001", "oid": "103:1576922419443", "color": "#262626" }, "geometry": { "type": "Point", "coordinates": [ 22.587891, 53.383328 ] } }
{ "type": "Feature", "tippecanoe": { "layer": "2AFCA1A0BA581583915785042", "minzoom": 2, "maxzoom": 8 }, "properties": { "halo": 0.8, "title": "莫尔多维亚人", "fontsize": 12, "tyid": "304001", "oid": "103:1535120170159", "color": "#262626" }, "geometry": { "type": "Point", "coordinates": [ 41.396484, 54.418930 ] } }
{ "type": "Feature", "tippecanoe": { "layer": "2AFCA1A0BA581583915785042", "minzoom": 2, "maxzoom": 8 }, "properties": { "halo": 0.8, "title": "阿布哈兹王国", "fontsize": 12, "tyid": "304000", "oid": "103:1535120170323", "color": "#202020" }, "geometry": { "type": "Point", "coordinates": [ 42.011719, 42.617791 ] } }
{ "type": "Feature", "tippecanoe": { "layer": "2AFCA1A0BA581583915785042", "minzoom": 2, "maxzoom": 8 }, "properties": { "halo": 0.8, "title": "伊比利亚亲王国", "fontsize": 12, "tyid": "304000", "oid": "103:1535120170330", "color": "#202020" }, "geometry": { "type": "Point", "coordinates": [ 44.560547, 42.228517 ] } }
{ "type": "Feature", "tippecanoe": { "layer": "2AFCA1A0BA581583915785042", "minzoom": 2, "maxzoom": 8 }, "properties": { "halo": 0.8, "title": "鲁斯塔米王朝", "fontsize": 12, "tyid": "304000", "oid": "103:1535120169943", "color": "#202020" }, "geometry": { "type": "Point", "coordinates": [ 3.164062, 35.317366 ] } }
{ "type": "Feature", "tippecanoe": { "layer": "2AFCA1A0BA581583915785042", "minzoom": 2, "maxzoom": 8 }, "properties": { "halo": 0.8, "title": "豪萨人", "fontsize": 12, "tyid": "304001", "oid": "103:1535120170399", "color": "#262626" }, "geometry": { "type": "Point", "coordinates": [ 7.822266, 13.752725 ] } }
{ "type": "Feature", "tippecanoe": { "layer": "2AFCA1A0BA581583915785042", "minzoom": 2, "maxzoom": 8 }, "properties": { "halo": 0.8, "title": "约鲁巴人", "fontsize": 12, "tyid": "304001", "oid": "103:1535120170407", "color": "#262626" }, "geometry": { "type": "Point", "coordinates": [ 5.009766, 6.839170 ] } }
{ "type": "Feature", "tippecanoe": { "layer": "2AFCA1A0BA581583915785042", "minzoom": 2, "maxzoom": 8 }, "properties": { "halo": 0.8, "title": "阿罗底亚王国", "fontsize": 12, "tyid": "304000", "oid": "103:1576922419486", "color": "#202020" }, "geometry": { "type": "Point", "coordinates": [ 33.662109, 14.859850 ] } }
{ "type": "Feature", "tippecanoe": { "layer": "2AFCA1A0BA581583915785042", "minzoom": 2, "maxzoom": 8 }, "properties": { "halo": 0.8, "title": "富尔人", "fontsize": 12, "tyid": "304001", "oid": "103:1535120170390", "color": "#262626" }, "geometry": { "type": "Point", "coordinates": [ 33.222656, 11.609193 ] } }
{ "type": "Feature", "tippecanoe": { "layer": "2AFCA1A0BA581583915785042", "minzoom": 2, "maxzoom": 8 }, "properties": { "halo": 0.8, "title": "贝扎人", "fontsize": 12, "tyid": "304001", "oid": "103:1535120170386", "color": "#262626" }, "geometry": { "type": "Point", "coordinates": [ 35.244141, 20.961440 ] } }
{ "type": "Feature", "tippecanoe": { "layer": "2AFCA1A0BA581583915785042", "minzoom": 2, "maxzoom": 8 }, "properties": { "halo": 0.8, "title": "伏尔加保加利亚汗国", "fontsize": 12, "tyid": "304000", "oid": "103:1537435996083", "color": "#202020" }, "geometry": { "type": "Point", "coordinates": [ 47.373047, 54.316523 ] } }
{ "type": "Feature", "tippecanoe": { "layer": "2AFCA1A0BA581583915785042", "minzoom": 2, "maxzoom": 8 }, "properties": { "halo": 0.8, "title": "拔悉密部落", "fontsize": 12, "tyid": "304001", "oid": "103:1537435996106", "color": "#262626" }, "geometry": { "type": "Point", "coordinates": [ 85.166016, 47.754098 ] } }
{ "type": "Feature", "tippecanoe": { "layer": "2AFCA1A0BA581583915785042", "minzoom": 2, "maxzoom": 8 }, "properties": { "halo": 0.8, "title": "布哈拉胡达斯", "fontsize": 12, "tyid": "304000", "oid": "103:1535120170342", "color": "#202020" }, "geometry": { "type": "Point", "coordinates": [ 64.511719, 39.842286 ] } }
{ "type": "Feature", "tippecanoe": { "layer": "2AFCA1A0BA581583915785042", "minzoom": 2, "maxzoom": 8 }, "properties": { "halo": 0.8, "title": "尊比王朝", "fontsize": 12, "tyid": "304000", "oid": "103:1535120170190", "color": "#202020" }, "geometry": { "type": "Point", "coordinates": [ 65.654297, 31.503629 ] } }
{ "type": "Feature", "tippecanoe": { "layer": "2AFCA1A0BA581583915785042", "minzoom": 2, "maxzoom": 8 }, "properties": { "halo": 0.8, "title": "费尔干纳亲王国", "fontsize": 12, "tyid": "304000", "oid": "103:1535120170348", "color": "#202020" }, "geometry": { "type": "Point", "coordinates": [ 71.718750, 40.647304 ] } }
{ "type": "Feature", "tippecanoe": { "layer": "2AFCA1A0BA581583915785042", "minzoom": 2, "maxzoom": 8 }, "properties": { "halo": 0.8, "title": "遮伏多王朝", "fontsize": 12, "tyid": "304000", "oid": "103:1535120170351", "color": "#202020" }, "geometry": { "type": "Point", "coordinates": [ 71.806641, 22.998852 ] } }
{ "type": "Feature", "tippecanoe": { "layer": "2AFCA1A0BA581583915785042", "minzoom": 2, "maxzoom": 8 }, "properties": { "halo": 0.8, "title": "萨姆巴尔的乔汉王朝", "fontsize": 12, "tyid": "304000", "oid": "103:1576922419452", "color": "#202020" }, "geometry": { "type": "Point", "coordinates": [ 74.443359, 27.916767 ] } }
{ "type": "Feature", "tippecanoe": { "layer": "2AFCA1A0BA581583915785042", "minzoom": 2, "maxzoom": 8 }, "properties": { "halo": 0.8, "title": "吐末罗王朝", "fontsize": 12, "tyid": "304000", "oid": "103:1576922419451", "color": "#202020" }, "geometry": { "type": "Point", "coordinates": [ 76.201172, 29.305561 ] } }
{ "type": "Feature", "tippecanoe": { "layer": "2AFCA1A0BA581583915785042", "minzoom": 2, "maxzoom": 8 }, "properties": { "halo": 0.8, "title": "戛丘里王朝", "fontsize": 12, "tyid": "304000", "oid": "103:1535120170202", "color": "#202020" }, "geometry": { "type": "Point", "coordinates": [ 79.013672, 30.145127 ] } }
{ "type": "Feature", "tippecanoe": { "layer": "2AFCA1A0BA581583915785042", "minzoom": 2, "maxzoom": 8 }, "properties": { "halo": 0.8, "title": "特里普里的卡拉丘里王朝", "fontsize": 12, "tyid": "304000", "oid": "103:1535120170425", "color": "#202020" }, "geometry": { "type": "Point", "coordinates": [ 81.035156, 22.998852 ] } }
{ "type": "Feature", "tippecanoe": { "layer": "2AFCA1A0BA581583915785042", "minzoom": 2, "maxzoom": 8 }, "properties": { "halo": 0.8, "title": "杰达拉塔王朝", "fontsize": 12, "tyid": "304000", "oid": "103:1535120170212", "color": "#202020" }, "geometry": { "type": "Point", "coordinates": [ 70.488281, 21.943046 ] } }
{ "type": "Feature", "tippecanoe": { "layer": "2AFCA1A0BA581583915785042", "minzoom": 2, "maxzoom": 8 }, "properties": { "halo": 0.8, "title": "西恒伽王朝", "fontsize": 12, "tyid": "304000", "oid": "103:1535120170224", "color": "#202020" }, "geometry": { "type": "Point", "coordinates": [ 76.904297, 12.811801 ] } }
{ "type": "Feature", "tippecanoe": { "layer": "2AFCA1A0BA581583915785042", "minzoom": 2, "maxzoom": 8 }, "properties": { "halo": 0.8, "title": "哲罗国", "fontsize": 12, "tyid": "304000", "oid": "103:1576922419461", "color": "#202020" }, "geometry": { "type": "Point", "coordinates": [ 76.289062, 10.487812 ] } }
{ "type": "Feature", "tippecanoe": { "layer": "2AFCA1A0BA581583915785042", "minzoom": 2, "maxzoom": 8 }, "properties": { "halo": 0.8, "title": "潘地亚王国", "fontsize": 12, "tyid": "304000", "oid": "103:1576922419459", "color": "#202020" }, "geometry": { "type": "Point", "coordinates": [ 77.783203, 10.055403 ] } }
{ "type": "Feature", "tippecanoe": { "layer": "2AFCA1A0BA581583915785042", "minzoom": 2, "maxzoom": 8 }, "properties": { "halo": 0.8, "title": "拘萨罗潘都瓦湿王朝", "fontsize": 12, "tyid": "304000", "oid": "103:1537435996343", "color": "#202020" }, "geometry": { "type": "Point", "coordinates": [ 81.826172, 20.879343 ] } }
{ "type": "Feature", "tippecanoe": { "layer": "2AFCA1A0BA581583915785042", "minzoom": 2, "maxzoom": 8 }, "properties": { "halo": 0.8, "title": "东遮娄其王朝", "fontsize": 12, "tyid": "304000", "oid": "103:1535120170210", "color": "#202020" }, "geometry": { "type": "Point", "coordinates": [ 81.738281, 17.224758 ] } }
{ "type": "Feature", "tippecanoe": { "layer": "2AFCA1A0BA581583915785042", "minzoom": 2, "maxzoom": 8 }, "properties": { "halo": 0.8, "title": "帕拉瓦王朝", "fontsize": 12, "tyid": "304000", "oid": "103:1535120170220", "color": "#202020" }, "geometry": { "type": "Point", "coordinates": [ 78.925781, 13.496473 ] } }
{ "type": "Feature", "tippecanoe": { "layer": "2AFCA1A0BA581583915785042", "minzoom": 2, "maxzoom": 8 }, "properties": { "halo": 0.8, "title": "波缪格逻王朝", "fontsize": 12, "tyid": "304000", "oid": "103:1535120170208", "color": "#202020" }, "geometry": { "type": "Point", "coordinates": [ 84.814453, 20.715015 ] } }
{ "type": "Feature", "tippecanoe": { "layer": "2AFCA1A0BA581583915785042", "minzoom": 2, "maxzoom": 8 }, "properties": { "halo": 0.8, "title": "阿努拉德普勒王国", "fontsize": 12, "tyid": "304000", "oid": "103:1576922419440", "color": "#202020" }, "geometry": { "type": "Point", "coordinates": [ 80.683594, 7.623887 ] } }
{ "type": "Feature", "tippecanoe": { "layer": "2AFCA1A0BA581583915785042", "minzoom": 2, "maxzoom": 8 }, "properties": { "halo": 0.8, "title": "迦摩缕波王国", "fontsize": 12, "tyid": "304000", "oid": "103:1537435996205", "color": "#202020" }, "geometry": { "type": "Point", "coordinates": [ 93.251953, 26.273714 ] } }
{ "type": "Feature", "tippecanoe": { "layer": "2AFCA1A0BA581583915785042", "minzoom": 2, "maxzoom": 8 }, "properties": { "halo": 0.8, "title": "直通王国", "fontsize": 12, "tyid": "304000", "oid": "103:1535120170265", "color": "#202020" }, "geometry": { "type": "Point", "coordinates": [ 95.537109, 17.308688 ] } }
{ "type": "Feature", "tippecanoe": { "layer": "2AFCA1A0BA581583915785042", "minzoom": 2, "maxzoom": 8 }, "properties": { "halo": 0.8, "title": "骠国", "fontsize": 12, "tyid": "304002", "oid": "103:1535120170267", "color": "#262626" }, "geometry": { "type": "Point", "coordinates": [ 95.712891, 20.961440 ] } }
{ "type": "Feature", "tippecanoe": { "layer": "2AFCA1A0BA581583915785042", "minzoom": 2, "maxzoom": 8 }, "properties": { "halo": 0.8, "title": "掸族", "fontsize": 12, "tyid": "304001", "oid": "103:1535120170286", "color": "#262626" }, "geometry": { "type": "Point", "coordinates": [ 98.613281, 20.632784 ] } }
{ "type": "Feature", "tippecanoe": { "layer": "2AFCA1A0BA581583915785042", "minzoom": 2, "maxzoom": 8 }, "properties": { "halo": 0.8, "title": "骇黎朋猜国", "fontsize": 12, "tyid": "304000", "oid": "103:1576922419475", "color": "#202020" }, "geometry": { "type": "Point", "coordinates": [ 99.580078, 17.978733 ] } }
{ "type": "Feature", "tippecanoe": { "layer": "2AFCA1A0BA581583915785042", "minzoom": 2, "maxzoom": 8 }, "properties": { "halo": 0.8, "title": "陀罗钵地王国", "fontsize": 12, "tyid": "304000", "oid": "103:1535120170294", "color": "#202020" }, "geometry": { "type": "Point", "coordinates": [ 99.228516, 14.519780 ] } }
{ "type": "Feature", "tippecanoe": { "layer": "2AFCA1A0BA581583915785042", "minzoom": 2, "maxzoom": 8 }, "properties": { "halo": 0.8, "title": "狼牙脩国", "fontsize": 12, "tyid": "304000", "oid": "103:1576922419467", "color": "#202020" }, "geometry": { "type": "Point", "coordinates": [ 99.316406, 8.320212 ] } }
{ "type": "Feature", "tippecanoe": { "layer": "2AFCA1A0BA581583915785042", "minzoom": 2, "maxzoom": 8 }, "properties": { "halo": 0.8, "title": "孟族", "fontsize": 12, "tyid": "304002", "oid": "103:1537435996215", "color": "#262626" }, "geometry": { "type": "Point", "coordinates": [ 102.744141, 19.973349 ] } }
{ "type": "Feature", "tippecanoe": { "layer": "2AFCA1A0BA581583915785042", "minzoom": 2, "maxzoom": 8 }, "properties": { "halo": 0.8, "title": "占婆国", "fontsize": 12, "tyid": "304000", "oid": "103:1537435996202", "color": "#202020" }, "geometry": { "type": "Point", "coordinates": [ 107.490234, 16.214675 ] } }
{ "type": "Feature", "tippecanoe": { "layer": "2AFCA1A0BA581583915785042", "minzoom": 2, "maxzoom": 8 }, "properties": { "halo": 0.8, "title": "新罗", "fontsize": 12, "tyid": "304000", "oid": "103:1535120170233", "color": "#202020" }, "geometry": { "type": "Point", "coordinates": [ 128.320312, 36.809285 ] } }
{ "type": "Feature", "tippecanoe": { "layer": "2AFCA1A0BA581583915785042", "minzoom": 2, "maxzoom": 8 }, "properties": { "halo": 0.8, "title": "尼夫赫人", "fontsize": 12, "tyid": "304001", "oid": "103:1535120170254", "color": "#262626" }, "geometry": { "type": "Point", "coordinates": [ 142.470703, 52.536273 ] } }
{ "type": "Feature", "tippecanoe": { "layer": "2AFCA1A0BA581583915785042", "minzoom": 2, "maxzoom": 8 }, "properties": { "halo": 0.8, "title": "阿伊努人", "fontsize": 12, "tyid": "304001", "oid": "103:1535120170236", "color": "#262626" }, "geometry": { "type": "Point", "coordinates": [ 142.558594, 43.389082 ] } }
{ "type": "Feature", "tippecanoe": { "layer": "2AFCA1A0BA581583915785042", "minzoom": 2, "maxzoom": 8 }, "properties": { "halo": 0.8, "title": "虾夷", "fontsize": 12, "tyid": "304001", "oid": "103:1535120170252", "color": "#262626" }, "geometry": { "type": "Point", "coordinates": [ 140.625000, 38.822591 ] } }
{ "type": "Feature", "tippecanoe": { "layer": "2AFCA1A0BA581583915785042", "minzoom": 2, "maxzoom": 8 }, "properties": { "halo": 0.8, "title": "加鲁王国", "fontsize": 12, "tyid": "304000", "oid": "103:1535120170314", "color": "#202020" }, "geometry": { "type": "Point", "coordinates": [ 108.193359, -7.013668 ] } }
{ "type": "Feature", "tippecanoe": { "layer": "2AFCA1A0BA581583915785042", "minzoom": 2, "maxzoom": 8 }, "properties": { "halo": 0.8, "title": "马打兰王国", "fontsize": 12, "tyid": "304000", "oid": "103:1535120170312", "color": "#202020" }, "geometry": { "type": "Point", "coordinates": [ 111.269531, -7.449624 ] } }
{ "type": "Feature", "tippecanoe": { "layer": "2AFCA1A0BA581583915785042", "minzoom": 2, "maxzoom": 8 }, "properties": { "halo": 0.8, "title": "夏连特拉王朝", "fontsize": 12, "tyid": "304000", "oid": "103:1537435996229", "color": "#202020" }, "geometry": { "type": "Point", "coordinates": [ 114.257812, -2.986927 ] } }
{ "type": "Feature", "tippecanoe": { "layer": "2AFCA1A0BEB81583915785044", "minzoom": 2, "maxzoom": 8 }, "properties": { "halo": 0.8, "title": "阿拉楚阿文化", "fontsize": 12, "tyid": "304002", "oid": "103:1576922419492", "color": "#262626" }, "geometry": { "type": "Point", "coordinates": [ -82.441406, 29.611670 ] } }
{ "type": "Feature", "tippecanoe": { "layer": "2AFCA1A0BEB81583915785044", "minzoom": 2, "maxzoom": 8 }, "properties": { "halo": 0.8, "title": "维京人", "fontsize": 12, "tyid": "304001", "oid": "103:1535120169894", "color": "#262626" }, "geometry": { "type": "Point", "coordinates": [ -1.406250, 60.326948 ] } }
{ "type": "Feature", "tippecanoe": { "layer": "2AFCA1A0BEB81583915785044", "minzoom": 2, "maxzoom": 8 }, "properties": { "halo": 0.8, "title": "达尔里阿达王国", "fontsize": 12, "tyid": "304000", "oid": "103:1535120169886", "color": "#202020" }, "geometry": { "type": "Point", "coordinates": [ -5.361328, 56.316537 ] } }
{ "type": "Feature", "tippecanoe": { "layer": "2AFCA1A0BEB81583915785044", "minzoom": 2, "maxzoom": 8 }, "properties": { "halo": 0.8, "title": "埃里克王国", "fontsize": 12, "tyid": "304000", "oid": "103:1535120169883", "color": "#202020" }, "geometry": { "type": "Point", "coordinates": [ -7.646484, 54.622978 ] } }
{ "type": "Feature", "tippecanoe": { "layer": "2AFCA1A0BEB81583915785044", "minzoom": 2, "maxzoom": 8 }, "properties": { "halo": 0.8, "title": "乌勒王国", "fontsize": 12, "tyid": "304000", "oid": "103:1535120169918", "color": "#202020" }, "geometry": { "type": "Point", "coordinates": [ -6.152344, 54.622978 ] } }
{ "type": "Feature", "tippecanoe": { "layer": "2AFCA1A0BEB81583915785044", "minzoom": 2, "maxzoom": 8 }, "properties": { "halo": 0.8, "title": "布雷芬内王国", "fontsize": 12, "tyid": "304000", "oid": "103:1535120169913", "color": "#202020" }, "geometry": { "type": "Point", "coordinates": [ -7.646484, 54.110943 ] } }
{ "type": "Feature", "tippecanoe": { "layer": "2AFCA1A0BEB81583915785044", "minzoom": 2, "maxzoom": 8 }, "properties": { "halo": 0.8, "title": "米瑟王国", "fontsize": 12, "tyid": "304000", "oid": "103:1537435995921", "color": "#202020" }, "geometry": { "type": "Point", "coordinates": [ -7.558594, 53.540307 ] } }
{ "type": "Feature", "tippecanoe": { "layer": "2AFCA1A0BEB81583915785044", "minzoom": 2, "maxzoom": 8 }, "properties": { "halo": 0.8, "title": "奥斯拉尔王国", "fontsize": 12, "tyid": "304000", "oid": "103:1535120169903", "color": "#202020" }, "geometry": { "type": "Point", "coordinates": [ -7.382812, 52.696361 ] } }
{ "type": "Feature", "tippecanoe": { "layer": "2AFCA1A0BEB81583915785044", "minzoom": 2, "maxzoom": 8 }, "properties": { "halo": 0.8, "title": "奥利尔王国", "fontsize": 12, "tyid": "304000", "oid": "103:1535120169916", "color": "#202020" }, "geometry": { "type": "Point", "coordinates": [ -6.855469, 54.162434 ] } }
{ "type": "Feature", "tippecanoe": { "layer": "2AFCA1A0BEB81583915785044", "minzoom": 2, "maxzoom": 8 }, "properties": { "halo": 0.8, "title": "伦斯特王国", "fontsize": 12, "tyid": "304000", "oid": "103:1535120169905", "color": "#202020" }, "geometry": { "type": "Point", "coordinates": [ -6.767578, 52.908902 ] } }
{ "type": "Feature", "tippecanoe": { "layer": "2AFCA1A0BEB81583915785044", "minzoom": 2, "maxzoom": 8 }, "properties": { "halo": 0.8, "title": "格温内斯王国", "fontsize": 12, "tyid": "304000", "oid": "103:1535120169878", "color": "#202020" }, "geometry": { "type": "Point", "coordinates": [ -3.867188, 53.014783 ] } }
{ "type": "Feature", "tippecanoe": { "layer": "2AFCA1A0BEB81583915785044", "minzoom": 2, "maxzoom": 8 }, "properties": { "halo": 0.8, "title": "波威斯王国", "fontsize": 12, "tyid": "304000", "oid": "103:1576922419428", "color": "#202020" }, "geometry": { "type": "Point", "coordinates": [ -3.339844, 52.589701 ] } }
{ "type": "Feature", "tippecanoe": { "layer": "2AFCA1A0BEB81583915785044", "minzoom": 2, "maxzoom": 8 }, "properties": { "halo": 0.8, "title": "达费德王国", "fontsize": 12, "tyid": "304000", "oid": "103:1576922419430", "color": "#202020" }, "geometry": { "type": "Point", "coordinates": [ -4.833984, 51.890054 ] } }
{ "type": "Feature", "tippecanoe": { "layer": "2AFCA1A0BEB81583915785044", "minzoom": 2, "maxzoom": 8 }, "properties": { "halo": 0.8, "title": "格温特王国", "fontsize": 12, "tyid": "304000", "oid": "103:1576922419427", "color": "#202020" }, "geometry": { "type": "Point", "coordinates": [ -3.691406, 51.890054 ] } }
{ "type": "Feature", "tippecanoe": { "layer": "2AFCA1A0BEB81583915785044", "minzoom": 2, "maxzoom": 8 }, "properties": { "halo": 0.8, "title": "萨塞克斯王国", "fontsize": 12, "tyid": "304000", "oid": "103:1535120169923", "color": "#202020" }, "geometry": { "type": "Point", "coordinates": [ -0.175781, 51.013755 ] } }
{ "type": "Feature", "tippecanoe": { "layer": "2AFCA1A0BEB81583915785044", "minzoom": 2, "maxzoom": 8 }, "properties": { "halo": 0.8, "title": "奈克尔埃米尔国", "fontsize": 12, "tyid": "304000", "oid": "103:1576922419431", "color": "#202020" }, "geometry": { "type": "Point", "coordinates": [ -3.515625, 35.029996 ] } }
{ "type": "Feature", "tippecanoe": { "layer": "2AFCA1A0BEB81583915785044", "minzoom": 2, "maxzoom": 8 }, "properties": { "halo": 0.8, "title": "哥得兰人", "fontsize": 12, "tyid": "304001", "oid": "103:1537435995985", "color": "#262626" }, "geometry": { "type": "Point", "coordinates": [ 18.457031, 57.515823 ] } }
{ "type": "Feature", "tippecanoe": { "layer": "2AFCA1A0BEB81583915785044", "minzoom": 2, "maxzoom": 8 }, "properties": { "halo": 0.8, "title": "埃塞克斯王国", "fontsize": 12, "tyid": "304000", "oid": "103:1535120169926", "color": "#202020" }, "geometry": { "type": "Point", "coordinates": [ 0.527344, 51.835778 ] } }
{ "type": "Feature", "tippecanoe": { "layer": "2AFCA1A0BEB81583915785044", "minzoom": 2, "maxzoom": 8 }, "properties": { "halo": 0.8, "title": "东盎格利亚王国", "fontsize": 12, "tyid": "304000", "oid": "103:1535120169928", "color": "#202020" }, "geometry": { "type": "Point", "coordinates": [ 0.966797, 52.482780 ] } }
{ "type": "Feature", "tippecanoe": { "layer": "2AFCA1A0BEB81583915785044", "minzoom": 2, "maxzoom": 8 }, "properties": { "halo": 0.8, "title": "肯特王国", "fontsize": 12, "tyid": "304000", "oid": "103:1535120169875", "color": "#202020" }, "geometry": { "type": "Point", "coordinates": [ 0.703125, 51.234407 ] } }
{ "type": "Feature", "tippecanoe": { "layer": "2AFCA1A0BEB81583915785044", "minzoom": 2, "maxzoom": 8 }, "properties": { "halo": 0.8, "title": "弗里斯兰人", "fontsize": 12, "tyid": "304001", "oid": "103:1535120169980", "color": "#262626" }, "geometry": { "type": "Point", "coordinates": [ 9.052734, 54.418930 ] } }
{ "type": "Feature", "tippecanoe": { "layer": "2AFCA1A0BEB81583915785044", "minzoom": 2, "maxzoom": 8 }, "properties": { "halo": 0.8, "title": "萨克森人", "fontsize": 12, "tyid": "304002", "oid": "103:1537435995999", "color": "#262626" }, "geometry": { "type": "Point", "coordinates": [ 9.843750, 54.007769 ] } }
{ "type": "Feature", "tippecanoe": { "layer": "2AFCA1A0BEB81583915785044", "minzoom": 2, "maxzoom": 8 }, "properties": { "halo": 0.8, "title": "威尼斯共和国", "fontsize": 12, "tyid": "304000", "oid": "103:1535120170429", "color": "#202020" }, "geometry": { "type": "Point", "coordinates": [ 12.304688, 45.583290 ] } }
{ "type": "Feature", "tippecanoe": { "layer": "2AFCA1A0BEB81583915785044", "minzoom": 2, "maxzoom": 8 }, "properties": { "halo": 0.8, "title": "纳伦廷人", "fontsize": 12, "tyid": "304001", "oid": "103:1576922419437", "color": "#262626" }, "geometry": { "type": "Point", "coordinates": [ 17.226562, 43.261206 ] } }
{ "type": "Feature", "tippecanoe": { "layer": "2AFCA1A0BEB81583915785044", "minzoom": 2, "maxzoom": 8 }, "properties": { "halo": 0.8, "title": "奥耶塞利人", "fontsize": 12, "tyid": "304001", "oid": "103:1537435995987", "color": "#262626" }, "geometry": { "type": "Point", "coordinates": [ 22.500000, 58.447733 ] } }
{ "type": "Feature", "tippecanoe": { "layer": "2AFCA1A0BEB81583915785044", "minzoom": 2, "maxzoom": 8 }, "properties": { "halo": 0.8, "title": "沃茨人", "fontsize": 12, "tyid": "304001", "oid": "103:1535120170031", "color": "#262626" }, "geometry": { "type": "Point", "coordinates": [ 29.003906, 59.310768 ] } }
{ "type": "Feature", "tippecanoe": { "layer": "2AFCA1A0BEB81583915785044", "minzoom": 2, "maxzoom": 8 }, "properties": { "halo": 0.8, "title": "莫拉玛人", "fontsize": 12, "tyid": "304001", "oid": "103:1535120170151", "color": "#262626" }, "geometry": { "type": "Point", "coordinates": [ 41.396484, 56.656226 ] } }
{ "type": "Feature", "tippecanoe": { "layer": "2AFCA1A0BEB81583915785044", "minzoom": 2, "maxzoom": 8 }, "properties": { "halo": 0.8, "title": "第比利斯埃米尔国", "fontsize": 12, "tyid": "304000", "oid": "103:1576922419481", "color": "#202020" }, "geometry": { "type": "Point", "coordinates": [ 44.560547, 41.442726 ] } }
{ "type": "Feature", "tippecanoe": { "layer": "2AFCA1A0BEB81583915785044", "minzoom": 2, "maxzoom": 8 }, "properties": { "halo": 0.8, "title": "乌斯鲁萨那公国", "fontsize": 12, "tyid": "304000", "oid": "103:1576922419483", "color": "#202020" }, "geometry": { "type": "Point", "coordinates": [ 68.466797, 39.909736 ] } }
{ "type": "Feature", "tippecanoe": { "layer": "2AFCA1A0BEB81583915785044", "minzoom": 2, "maxzoom": 8 }, "properties": { "halo": 0.8, "title": "阿拉帕王朝", "fontsize": 12, "tyid": "304000", "oid": "103:1537435996152", "color": "#202020" }, "geometry": { "type": "Point", "coordinates": [ 74.970703, 13.325485 ] } }
{ "type": "Feature", "tippecanoe": { "layer": "2AFCA1A0BEB81583915785044", "minzoom": 2, "maxzoom": 8 }, "properties": { "halo": 0.8, "title": "朱罗国", "fontsize": 12, "tyid": "304000", "oid": "103:1576922419460", "color": "#202020" }, "geometry": { "type": "Point", "coordinates": [ 79.541016, 10.833306 ] } }
{ "type": "Feature", "tippecanoe": { "layer": "2AFCA1A0BEB81583915785044", "minzoom": 2, "maxzoom": 8 }, "properties": { "halo": 0.8, "title": "罗涡国", "fontsize": 12, "tyid": "304000", "oid": "103:1576922419479", "color": "#202020" }, "geometry": { "type": "Point", "coordinates": [ 100.810547, 14.519780 ] } }
{ "type": "Feature", "tippecanoe": { "layer": "2AFCA1A0BEB81583915785044", "minzoom": 2, "maxzoom": 8 }, "properties": { "halo": 0.8, "title": "刚迦王国", "fontsize": 12, "tyid": "304000", "oid": "103:1535120170297", "color": "#202020" }, "geometry": { "type": "Point", "coordinates": [ 100.810547, 4.565474 ] } }
{ "type": "Feature", "tippecanoe": { "layer": "2AFCA1A0BEB81583915785044", "minzoom": 2, "maxzoom": 8 }, "properties": { "halo": 0.8, "title": "婆皇国", "fontsize": 12, "tyid": "304000", "oid": "103:1576922419480", "color": "#202020" }, "geometry": { "type": "Point", "coordinates": [ 103.095703, 3.425692 ] } }
{ "type": "Feature", "tippecanoe": { "layer": "2AFCA1A0BEB81583915785044", "minzoom": 2, "maxzoom": 8 }, "properties": { "halo": 0.8, "title": "巽他王国", "fontsize": 12, "tyid": "304000", "oid": "103:1535120170309", "color": "#202020" }, "geometry": { "type": "Point", "coordinates": [ 106.611328, -6.664608 ] } }
{ "type": "Feature", "tippecanoe": { "layer": "2AFCA1A192081583915785062", "minzoom": 2, "maxzoom": 8 }, "properties": { "halo": 0.8, "title": "托尔特克帝国", "fontsize": 12, "tyid": "304000", "oid": "103:1535120170453", "color": "#202020" }, "geometry": { "type": "Point", "coordinates": [ -100.634766, 20.303418 ] } }
{ "type": "Feature", "tippecanoe": { "layer": "2AFCA1A192081583915785062", "minzoom": 2, "maxzoom": 8 }, "properties": { "halo": 0.8, "title": "玛雅文明[古典时期]", "fontsize": 12, "tyid": "304000", "oid": "103:1576922419488", "color": "#202020" }, "geometry": { "type": "Point", "coordinates": [ -91.230469, 16.551962 ] } }
{ "type": "Feature", "tippecanoe": { "layer": "2AFCA1A192081583915785062", "minzoom": 2, "maxzoom": 8 }, "properties": { "halo": 0.8, "title": "柏柏尔人诸部", "fontsize": 12, "tyid": "304002", "oid": "103:1537435995957", "color": "#262626" }, "geometry": { "type": "Point", "coordinates": [ -5.888672, 33.504759 ] } }
{ "type": "Feature", "tippecanoe": { "layer": "2AFCA1A192081583915785062", "minzoom": 2, "maxzoom": 8 }, "properties": { "halo": 0.8, "title": "科尔多瓦埃米尔国", "fontsize": 12, "tyid": "304000", "oid": "103:1576922419422", "color": "#202020" }, "geometry": { "type": "Point", "coordinates": [ -4.130859, 39.504041 ] } }
{ "type": "Feature", "tippecanoe": { "layer": "2AFCA1A192081583915785062", "minzoom": 2, "maxzoom": 8 }, "properties": { "halo": 0.8, "title": "曼德人", "fontsize": 12, "tyid": "304001", "oid": "103:1535120170377", "color": "#262626" }, "geometry": { "type": "Point", "coordinates": [ -6.591797, 13.154376 ] } }
{ "type": "Feature", "tippecanoe": { "layer": "2AFCA1A192081583915785062", "minzoom": 2, "maxzoom": 8 }, "properties": { "halo": 0.8, "title": "瓦里帝国", "fontsize": 12, "tyid": "304000", "oid": "103:1535120170450", "color": "#202020" }, "geometry": { "type": "Point", "coordinates": [ -74.619141, -12.554564 ] } }
{ "type": "Feature", "tippecanoe": { "layer": "2AFCA1A192081583915785062", "minzoom": 2, "maxzoom": 8 }, "properties": { "halo": 0.8, "title": "蒂亚瓦纳科帝国", "fontsize": 12, "tyid": "304000", "oid": "103:1537435996361", "color": "#202020" }, "geometry": { "type": "Point", "coordinates": [ -68.466797, -19.062118 ] } }
{ "type": "Feature", "tippecanoe": { "layer": "2AFCA1A192081583915785062", "minzoom": 2, "maxzoom": 8 }, "properties": { "halo": 0.8, "title": "萨米人", "fontsize": 12, "tyid": "304001", "oid": "103:1535120170005", "color": "#262626" }, "geometry": { "type": "Point", "coordinates": [ 26.367188, 68.592487 ] } }
{ "type": "Feature", "tippecanoe": { "layer": "2AFCA1A192081583915785062", "minzoom": 2, "maxzoom": 8 }, "properties": { "halo": 0.8, "title": "法兰克王国", "fontsize": 12, "tyid": "304000", "oid": "103:1577244876568", "color": "#202020" }, "geometry": { "type": "Point", "coordinates": [ 5.625000, 47.635784 ] } }
{ "type": "Feature", "tippecanoe": { "layer": "2AFCA1A192081583915785062", "minzoom": 2, "maxzoom": 8 }, "properties": { "halo": 0.8, "title": "西斯拉夫人", "fontsize": 12, "tyid": "304002", "oid": "103:1537435995974", "color": "#262626" }, "geometry": { "type": "Point", "coordinates": [ 17.050781, 52.052490 ] } }
{ "type": "Feature", "tippecanoe": { "layer": "2AFCA1A192081583915785062", "minzoom": 2, "maxzoom": 8 }, "properties": { "halo": 0.8, "title": "阿瓦尔汗国", "fontsize": 12, "tyid": "304000", "oid": "103:1535120170093", "color": "#202020" }, "geometry": { "type": "Point", "coordinates": [ 21.796875, 46.377254 ] } }
{ "type": "Feature", "tippecanoe": { "layer": "2AFCA1A192081583915785062", "minzoom": 2, "maxzoom": 8 }, "properties": { "halo": 0.8, "title": "南斯拉夫人", "fontsize": 12, "tyid": "304001", "oid": "103:1537435996036", "color": "#262626" }, "geometry": { "type": "Point", "coordinates": [ 21.357422, 41.310824 ] } }
{ "type": "Feature", "tippecanoe": { "layer": "2AFCA1A192081583915785062", "minzoom": 2, "maxzoom": 8 }, "properties": { "halo": 0.8, "title": "芬兰人", "fontsize": 12, "tyid": "304001", "oid": "103:1535120169994", "color": "#262626" }, "geometry": { "type": "Point", "coordinates": [ 29.970703, 65.440002 ] } }
{ "type": "Feature", "tippecanoe": { "layer": "2AFCA1A192081583915785062", "minzoom": 2, "maxzoom": 8 }, "properties": { "halo": 0.8, "title": "诺夫哥罗德斯拉夫人", "fontsize": 12, "tyid": "304001", "oid": "103:1535120170051", "color": "#262626" }, "geometry": { "type": "Point", "coordinates": [ 31.904297, 57.088515 ] } }
{ "type": "Feature", "tippecanoe": { "layer": "2AFCA1A192081583915785062", "minzoom": 2, "maxzoom": 8 }, "properties": { "halo": 0.8, "title": "东斯拉夫人", "fontsize": 12, "tyid": "304001", "oid": "103:1537435996065", "color": "#262626" }, "geometry": { "type": "Point", "coordinates": [ 30.146484, 50.903033 ] } }
{ "type": "Feature", "tippecanoe": { "layer": "2AFCA1A192081583915785062", "minzoom": 2, "maxzoom": 8 }, "properties": { "halo": 0.8, "title": "保加利亚第一王国", "fontsize": 12, "tyid": "304000", "oid": "103:1537435996028", "color": "#202020" }, "geometry": { "type": "Point", "coordinates": [ 26.279297, 43.580391 ] } }
{ "type": "Feature", "tippecanoe": { "layer": "2AFCA1A192081583915785062", "minzoom": 2, "maxzoom": 8 }, "properties": { "halo": 0.8, "title": "可萨汗国", "fontsize": 12, "tyid": "304000", "oid": "103:1535120170340", "color": "#202020" }, "geometry": { "type": "Point", "coordinates": [ 42.714844, 47.931066 ] } }
{ "type": "Feature", "tippecanoe": { "layer": "2AFCA1A192081583915785062", "minzoom": 2, "maxzoom": 8 }, "properties": { "halo": 0.8, "title": "萨奥文明", "fontsize": 12, "tyid": "304002", "oid": "103:1537435996322", "color": "#262626" }, "geometry": { "type": "Point", "coordinates": [ 7.822266, 7.536764 ] } }
{ "type": "Feature", "tippecanoe": { "layer": "2AFCA1A192081583915785062", "minzoom": 2, "maxzoom": 8 }, "properties": { "halo": 0.8, "title": "加涅姆帝国", "fontsize": 12, "tyid": "304000", "oid": "103:1535120170404", "color": "#202020" }, "geometry": { "type": "Point", "coordinates": [ 14.150391, 11.867351 ] } }
{ "type": "Feature", "tippecanoe": { "layer": "2AFCA1A192081583915785062", "minzoom": 2, "maxzoom": 8 }, "properties": { "halo": 0.8, "title": "西北班图人诸部", "fontsize": 12, "tyid": "304002", "oid": "103:1535120170359", "color": "#262626" }, "geometry": { "type": "Point", "coordinates": [ 18.017578, 1.669686 ] } }
{ "type": "Feature", "tippecanoe": { "layer": "2AFCA1A192081583915785062", "minzoom": 2, "maxzoom": 8 }, "properties": { "halo": 0.8, "title": "东罗马帝国", "fontsize": 12, "tyid": "304000", "oid": "103:1537435996020", "color": "#202020" }, "geometry": { "type": "Point", "coordinates": [ 32.783203, 39.232253 ] } }
{ "type": "Feature", "tippecanoe": { "layer": "2AFCA1A192081583915785062", "minzoom": 2, "maxzoom": 8 }, "properties": { "halo": 0.8, "title": "图阿雷格人", "fontsize": 12, "tyid": "304001", "oid": "103:1535120170420", "color": "#262626" }, "geometry": { "type": "Point", "coordinates": [ 23.027344, 26.588527 ] } }
{ "type": "Feature", "tippecanoe": { "layer": "2AFCA1A192081583915785062", "minzoom": 2, "maxzoom": 8 }, "properties": { "halo": 0.8, "title": "阿拔斯哈里发国", "fontsize": 12, "tyid": "304000", "oid": "103:1537435995968", "color": "#202020" }, "geometry": { "type": "Point", "coordinates": [ 42.275391, 32.842674 ] } }
{ "type": "Feature", "tippecanoe": { "layer": "2AFCA1A192081583915785062", "minzoom": 2, "maxzoom": 8 }, "properties": { "halo": 0.8, "title": "札加瓦人", "fontsize": 12, "tyid": "304001", "oid": "103:1535120170423", "color": "#262626" }, "geometry": { "type": "Point", "coordinates": [ 23.203125, 13.496473 ] } }
{ "type": "Feature", "tippecanoe": { "layer": "2AFCA1A192081583915785062", "minzoom": 2, "maxzoom": 8 }, "properties": { "halo": 0.8, "title": "马库里亚王国", "fontsize": 12, "tyid": "304000", "oid": "103:1535120170384", "color": "#202020" }, "geometry": { "type": "Point", "coordinates": [ 31.904297, 19.559790 ] } }
{ "type": "Feature", "tippecanoe": { "layer": "2AFCA1A192081583915785062", "minzoom": 2, "maxzoom": 8 }, "properties": { "halo": 0.8, "title": "尼罗特人", "fontsize": 12, "tyid": "304001", "oid": "103:1535120170416", "color": "#262626" }, "geometry": { "type": "Point", "coordinates": [ 32.783203, 3.864255 ] } }
{ "type": "Feature", "tippecanoe": { "layer": "2AFCA1A192081583915785062", "minzoom": 2, "maxzoom": 8 }, "properties": { "halo": 0.8, "title": "阿克苏姆王国", "fontsize": 12, "tyid": "304000", "oid": "103:1535120170357", "color": "#202020" }, "geometry": { "type": "Point", "coordinates": [ 39.726562, 12.983148 ] } }
{ "type": "Feature", "tippecanoe": { "layer": "2AFCA1A192081583915785062", "minzoom": 2, "maxzoom": 8 }, "properties": { "halo": 0.8, "title": "佩切涅格人", "fontsize": 12, "tyid": "304001", "oid": "103:1535120170176", "color": "#262626" }, "geometry": { "type": "Point", "coordinates": [ 53.525391, 49.496675 ] } }
{ "type": "Feature", "tippecanoe": { "layer": "2AFCA1A192081583915785062", "minzoom": 2, "maxzoom": 8 }, "properties": { "halo": 0.8, "title": "巴什基尔人", "fontsize": 12, "tyid": "304001", "oid": "103:1535120170100", "color": "#262626" }, "geometry": { "type": "Point", "coordinates": [ 56.601562, 52.589701 ] } }
{ "type": "Feature", "tippecanoe": { "layer": "2AFCA1A192081583915785062", "minzoom": 2, "maxzoom": 8 }, "properties": { "halo": 0.8, "title": "钦察人", "fontsize": 12, "tyid": "304001", "oid": "103:1535120170174", "color": "#262626" }, "geometry": { "type": "Point", "coordinates": [ 67.412109, 50.120578 ] } }
{ "type": "Feature", "tippecanoe": { "layer": "2AFCA1A192081583915785062", "minzoom": 2, "maxzoom": 8 }, "properties": { "halo": 0.8, "title": "乌古斯叶护国", "fontsize": 12, "tyid": "304000", "oid": "103:1535120170170", "color": "#202020" }, "geometry": { "type": "Point", "coordinates": [ 56.425781, 45.521744 ] } }
{ "type": "Feature", "tippecanoe": { "layer": "2AFCA1A192081583915785062", "minzoom": 2, "maxzoom": 8 }, "properties": { "halo": 0.8, "title": "雅库特人", "fontsize": 12, "tyid": "304001", "oid": "103:1535120170165", "color": "#262626" }, "geometry": { "type": "Point", "coordinates": [ 68.994141, 56.656226 ] } }
{ "type": "Feature", "tippecanoe": { "layer": "2AFCA1A192081583915785062", "minzoom": 2, "maxzoom": 8 }, "properties": { "halo": 0.8, "title": "萨莫耶德人", "fontsize": 12, "tyid": "304001", "oid": "103:1535120170179", "color": "#262626" }, "geometry": { "type": "Point", "coordinates": [ 80.507812, 60.108670 ] } }
{ "type": "Feature", "tippecanoe": { "layer": "2AFCA1A192081583915785062", "minzoom": 2, "maxzoom": 8 }, "properties": { "halo": 0.8, "title": "基马克人", "fontsize": 12, "tyid": "304001", "oid": "103:1535120170167", "color": "#262626" }, "geometry": { "type": "Point", "coordinates": [ 78.662109, 49.037868 ] } }
{ "type": "Feature", "tippecanoe": { "layer": "2AFCA1A192081583915785062", "minzoom": 2, "maxzoom": 8 }, "properties": { "halo": 0.8, "title": "葛逻禄叶护国", "fontsize": 12, "tyid": "304001", "oid": "103:1537435996095", "color": "#262626" }, "geometry": { "type": "Point", "coordinates": [ 78.134766, 44.840291 ] } }
{ "type": "Feature", "tippecanoe": { "layer": "2AFCA1A192081583915785062", "minzoom": 2, "maxzoom": 8 }, "properties": { "halo": 0.8, "title": "喀布尔夏希王朝", "fontsize": 12, "tyid": "304000", "oid": "103:1576922419449", "color": "#202020" }, "geometry": { "type": "Point", "coordinates": [ 70.224609, 33.651208 ] } }
{ "type": "Feature", "tippecanoe": { "layer": "2AFCA1A192081583915785062", "minzoom": 2, "maxzoom": 8 }, "properties": { "halo": 0.8, "title": "卡尔科塔王朝", "fontsize": 12, "tyid": "304000", "oid": "103:1537435996122", "color": "#202020" }, "geometry": { "type": "Point", "coordinates": [ 74.443359, 34.307144 ] } }
{ "type": "Feature", "tippecanoe": { "layer": "2AFCA1A192081583915785062", "minzoom": 2, "maxzoom": 8 }, "properties": { "halo": 0.8, "title": "瞿折罗-普罗蒂诃罗王朝", "fontsize": 12, "tyid": "304000", "oid": "103:1576922419457", "color": "#202020" }, "geometry": { "type": "Point", "coordinates": [ 75.234375, 24.447150 ] } }
{ "type": "Feature", "tippecanoe": { "layer": "2AFCA1A192081583915785062", "minzoom": 2, "maxzoom": 8 }, "properties": { "halo": 0.8, "title": "波罗帝国", "fontsize": 12, "tyid": "304000", "oid": "103:1576922419453", "color": "#202020" }, "geometry": { "type": "Point", "coordinates": [ 85.693359, 24.846565 ] } }
{ "type": "Feature", "tippecanoe": { "layer": "2AFCA1A192081583915785062", "minzoom": 2, "maxzoom": 8 }, "properties": { "halo": 0.8, "title": "罗湿陀罗拘陀王朝", "fontsize": 12, "tyid": "304000", "oid": "103:1535120170098", "color": "#202020" }, "geometry": { "type": "Point", "coordinates": [ 76.376953, 18.646245 ] } }
{ "type": "Feature", "tippecanoe": { "layer": "2AFCA1A192081583915785062", "minzoom": 2, "maxzoom": 8 }, "properties": { "halo": 0.8, "title": "通古斯人", "fontsize": 12, "tyid": "304001", "oid": "103:1535120170245", "color": "#262626" }, "geometry": { "type": "Point", "coordinates": [ 98.173828, 64.014496 ] } }
{ "type": "Feature", "tippecanoe": { "layer": "2AFCA1A192081583915785062", "minzoom": 2, "maxzoom": 8 }, "properties": { "halo": 0.8, "title": "回鹘汗国", "fontsize": 12, "tyid": "304000", "oid": "103:1576922419447", "color": "#202020" }, "geometry": { "type": "Point", "coordinates": [ 105.380859, 48.690960 ] } }
{ "type": "Feature", "tippecanoe": { "layer": "2AFCA1A192081583915785062", "minzoom": 2, "maxzoom": 8 }, "properties": { "halo": 0.8, "title": "室韦诸部", "fontsize": 12, "tyid": "304002", "oid": "103:1535120170250", "color": "#262626" }, "geometry": { "type": "Point", "coordinates": [ 126.826172, 52.268157 ] } }
{ "type": "Feature", "tippecanoe": { "layer": "2AFCA1A192081583915785062", "minzoom": 2, "maxzoom": 8 }, "properties": { "halo": 0.8, "title": "渤海国", "fontsize": 12, "tyid": "304000", "oid": "103:1535120170238", "color": "#202020" }, "geometry": { "type": "Point", "coordinates": [ 130.341797, 44.213710 ] } }
{ "type": "Feature", "tippecanoe": { "layer": "2AFCA1A192081583915785062", "minzoom": 2, "maxzoom": 8 }, "properties": { "halo": 0.8, "title": "吐蕃", "fontsize": 12, "tyid": "304000", "oid": "103:1537435996115", "color": "#202020" }, "geometry": { "type": "Point", "coordinates": [ 93.339844, 35.101934 ] } }
{ "type": "Feature", "tippecanoe": { "layer": "2AFCA1A192081583915785062", "minzoom": 2, "maxzoom": 8 }, "properties": { "halo": 0.8, "title": "南诏国", "fontsize": 12, "tyid": "304000", "oid": "103:1535120170281", "color": "#202020" }, "geometry": { "type": "Point", "coordinates": [ 100.546875, 24.367114 ] } }
{ "type": "Feature", "tippecanoe": { "layer": "2AFCA1A192081583915785062", "minzoom": 2, "maxzoom": 8 }, "properties": { "halo": 0.8, "title": "陆真腊王国", "fontsize": 12, "tyid": "304000", "oid": "103:1576922419477", "color": "#202020" }, "geometry": { "type": "Point", "coordinates": [ 104.150391, 16.045813 ] } }
{ "type": "Feature", "tippecanoe": { "layer": "2AFCA1A192081583915785062", "minzoom": 2, "maxzoom": 8 }, "properties": { "halo": 0.8, "title": "水真腊王国", "fontsize": 12, "tyid": "304000", "oid": "103:1576922419469", "color": "#202020" }, "geometry": { "type": "Point", "coordinates": [ 105.205078, 12.125264 ] } }
{ "type": "Feature", "tippecanoe": { "layer": "2AFCA1A192081583915785062", "minzoom": 2, "maxzoom": 8 }, "properties": { "halo": 0.8, "title": "唐", "fontsize": 12, "tyid": "304000", "oid": "103:1537435996111", "color": "#202020" }, "geometry": { "type": "Point", "coordinates": [ 112.675781, 36.173357 ] } }
{ "type": "Feature", "tippecanoe": { "layer": "2AFCA1A192081583915785062", "minzoom": 2, "maxzoom": 8 }, "properties": { "halo": 0.8, "title": "日本奈良时代", "fontsize": 12, "tyid": "304000", "oid": "103:1576922419462", "color": "#202020" }, "geometry": { "type": "Point", "coordinates": [ 138.339844, 36.102376 ] } }
{ "type": "Feature", "tippecanoe": { "layer": "2AFCA1A192081583915785062", "minzoom": 2, "maxzoom": 8 }, "properties": { "halo": 0.8, "title": "西班图人诸部", "fontsize": 12, "tyid": "304002", "oid": "103:1535120170418", "color": "#262626" }, "geometry": { "type": "Point", "coordinates": [ 18.720703, -12.554564 ] } }
{ "type": "Feature", "tippecanoe": { "layer": "2AFCA1A192081583915785062", "minzoom": 2, "maxzoom": 8 }, "properties": { "halo": 0.8, "title": "东班图人诸部", "fontsize": 12, "tyid": "304002", "oid": "103:1537435996269", "color": "#262626" }, "geometry": { "type": "Point", "coordinates": [ 31.201172, -10.401378 ] } }
{ "type": "Feature", "tippecanoe": { "layer": "2AFCA1A192081583915785062", "minzoom": 2, "maxzoom": 8 }, "properties": { "halo": 0.8, "title": "斯瓦西里人", "fontsize": 12, "tyid": "304001", "oid": "103:1535120170411", "color": "#262626" }, "geometry": { "type": "Point", "coordinates": [ 36.386719, -17.056785 ] } }
{ "type": "Feature", "tippecanoe": { "layer": "2AFCA1A192081583915785062", "minzoom": 2, "maxzoom": 8 }, "properties": { "halo": 0.8, "title": "科伊桑人", "fontsize": 12, "tyid": "304002", "oid": "103:1535120170414", "color": "#262626" }, "geometry": { "type": "Point", "coordinates": [ 24.433594, -27.761330 ] } }
{ "type": "Feature", "tippecanoe": { "layer": "2AFCA1A192081583915785062", "minzoom": 2, "maxzoom": 8 }, "properties": { "halo": 0.8, "title": "三佛齐王国", "fontsize": 12, "tyid": "304000", "oid": "103:1537435996186", "color": "#202020" }, "geometry": { "type": "Point", "coordinates": [ 101.777344, -0.175781 ] } }
{ "type": "Feature", "tippecanoe": { "layer": "2AFCA1A196681583915785068", "minzoom": 2, "maxzoom": 8 }, "properties": { "halo": 1.8, "title": "托尔特克帝国", "fontsize": 12, "tyid": "304000", "oid": "103:1535120170453", "color": "#0056E7" }, "geometry": { "type": "Point", "coordinates": [ -100.634766, 20.303418 ] } }
{ "type": "Feature", "tippecanoe": { "layer": "2AFCA1A196681583915785068", "minzoom": 2, "maxzoom": 8 }, "properties": { "halo": 1.8, "title": "玛雅文明[古典时期]", "fontsize": 12, "tyid": "304000", "oid": "103:1576922419488", "color": "#0056E7" }, "geometry": { "type": "Point", "coordinates": [ -91.230469, 16.551962 ] } }
{ "type": "Feature", "tippecanoe": { "layer": "2AFCA1A196681583915785068", "minzoom": 2, "maxzoom": 8 }, "properties": { "halo": 1.6, "title": "柏柏尔人诸部", "fontsize": 12, "tyid": "304002", "oid": "103:1537435995957", "color": "#0056E7" }, "geometry": { "type": "Point", "coordinates": [ -5.888672, 33.504759 ] } }
{ "type": "Feature", "tippecanoe": { "layer": "2AFCA1A196681583915785068", "minzoom": 2, "maxzoom": 8 }, "properties": { "halo": 1.8, "title": "科尔多瓦埃米尔国", "fontsize": 12, "tyid": "304000", "oid": "103:1576922419422", "color": "#0056E7" }, "geometry": { "type": "Point", "coordinates": [ -4.130859, 39.504041 ] } }
{ "type": "Feature", "tippecanoe": { "layer": "2AFCA1A196681583915785068", "minzoom": 2, "maxzoom": 8 }, "properties": { "halo": 1.6, "title": "曼德人", "fontsize": 12, "tyid": "304001", "oid": "103:1535120170377", "color": "#0056E7" }, "geometry": { "type": "Point", "coordinates": [ -6.591797, 13.154376 ] } }
{ "type": "Feature", "tippecanoe": { "layer": "2AFCA1A196681583915785068", "minzoom": 2, "maxzoom": 8 }, "properties": { "halo": 1.8, "title": "瓦里帝国", "fontsize": 12, "tyid": "304000", "oid": "103:1535120170450", "color": "#0056E7" }, "geometry": { "type": "Point", "coordinates": [ -74.619141, -12.554564 ] } }
{ "type": "Feature", "tippecanoe": { "layer": "2AFCA1A196681583915785068", "minzoom": 2, "maxzoom": 8 }, "properties": { "halo": 1.8, "title": "蒂亚瓦纳科帝国", "fontsize": 12, "tyid": "304000", "oid": "103:1537435996361", "color": "#0056E7" }, "geometry": { "type": "Point", "coordinates": [ -68.466797, -19.062118 ] } }
{ "type": "Feature", "tippecanoe": { "layer": "2AFCA1A196681583915785068", "minzoom": 2, "maxzoom": 8 }, "properties": { "halo": 1.6, "title": "萨米人", "fontsize": 12, "tyid": "304001", "oid": "103:1535120170005", "color": "#0056E7" }, "geometry": { "type": "Point", "coordinates": [ 26.367188, 68.592487 ] } }
{ "type": "Feature", "tippecanoe": { "layer": "2AFCA1A196681583915785068", "minzoom": 2, "maxzoom": 8 }, "properties": { "halo": 1.8, "title": "法兰克王国", "fontsize": 12, "tyid": "304000", "oid": "103:1577244876568", "color": "#0056E7" }, "geometry": { "type": "Point", "coordinates": [ 5.625000, 47.635784 ] } }
{ "type": "Feature", "tippecanoe": { "layer": "2AFCA1A196681583915785068", "minzoom": 2, "maxzoom": 8 }, "properties": { "halo": 1.6, "title": "西斯拉夫人", "fontsize": 12, "tyid": "304002", "oid": "103:1537435995974", "color": "#0056E7" }, "geometry": { "type": "Point", "coordinates": [ 17.050781, 52.052490 ] } }
{ "type": "Feature", "tippecanoe": { "layer": "2AFCA1A196681583915785068", "minzoom": 2, "maxzoom": 8 }, "properties": { "halo": 1.8, "title": "阿瓦尔汗国", "fontsize": 12, "tyid": "304000", "oid": "103:1535120170093", "color": "#0056E7" }, "geometry": { "type": "Point", "coordinates": [ 21.796875, 46.377254 ] } }
{ "type": "Feature", "tippecanoe": { "layer": "2AFCA1A196681583915785068", "minzoom": 2, "maxzoom": 8 }, "properties": { "halo": 1.6, "title": "南斯拉夫人", "fontsize": 12, "tyid": "304001", "oid": "103:1537435996036", "color": "#0056E7" }, "geometry": { "type": "Point", "coordinates": [ 21.357422, 41.310824 ] } }
{ "type": "Feature", "tippecanoe": { "layer": "2AFCA1A196681583915785068", "minzoom": 2, "maxzoom": 8 }, "properties": { "halo": 1.6, "title": "芬兰人", "fontsize": 12, "tyid": "304001", "oid": "103:1535120169994", "color": "#0056E7" }, "geometry": { "type": "Point", "coordinates": [ 29.970703, 65.440002 ] } }
{ "type": "Feature", "tippecanoe": { "layer": "2AFCA1A196681583915785068", "minzoom": 2, "maxzoom": 8 }, "properties": { "halo": 1.6, "title": "诺夫哥罗德斯拉夫人", "fontsize": 12, "tyid": "304001", "oid": "103:1535120170051", "color": "#0056E7" }, "geometry": { "type": "Point", "coordinates": [ 31.904297, 57.088515 ] } }
{ "type": "Feature", "tippecanoe": { "layer": "2AFCA1A196681583915785068", "minzoom": 2, "maxzoom": 8 }, "properties": { "halo": 1.6, "title": "东斯拉夫人", "fontsize": 12, "tyid": "304001", "oid": "103:1537435996065", "color": "#0056E7" }, "geometry": { "type": "Point", "coordinates": [ 30.146484, 50.903033 ] } }
{ "type": "Feature", "tippecanoe": { "layer": "2AFCA1A196681583915785068", "minzoom": 2, "maxzoom": 8 }, "properties": { "halo": 1.8, "title": "保加利亚第一王国", "fontsize": 12, "tyid": "304000", "oid": "103:1537435996028", "color": "#0056E7" }, "geometry": { "type": "Point", "coordinates": [ 26.279297, 43.580391 ] } }
{ "type": "Feature", "tippecanoe": { "layer": "2AFCA1A196681583915785068", "minzoom": 2, "maxzoom": 8 }, "properties": { "halo": 1.8, "title": "可萨汗国", "fontsize": 12, "tyid": "304000", "oid": "103:1535120170340", "color": "#0056E7" }, "geometry": { "type": "Point", "coordinates": [ 42.714844, 47.931066 ] } }
{ "type": "Feature", "tippecanoe": { "layer": "2AFCA1A196681583915785068", "minzoom": 2, "maxzoom": 8 }, "properties": { "halo": 1.6, "title": "萨奥文明", "fontsize": 12, "tyid": "304002", "oid": "103:1537435996322", "color": "#0056E7" }, "geometry": { "type": "Point", "coordinates": [ 7.822266, 7.536764 ] } }
{ "type": "Feature", "tippecanoe": { "layer": "2AFCA1A196681583915785068", "minzoom": 2, "maxzoom": 8 }, "properties": { "halo": 1.8, "title": "加涅姆帝国", "fontsize": 12, "tyid": "304000", "oid": "103:1535120170404", "color": "#0056E7" }, "geometry": { "type": "Point", "coordinates": [ 14.150391, 11.867351 ] } }
{ "type": "Feature", "tippecanoe": { "layer": "2AFCA1A196681583915785068", "minzoom": 2, "maxzoom": 8 }, "properties": { "halo": 1.6, "title": "西北班图人诸部", "fontsize": 12, "tyid": "304002", "oid": "103:1535120170359", "color": "#0056E7" }, "geometry": { "type": "Point", "coordinates": [ 18.017578, 1.669686 ] } }
{ "type": "Feature", "tippecanoe": { "layer": "2AFCA1A196681583915785068", "minzoom": 2, "maxzoom": 8 }, "properties": { "halo": 1.8, "title": "东罗马帝国", "fontsize": 12, "tyid": "304000", "oid": "103:1537435996020", "color": "#0056E7" }, "geometry": { "type": "Point", "coordinates": [ 32.783203, 39.232253 ] } }
{ "type": "Feature", "tippecanoe": { "layer": "2AFCA1A196681583915785068", "minzoom": 2, "maxzoom": 8 }, "properties": { "halo": 1.6, "title": "图阿雷格人", "fontsize": 12, "tyid": "304001", "oid": "103:1535120170420", "color": "#0056E7" }, "geometry": { "type": "Point", "coordinates": [ 23.027344, 26.588527 ] } }
{ "type": "Feature", "tippecanoe": { "layer": "2AFCA1A196681583915785068", "minzoom": 2, "maxzoom": 8 }, "properties": { "halo": 1.8, "title": "阿拔斯哈里发国", "fontsize": 12, "tyid": "304000", "oid": "103:1537435995968", "color": "#0056E7" }, "geometry": { "type": "Point", "coordinates": [ 42.275391, 32.842674 ] } }
{ "type": "Feature", "tippecanoe": { "layer": "2AFCA1A196681583915785068", "minzoom": 2, "maxzoom": 8 }, "properties": { "halo": 1.6, "title": "札加瓦人", "fontsize": 12, "tyid": "304001", "oid": "103:1535120170423", "color": "#0056E7" }, "geometry": { "type": "Point", "coordinates": [ 23.203125, 13.496473 ] } }
{ "type": "Feature", "tippecanoe": { "layer": "2AFCA1A196681583915785068", "minzoom": 2, "maxzoom": 8 }, "properties": { "halo": 1.8, "title": "马库里亚王国", "fontsize": 12, "tyid": "304000", "oid": "103:1535120170384", "color": "#0056E7" }, "geometry": { "type": "Point", "coordinates": [ 31.904297, 19.559790 ] } }
{ "type": "Feature", "tippecanoe": { "layer": "2AFCA1A196681583915785068", "minzoom": 2, "maxzoom": 8 }, "properties": { "halo": 1.6, "title": "尼罗特人", "fontsize": 12, "tyid": "304001", "oid": "103:1535120170416", "color": "#0056E7" }, "geometry": { "type": "Point", "coordinates": [ 32.783203, 3.864255 ] } }
{ "type": "Feature", "tippecanoe": { "layer": "2AFCA1A196681583915785068", "minzoom": 2, "maxzoom": 8 }, "properties": { "halo": 1.8, "title": "阿克苏姆王国", "fontsize": 12, "tyid": "304000", "oid": "103:1535120170357", "color": "#0056E7" }, "geometry": { "type": "Point", "coordinates": [ 39.726562, 12.983148 ] } }
{ "type": "Feature", "tippecanoe": { "layer": "2AFCA1A196681583915785068", "minzoom": 2, "maxzoom": 8 }, "properties": { "halo": 1.6, "title": "佩切涅格人", "fontsize": 12, "tyid": "304001", "oid": "103:1535120170176", "color": "#0056E7" }, "geometry": { "type": "Point", "coordinates": [ 53.525391, 49.496675 ] } }
{ "type": "Feature", "tippecanoe": { "layer": "2AFCA1A196681583915785068", "minzoom": 2, "maxzoom": 8 }, "properties": { "halo": 1.6, "title": "巴什基尔人", "fontsize": 12, "tyid": "304001", "oid": "103:1535120170100", "color": "#0056E7" }, "geometry": { "type": "Point", "coordinates": [ 56.601562, 52.589701 ] } }
{ "type": "Feature", "tippecanoe": { "layer": "2AFCA1A196681583915785068", "minzoom": 2, "maxzoom": 8 }, "properties": { "halo": 1.6, "title": "钦察人", "fontsize": 12, "tyid": "304001", "oid": "103:1535120170174", "color": "#0056E7" }, "geometry": { "type": "Point", "coordinates": [ 67.412109, 50.120578 ] } }
{ "type": "Feature", "tippecanoe": { "layer": "2AFCA1A196681583915785068", "minzoom": 2, "maxzoom": 8 }, "properties": { "halo": 1.8, "title": "乌古斯叶护国", "fontsize": 12, "tyid": "304000", "oid": "103:1535120170170", "color": "#0056E7" }, "geometry": { "type": "Point", "coordinates": [ 56.425781, 45.521744 ] } }
{ "type": "Feature", "tippecanoe": { "layer": "2AFCA1A196681583915785068", "minzoom": 2, "maxzoom": 8 }, "properties": { "halo": 1.6, "title": "雅库特人", "fontsize": 12, "tyid": "304001", "oid": "103:1535120170165", "color": "#0056E7" }, "geometry": { "type": "Point", "coordinates": [ 68.994141, 56.656226 ] } }
{ "type": "Feature", "tippecanoe": { "layer": "2AFCA1A196681583915785068", "minzoom": 2, "maxzoom": 8 }, "properties": { "halo": 1.6, "title": "萨莫耶德人", "fontsize": 12, "tyid": "304001", "oid": "103:1535120170179", "color": "#0056E7" }, "geometry": { "type": "Point", "coordinates": [ 80.507812, 60.108670 ] } }
{ "type": "Feature", "tippecanoe": { "layer": "2AFCA1A196681583915785068", "minzoom": 2, "maxzoom": 8 }, "properties": { "halo": 1.6, "title": "基马克人", "fontsize": 12, "tyid": "304001", "oid": "103:1535120170167", "color": "#0056E7" }, "geometry": { "type": "Point", "coordinates": [ 78.662109, 49.037868 ] } }
{ "type": "Feature", "tippecanoe": { "layer": "2AFCA1A196681583915785068", "minzoom": 2, "maxzoom": 8 }, "properties": { "halo": 1.6, "title": "葛逻禄叶护国", "fontsize": 12, "tyid": "304001", "oid": "103:1537435996095", "color": "#0056E7" }, "geometry": { "type": "Point", "coordinates": [ 78.134766, 44.840291 ] } }
{ "type": "Feature", "tippecanoe": { "layer": "2AFCA1A196681583915785068", "minzoom": 2, "maxzoom": 8 }, "properties": { "halo": 1.8, "title": "喀布尔夏希王朝", "fontsize": 12, "tyid": "304000", "oid": "103:1576922419449", "color": "#0056E7" }, "geometry": { "type": "Point", "coordinates": [ 70.224609, 33.651208 ] } }
{ "type": "Feature", "tippecanoe": { "layer": "2AFCA1A196681583915785068", "minzoom": 2, "maxzoom": 8 }, "properties": { "halo": 1.8, "title": "卡尔科塔王朝", "fontsize": 12, "tyid": "304000", "oid": "103:1537435996122", "color": "#0056E7" }, "geometry": { "type": "Point", "coordinates": [ 74.443359, 34.307144 ] } }
{ "type": "Feature", "tippecanoe": { "layer": "2AFCA1A196681583915785068", "minzoom": 2, "maxzoom": 8 }, "properties": { "halo": 1.8, "title": "瞿折罗-普罗蒂诃罗王朝", "fontsize": 12, "tyid": "304000", "oid": "103:1576922419457", "color": "#0056E7" }, "geometry": { "type": "Point", "coordinates": [ 75.234375, 24.447150 ] } }
{ "type": "Feature", "tippecanoe": { "layer": "2AFCA1A196681583915785068", "minzoom": 2, "maxzoom": 8 }, "properties": { "halo": 1.8, "title": "波罗帝国", "fontsize": 12, "tyid": "304000", "oid": "103:1576922419453", "color": "#0056E7" }, "geometry": { "type": "Point", "coordinates": [ 85.693359, 24.846565 ] } }
{ "type": "Feature", "tippecanoe": { "layer": "2AFCA1A196681583915785068", "minzoom": 2, "maxzoom": 8 }, "properties": { "halo": 1.8, "title": "罗湿陀罗拘陀王朝", "fontsize": 12, "tyid": "304000", "oid": "103:1535120170098", "color": "#0056E7" }, "geometry": { "type": "Point", "coordinates": [ 76.376953, 18.646245 ] } }
{ "type": "Feature", "tippecanoe": { "layer": "2AFCA1A196681583915785068", "minzoom": 2, "maxzoom": 8 }, "properties": { "halo": 1.6, "title": "通古斯人", "fontsize": 12, "tyid": "304001", "oid": "103:1535120170245", "color": "#0056E7" }, "geometry": { "type": "Point", "coordinates": [ 98.173828, 64.014496 ] } }
{ "type": "Feature", "tippecanoe": { "layer": "2AFCA1A196681583915785068", "minzoom": 2, "maxzoom": 8 }, "properties": { "halo": 1.8, "title": "回鹘汗国", "fontsize": 12, "tyid": "304000", "oid": "103:1576922419447", "color": "#0056E7" }, "geometry": { "type": "Point", "coordinates": [ 105.380859, 48.690960 ] } }
{ "type": "Feature", "tippecanoe": { "layer": "2AFCA1A196681583915785068", "minzoom": 2, "maxzoom": 8 }, "properties": { "halo": 1.6, "title": "室韦诸部", "fontsize": 12, "tyid": "304002", "oid": "103:1535120170250", "color": "#0056E7" }, "geometry": { "type": "Point", "coordinates": [ 126.826172, 52.268157 ] } }
{ "type": "Feature", "tippecanoe": { "layer": "2AFCA1A196681583915785068", "minzoom": 2, "maxzoom": 8 }, "properties": { "halo": 1.8, "title": "渤海国", "fontsize": 12, "tyid": "304000", "oid": "103:1535120170238", "color": "#0056E7" }, "geometry": { "type": "Point", "coordinates": [ 130.341797, 44.213710 ] } }
{ "type": "Feature", "tippecanoe": { "layer": "2AFCA1A196681583915785068", "minzoom": 2, "maxzoom": 8 }, "properties": { "halo": 1.8, "title": "吐蕃", "fontsize": 12, "tyid": "304000", "oid": "103:1537435996115", "color": "#0056E7" }, "geometry": { "type": "Point", "coordinates": [ 93.339844, 35.101934 ] } }
{ "type": "Feature", "tippecanoe": { "layer": "2AFCA1A196681583915785068", "minzoom": 2, "maxzoom": 8 }, "properties": { "halo": 1.8, "title": "南诏国", "fontsize": 12, "tyid": "304000", "oid": "103:1535120170281", "color": "#0056E7" }, "geometry": { "type": "Point", "coordinates": [ 100.546875, 24.367114 ] } }
{ "type": "Feature", "tippecanoe": { "layer": "2AFCA1A196681583915785068", "minzoom": 2, "maxzoom": 8 }, "properties": { "halo": 1.8, "title": "陆真腊王国", "fontsize": 12, "tyid": "304000", "oid": "103:1576922419477", "color": "#0056E7" }, "geometry": { "type": "Point", "coordinates": [ 104.150391, 16.045813 ] } }
{ "type": "Feature", "tippecanoe": { "layer": "2AFCA1A196681583915785068", "minzoom": 2, "maxzoom": 8 }, "properties": { "halo": 1.8, "title": "水真腊王国", "fontsize": 12, "tyid": "304000", "oid": "103:1576922419469", "color": "#0056E7" }, "geometry": { "type": "Point", "coordinates": [ 105.205078, 12.125264 ] } }
{ "type": "Feature", "tippecanoe": { "layer": "2AFCA1A196681583915785068", "minzoom": 2, "maxzoom": 8 }, "properties": { "halo": 1.8, "title": "唐", "fontsize": 12, "tyid": "304000", "oid": "103:1537435996111", "color": "#0056E7" }, "geometry": { "type": "Point", "coordinates": [ 112.675781, 36.173357 ] } }
{ "type": "Feature", "tippecanoe": { "layer": "2AFCA1A196681583915785068", "minzoom": 2, "maxzoom": 8 }, "properties": { "halo": 1.8, "title": "日本奈良时代", "fontsize": 12, "tyid": "304000", "oid": "103:1576922419462", "color": "#0056E7" }, "geometry": { "type": "Point", "coordinates": [ 138.339844, 36.102376 ] } }
{ "type": "Feature", "tippecanoe": { "layer": "2AFCA1A196681583915785068", "minzoom": 2, "maxzoom": 8 }, "properties": { "halo": 1.6, "title": "西班图人诸部", "fontsize": 12, "tyid": "304002", "oid": "103:1535120170418", "color": "#0056E7" }, "geometry": { "type": "Point", "coordinates": [ 18.720703, -12.554564 ] } }
{ "type": "Feature", "tippecanoe": { "layer": "2AFCA1A196681583915785068", "minzoom": 2, "maxzoom": 8 }, "properties": { "halo": 1.6, "title": "东班图人诸部", "fontsize": 12, "tyid": "304002", "oid": "103:1537435996269", "color": "#0056E7" }, "geometry": { "type": "Point", "coordinates": [ 31.201172, -10.401378 ] } }
{ "type": "Feature", "tippecanoe": { "layer": "2AFCA1A196681583915785068", "minzoom": 2, "maxzoom": 8 }, "properties": { "halo": 1.6, "title": "斯瓦西里人", "fontsize": 12, "tyid": "304001", "oid": "103:1535120170411", "color": "#0056E7" }, "geometry": { "type": "Point", "coordinates": [ 36.386719, -17.056785 ] } }
{ "type": "Feature", "tippecanoe": { "layer": "2AFCA1A196681583915785068", "minzoom": 2, "maxzoom": 8 }, "properties": { "halo": 1.6, "title": "科伊桑人", "fontsize": 12, "tyid": "304002", "oid": "103:1535120170414", "color": "#0056E7" }, "geometry": { "type": "Point", "coordinates": [ 24.433594, -27.761330 ] } }
{ "type": "Feature", "tippecanoe": { "layer": "2AFCA1A196681583915785068", "minzoom": 2, "maxzoom": 8 }, "properties": { "halo": 1.8, "title": "三佛齐王国", "fontsize": 12, "tyid": "304000", "oid": "103:1537435996186", "color": "#0056E7" }, "geometry": { "type": "Point", "coordinates": [ 101.777344, -0.175781 ] } }
{ "type": "Feature", "tippecanoe": { "layer": "2AFCA1A198281583915785070", "minzoom": 2, "maxzoom": 8 }, "properties": { "halo": 1.6, "title": "福切马里尼文化", "fontsize": 12, "tyid": "304002", "oid": "103:1576922419490", "color": "#0056E7" }, "geometry": { "type": "Point", "coordinates": [ -94.570312, 33.943360 ] } }
{ "type": "Feature", "tippecanoe": { "layer": "2AFCA1A198281583915785070", "minzoom": 2, "maxzoom": 8 }, "properties": { "halo": 1.6, "title": "梅花河口文化", "fontsize": 12, "tyid": "304002", "oid": "103:1537435996371", "color": "#0056E7" }, "geometry": { "type": "Point", "coordinates": [ -91.669922, 34.669359 ] } }
{ "type": "Feature", "tippecanoe": { "layer": "2AFCA1A198281583915785070", "minzoom": 2, "maxzoom": 8 }, "properties": { "halo": 1.6, "title": "科尔斯溪文化", "fontsize": 12, "tyid": "304002", "oid": "103:1537435996356", "color": "#0056E7" }, "geometry": { "type": "Point", "coordinates": [ -91.318359, 31.353637 ] } }
{ "type": "Feature", "tippecanoe": { "layer": "2AFCA1A198281583915785070", "minzoom": 2, "maxzoom": 8 }, "properties": { "halo": 1.6, "title": "萨波特克文明", "fontsize": 12, "tyid": "304002", "oid": "103:1535120170456", "color": "#0056E7" }, "geometry": { "type": "Point", "coordinates": [ -95.888672, 16.888660 ] } }
{ "type": "Feature", "tippecanoe": { "layer": "2AFCA1A198281583915785070", "minzoom": 2, "maxzoom": 8 }, "properties": { "halo": 1.6, "title": "维登岛文化", "fontsize": 12, "tyid": "304002", "oid": "103:1537435996359", "color": "#0056E7" }, "geometry": { "type": "Point", "coordinates": [ -85.253906, 30.826781 ] } }
{ "type": "Feature", "tippecanoe": { "layer": "2AFCA1A198281583915785070", "minzoom": 2, "maxzoom": 8 }, "properties": { "halo": 1.8, "title": "皮克特诸王国", "fontsize": 12, "tyid": "304000", "oid": "103:1537435995971", "color": "#0056E7" }, "geometry": { "type": "Point", "coordinates": [ -4.042969, 56.704506 ] } }
{ "type": "Feature", "tippecanoe": { "layer": "2AFCA1A198281583915785070", "minzoom": 2, "maxzoom": 8 }, "properties": { "halo": 1.6, "title": "康诺特诸王国", "fontsize": 12, "tyid": "304002", "oid": "103:1537435995918", "color": "#0056E7" }, "geometry": { "type": "Point", "coordinates": [ -8.964844, 53.748711 ] } }
{ "type": "Feature", "tippecanoe": { "layer": "2AFCA1A198281583915785070", "minzoom": 2, "maxzoom": 8 }, "properties": { "halo": 1.8, "title": "明斯特王国", "fontsize": 12, "tyid": "304000", "oid": "103:1576922419425", "color": "#0056E7" }, "geometry": { "type": "Point", "coordinates": [ -8.789062, 52.321911 ] } }
{ "type": "Feature", "tippecanoe": { "layer": "2AFCA1A198281583915785070", "minzoom": 2, "maxzoom": 8 }, "properties": { "halo": 1.8, "title": "斯特拉瑟克雷德王国", "fontsize": 12, "tyid": "304000", "oid": "103:1537435995884", "color": "#0056E7" }, "geometry": { "type": "Point", "coordinates": [ -4.218750, 55.429013 ] } }
{ "type": "Feature", "tippecanoe": { "layer": "2AFCA1A198281583915785070", "minzoom": 2, "maxzoom": 8 }, "properties": { "halo": 1.8, "title": "诺森布里亚王国", "fontsize": 12, "tyid": "304000", "oid": "103:1535120169881", "color": "#0056E7" }, "geometry": { "type": "Point", "coordinates": [ -1.582031, 54.418930 ] } }
{ "type": "Feature", "tippecanoe": { "layer": "2AFCA1A198281583915785070", "minzoom": 2, "maxzoom": 8 }, "properties": { "halo": 1.8, "title": "麦西亚王国", "fontsize": 12, "tyid": "304000", "oid": "103:1535120169859", "color": "#0056E7" }, "geometry": { "type": "Point", "coordinates": [ -1.406250, 52.536273 ] } }
{ "type": "Feature", "tippecanoe": { "layer": "2AFCA1A198281583915785070", "minzoom": 2, "maxzoom": 8 }, "properties": { "halo": 1.8, "title": "威塞克斯王国", "fontsize": 12, "tyid": "304000", "oid": "103:1537435995890", "color": "#0056E7" }, "geometry": { "type": "Point", "coordinates": [ -2.724609, 51.013755 ] } }
{ "type": "Feature", "tippecanoe": { "layer": "2AFCA1A198281583915785070", "minzoom": 2, "maxzoom": 8 }, "properties": { "halo": 1.8, "title": "阿斯图里亚斯王国", "fontsize": 12, "tyid": "304000", "oid": "103:1535120169959", "color": "#0056E7" }, "geometry": { "type": "Point", "coordinates": [ -5.976562, 42.488302 ] } }
{ "type": "Feature", "tippecanoe": { "layer": "2AFCA1A198281583915785070", "minzoom": 2, "maxzoom": 8 }, "properties": { "halo": 1.8, "title": "凯尔特布立吞人", "fontsize": 12, "tyid": "304000", "oid": "103:1537435995962", "color": "#0056E7" }, "geometry": { "type": "Point", "coordinates": [ -3.164062, 48.224673 ] } }
{ "type": "Feature", "tippecanoe": { "layer": "2AFCA1A198281583915785070", "minzoom": 2, "maxzoom": 8 }, "properties": { "halo": 1.6, "title": "巴哈瓦塔联盟", "fontsize": 12, "tyid": "304002", "oid": "103:1535120169940", "color": "#0056E7" }, "geometry": { "type": "Point", "coordinates": [ -7.998047, 32.546813 ] } }
{ "type": "Feature", "tippecanoe": { "layer": "2AFCA1A198281583915785070", "minzoom": 2, "maxzoom": 8 }, "properties": { "halo": 1.8, "title": "特莱姆森伊芙兰埃米尔国", "fontsize": 12, "tyid": "304000", "oid": "103:1576922419433", "color": "#0056E7" }, "geometry": { "type": "Point", "coordinates": [ -0.966797, 34.597042 ] } }
{ "type": "Feature", "tippecanoe": { "layer": "2AFCA1A198281583915785070", "minzoom": 2, "maxzoom": 8 }, "properties": { "halo": 1.8, "title": "西吉尔马萨埃米尔国", "fontsize": 12, "tyid": "304000", "oid": "103:1576922419435", "color": "#0056E7" }, "geometry": { "type": "Point", "coordinates": [ -4.394531, 30.977609 ] } }
{ "type": "Feature", "tippecanoe": { "layer": "2AFCA1A198281583915785070", "minzoom": 2, "maxzoom": 8 }, "properties": { "halo": 1.8, "title": "加纳帝国", "fontsize": 12, "tyid": "304000", "oid": "103:1535120170372", "color": "#0056E7" }, "geometry": { "type": "Point", "coordinates": [ -8.789062, 15.368950 ] } }
{ "type": "Feature", "tippecanoe": { "layer": "2AFCA1A198281583915785070", "minzoom": 2, "maxzoom": 8 }, "properties": { "halo": 1.6, "title": "丹麦人", "fontsize": 12, "tyid": "304001", "oid": "103:1535120169982", "color": "#0056E7" }, "geometry": { "type": "Point", "coordinates": [ 9.052734, 56.218923 ] } }
{ "type": "Feature", "tippecanoe": { "layer": "2AFCA1A198281583915785070", "minzoom": 2, "maxzoom": 8 }, "properties": { "halo": 1.6, "title": "古拉脱维亚人", "fontsize": 12, "tyid": "304001", "oid": "103:1537435996012", "color": "#0056E7" }, "geometry": { "type": "Point", "coordinates": [ 22.412109, 57.088515 ] } }
{ "type": "Feature", "tippecanoe": { "layer": "2AFCA1A198281583915785070", "minzoom": 2, "maxzoom": 8 }, "properties": { "halo": 1.6, "title": "波西米亚人", "fontsize": 12, "tyid": "304001", "oid": "103:1535120170043", "color": "#0056E7" }, "geometry": { "type": "Point", "coordinates": [ 14.326172, 49.837982 ] } }
{ "type": "Feature", "tippecanoe": { "layer": "2AFCA1A198281583915785070", "minzoom": 2, "maxzoom": 8 }, "properties": { "halo": 1.6, "title": "古普鲁士人", "fontsize": 12, "tyid": "304001", "oid": "103:1535120170105", "color": "#0056E7" }, "geometry": { "type": "Point", "coordinates": [ 20.742188, 54.265224 ] } }
{ "type": "Feature", "tippecanoe": { "layer": "2AFCA1A198281583915785070", "minzoom": 2, "maxzoom": 8 }, "properties": { "halo": 1.8, "title": "巴伐利亚公国", "fontsize": 12, "tyid": "304000", "oid": "103:1535120170332", "color": "#0056E7" }, "geometry": { "type": "Point", "coordinates": [ 12.568359, 48.107431 ] } }
{ "type": "Feature", "tippecanoe": { "layer": "2AFCA1A198281583915785070", "minzoom": 2, "maxzoom": 8 }, "properties": { "halo": 1.8, "title": "卡兰塔尼亚亲王国", "fontsize": 12, "tyid": "304000", "oid": "103:1537435996042", "color": "#0056E7" }, "geometry": { "type": "Point", "coordinates": [ 14.765625, 47.100045 ] } }
{ "type": "Feature", "tippecanoe": { "layer": "2AFCA1A198281583915785070", "minzoom": 2, "maxzoom": 8 }, "properties": { "halo": 1.8, "title": "教皇国", "fontsize": 12, "tyid": "304000", "oid": "103:1535120170062", "color": "#0056E7" }, "geometry": { "type": "Point", "coordinates": [ 11.865234, 44.276671 ] } }
{ "type": "Feature", "tippecanoe": { "layer": "2AFCA1A198281583915785070", "minzoom": 2, "maxzoom": 8 }, "properties": { "halo": 1.8, "title": "克罗地亚公国", "fontsize": 12, "tyid": "304000", "oid": "103:1535120170088", "color": "#0056E7" }, "geometry": { "type": "Point", "coordinates": [ 16.435547, 44.840291 ] } }
{ "type": "Feature", "tippecanoe": { "layer": "2AFCA1A198281583915785070", "minzoom": 2, "maxzoom": 8 }, "properties": { "halo": 1.8, "title": "贝内文托亲王国", "fontsize": 12, "tyid": "304000", "oid": "103:1537435996023", "color": "#0056E7" }, "geometry": { "type": "Point", "coordinates": [ 15.380859, 41.112469 ] } }
{ "type": "Feature", "tippecanoe": { "layer": "2AFCA1A198281583915785070", "minzoom": 2, "maxzoom": 8 }, "properties": { "halo": 1.6, "title": "卡累利阿人", "fontsize": 12, "tyid": "304001", "oid": "103:1535120170025", "color": "#0056E7" }, "geometry": { "type": "Point", "coordinates": [ 31.552734, 61.689872 ] } }
{ "type": "Feature", "tippecanoe": { "layer": "2AFCA1A198281583915785070", "minzoom": 2, "maxzoom": 8 }, "properties": { "halo": 1.6, "title": "哈马莱舍特人", "fontsize": 12, "tyid": "304001", "oid": "103:1535120170007", "color": "#0056E7" }, "geometry": { "type": "Point", "coordinates": [ 24.785156, 61.354614 ] } }
{ "type": "Feature", "tippecanoe": { "layer": "2AFCA1A198281583915785070", "minzoom": 2, "maxzoom": 8 }, "properties": { "halo": 1.6, "title": "古爱沙尼亚人", "fontsize": 12, "tyid": "304001", "oid": "103:1535120169992", "color": "#0056E7" }, "geometry": { "type": "Point", "coordinates": [ 25.664062, 58.859224 ] } }
{ "type": "Feature", "tippecanoe": { "layer": "2AFCA1A198281583915785070", "minzoom": 2, "maxzoom": 8 }, "properties": { "halo": 1.6, "title": "利沃尼亚人", "fontsize": 12, "tyid": "304001", "oid": "103:1535120170033", "color": "#0056E7" }, "geometry": { "type": "Point", "coordinates": [ 25.488281, 57.562995 ] } }
{ "type": "Feature", "tippecanoe": { "layer": "2AFCA1A198281583915785070", "minzoom": 2, "maxzoom": 8 }, "properties": { "halo": 1.6, "title": "维普森人", "fontsize": 12, "tyid": "304001", "oid": "103:1535120170143", "color": "#0056E7" }, "geometry": { "type": "Point", "coordinates": [ 36.738281, 59.400365 ] } }
{ "type": "Feature", "tippecanoe": { "layer": "2AFCA1A198281583915785070", "minzoom": 2, "maxzoom": 8 }, "properties": { "halo": 1.6, "title": "米利亚人", "fontsize": 12, "tyid": "304001", "oid": "103:1535120170148", "color": "#0056E7" }, "geometry": { "type": "Point", "coordinates": [ 39.375000, 57.279043 ] } }
{ "type": "Feature", "tippecanoe": { "layer": "2AFCA1A198281583915785070", "minzoom": 2, "maxzoom": 8 }, "properties": { "halo": 1.6, "title": "米舒拉人", "fontsize": 12, "tyid": "304001", "oid": "103:1535120170153", "color": "#0056E7" }, "geometry": { "type": "Point", "coordinates": [ 40.693359, 55.875311 ] } }
{ "type": "Feature", "tippecanoe": { "layer": "2AFCA1A198281583915785070", "minzoom": 2, "maxzoom": 8 }, "properties": { "halo": 1.6, "title": "马里人", "fontsize": 12, "tyid": "304001", "oid": "103:1535120170156", "color": "#0056E7" }, "geometry": { "type": "Point", "coordinates": [ 43.681641, 58.447733 ] } }
{ "type": "Feature", "tippecanoe": { "layer": "2AFCA1A198281583915785070", "minzoom": 2, "maxzoom": 8 }, "properties": { "halo": 1.6, "title": "萨莫吉希亚人", "fontsize": 12, "tyid": "304001", "oid": "103:1576922419442", "color": "#0056E7" }, "geometry": { "type": "Point", "coordinates": [ 23.466797, 55.677584 ] } }
{ "type": "Feature", "tippecanoe": { "layer": "2AFCA1A198281583915785070", "minzoom": 2, "maxzoom": 8 }, "properties": { "halo": 1.6, "title": "古立陶宛人", "fontsize": 12, "tyid": "304001", "oid": "103:1535120170110", "color": "#0056E7" }, "geometry": { "type": "Point", "coordinates": [ 24.257812, 54.470038 ] } }
{ "type": "Feature", "tippecanoe": { "layer": "2AFCA1A198281583915785070", "minzoom": 2, "maxzoom": 8 }, "properties": { "halo": 1.6, "title": "约特文基人", "fontsize": 12, "tyid": "304001", "oid": "103:1576922419443", "color": "#0056E7" }, "geometry": { "type": "Point", "coordinates": [ 22.587891, 53.383328 ] } }
{ "type": "Feature", "tippecanoe": { "layer": "2AFCA1A198281583915785070", "minzoom": 2, "maxzoom": 8 }, "properties": { "halo": 1.6, "title": "莫尔多维亚人", "fontsize": 12, "tyid": "304001", "oid": "103:1535120170159", "color": "#0056E7" }, "geometry": { "type": "Point", "coordinates": [ 41.396484, 54.418930 ] } }
{ "type": "Feature", "tippecanoe": { "layer": "2AFCA1A198281583915785070", "minzoom": 2, "maxzoom": 8 }, "properties": { "halo": 1.8, "title": "阿布哈兹王国", "fontsize": 12, "tyid": "304000", "oid": "103:1535120170323", "color": "#0056E7" }, "geometry": { "type": "Point", "coordinates": [ 42.011719, 42.617791 ] } }
{ "type": "Feature", "tippecanoe": { "layer": "2AFCA1A198281583915785070", "minzoom": 2, "maxzoom": 8 }, "properties": { "halo": 1.8, "title": "伊比利亚亲王国", "fontsize": 12, "tyid": "304000", "oid": "103:1535120170330", "color": "#0056E7" }, "geometry": { "type": "Point", "coordinates": [ 44.560547, 42.228517 ] } }
{ "type": "Feature", "tippecanoe": { "layer": "2AFCA1A198281583915785070", "minzoom": 2, "maxzoom": 8 }, "properties": { "halo": 1.8, "title": "鲁斯塔米王朝", "fontsize": 12, "tyid": "304000", "oid": "103:1535120169943", "color": "#0056E7" }, "geometry": { "type": "Point", "coordinates": [ 3.164062, 35.317366 ] } }
{ "type": "Feature", "tippecanoe": { "layer": "2AFCA1A198281583915785070", "minzoom": 2, "maxzoom": 8 }, "properties": { "halo": 1.6, "title": "豪萨人", "fontsize": 12, "tyid": "304001", "oid": "103:1535120170399", "color": "#0056E7" }, "geometry": { "type": "Point", "coordinates": [ 7.822266, 13.752725 ] } }
{ "type": "Feature", "tippecanoe": { "layer": "2AFCA1A198281583915785070", "minzoom": 2, "maxzoom": 8 }, "properties": { "halo": 1.6, "title": "约鲁巴人", "fontsize": 12, "tyid": "304001", "oid": "103:1535120170407", "color": "#0056E7" }, "geometry": { "type": "Point", "coordinates": [ 5.009766, 6.839170 ] } }
{ "type": "Feature", "tippecanoe": { "layer": "2AFCA1A198281583915785070", "minzoom": 2, "maxzoom": 8 }, "properties": { "halo": 1.8, "title": "阿罗底亚王国", "fontsize": 12, "tyid": "304000", "oid": "103:1576922419486", "color": "#0056E7" }, "geometry": { "type": "Point", "coordinates": [ 33.662109, 14.859850 ] } }
{ "type": "Feature", "tippecanoe": { "layer": "2AFCA1A198281583915785070", "minzoom": 2, "maxzoom": 8 }, "properties": { "halo": 1.6, "title": "富尔人", "fontsize": 12, "tyid": "304001", "oid": "103:1535120170390", "color": "#0056E7" }, "geometry": { "type": "Point", "coordinates": [ 33.222656, 11.609193 ] } }
{ "type": "Feature", "tippecanoe": { "layer": "2AFCA1A198281583915785070", "minzoom": 2, "maxzoom": 8 }, "properties": { "halo": 1.6, "title": "贝扎人", "fontsize": 12, "tyid": "304001", "oid": "103:1535120170386", "color": "#0056E7" }, "geometry": { "type": "Point", "coordinates": [ 35.244141, 20.961440 ] } }
{ "type": "Feature", "tippecanoe": { "layer": "2AFCA1A198281583915785070", "minzoom": 2, "maxzoom": 8 }, "properties": { "halo": 1.8, "title": "伏尔加保加利亚汗国", "fontsize": 12, "tyid": "304000", "oid": "103:1537435996083", "color": "#0056E7" }, "geometry": { "type": "Point", "coordinates": [ 47.373047, 54.316523 ] } }
{ "type": "Feature", "tippecanoe": { "layer": "2AFCA1A198281583915785070", "minzoom": 2, "maxzoom": 8 }, "properties": { "halo": 1.6, "title": "拔悉密部落", "fontsize": 12, "tyid": "304001", "oid": "103:1537435996106", "color": "#0056E7" }, "geometry": { "type": "Point", "coordinates": [ 85.166016, 47.754098 ] } }
{ "type": "Feature", "tippecanoe": { "layer": "2AFCA1A198281583915785070", "minzoom": 2, "maxzoom": 8 }, "properties": { "halo": 1.8, "title": "布哈拉胡达斯", "fontsize": 12, "tyid": "304000", "oid": "103:1535120170342", "color": "#0056E7" }, "geometry": { "type": "Point", "coordinates": [ 64.511719, 39.842286 ] } }
{ "type": "Feature", "tippecanoe": { "layer": "2AFCA1A198281583915785070", "minzoom": 2, "maxzoom": 8 }, "properties": { "halo": 1.8, "title": "尊比王朝", "fontsize": 12, "tyid": "304000", "oid": "103:1535120170190", "color": "#0056E7" }, "geometry": { "type": "Point", "coordinates": [ 65.654297, 31.503629 ] } }
{ "type": "Feature", "tippecanoe": { "layer": "2AFCA1A198281583915785070", "minzoom": 2, "maxzoom": 8 }, "properties": { "halo": 1.8, "title": "费尔干纳亲王国", "fontsize": 12, "tyid": "304000", "oid": "103:1535120170348", "color": "#0056E7" }, "geometry": { "type": "Point", "coordinates": [ 71.718750, 40.647304 ] } }
{ "type": "Feature", "tippecanoe": { "layer": "2AFCA1A198281583915785070", "minzoom": 2, "maxzoom": 8 }, "properties": { "halo": 1.8, "title": "遮伏多王朝", "fontsize": 12, "tyid": "304000", "oid": "103:1535120170351", "color": "#0056E7" }, "geometry": { "type": "Point", "coordinates": [ 71.806641, 22.998852 ] } }
{ "type": "Feature", "tippecanoe": { "layer": "2AFCA1A198281583915785070", "minzoom": 2, "maxzoom": 8 }, "properties": { "halo": 1.8, "title": "萨姆巴尔的乔汉王朝", "fontsize": 12, "tyid": "304000", "oid": "103:1576922419452", "color": "#0056E7" }, "geometry": { "type": "Point", "coordinates": [ 74.443359, 27.916767 ] } }
{ "type": "Feature", "tippecanoe": { "layer": "2AFCA1A198281583915785070", "minzoom": 2, "maxzoom": 8 }, "properties": { "halo": 1.8, "title": "吐末罗王朝", "fontsize": 12, "tyid": "304000", "oid": "103:1576922419451", "color": "#0056E7" }, "geometry": { "type": "Point", "coordinates": [ 76.201172, 29.305561 ] } }
{ "type": "Feature", "tippecanoe": { "layer": "2AFCA1A198281583915785070", "minzoom": 2, "maxzoom": 8 }, "properties": { "halo": 1.8, "title": "戛丘里王朝", "fontsize": 12, "tyid": "304000", "oid": "103:1535120170202", "color": "#0056E7" }, "geometry": { "type": "Point", "coordinates": [ 79.013672, 30.145127 ] } }
{ "type": "Feature", "tippecanoe": { "layer": "2AFCA1A198281583915785070", "minzoom": 2, "maxzoom": 8 }, "properties": { "halo": 1.8, "title": "特里普里的卡拉丘里王朝", "fontsize": 12, "tyid": "304000", "oid": "103:1535120170425", "color": "#0056E7" }, "geometry": { "type": "Point", "coordinates": [ 81.035156, 22.998852 ] } }
{ "type": "Feature", "tippecanoe": { "layer": "2AFCA1A198281583915785070", "minzoom": 2, "maxzoom": 8 }, "properties": { "halo": 1.8, "title": "杰达拉塔王朝", "fontsize": 12, "tyid": "304000", "oid": "103:1535120170212", "color": "#0056E7" }, "geometry": { "type": "Point", "coordinates": [ 70.488281, 21.943046 ] } }
{ "type": "Feature", "tippecanoe": { "layer": "2AFCA1A198281583915785070", "minzoom": 2, "maxzoom": 8 }, "properties": { "halo": 1.8, "title": "西恒伽王朝", "fontsize": 12, "tyid": "304000", "oid": "103:1535120170224", "color": "#0056E7" },