{ "type": "Feature", "tippecanoe": { "layer": "2AFCA0B344A81583915776463", "minzoom": 2, "maxzoom": 8 }, "properties": { "halo": 0.8, "title": "阿拉楚阿文化", "fontsize": 12, "tyid": "304002", "oid": "103:1576575147347", "color": "#262626" }, "geometry": { "type": "Point", "coordinates": [ -82.441406, 29.611670 ] } }
{ "type": "Feature", "tippecanoe": { "layer": "2AFCA0B344A81583915776463", "minzoom": 2, "maxzoom": 8 }, "properties": { "halo": 0.8, "title": "维京人", "fontsize": 12, "tyid": "304001", "oid": "103:1576575147362", "color": "#262626" }, "geometry": { "type": "Point", "coordinates": [ -1.406250, 60.326948 ] } }
{ "type": "Feature", "tippecanoe": { "layer": "2AFCA0B344A81583915776463", "minzoom": 2, "maxzoom": 8 }, "properties": { "halo": 0.8, "title": "达尔里阿达王国", "fontsize": 12, "tyid": "304000", "oid": "103:1576575147360", "color": "#202020" }, "geometry": { "type": "Point", "coordinates": [ -5.361328, 56.316537 ] } }
{ "type": "Feature", "tippecanoe": { "layer": "2AFCA0B344A81583915776463", "minzoom": 2, "maxzoom": 8 }, "properties": { "halo": 0.8, "title": "埃里克王国", "fontsize": 12, "tyid": "304000", "oid": "103:1576575147358", "color": "#202020" }, "geometry": { "type": "Point", "coordinates": [ -7.646484, 54.622978 ] } }
{ "type": "Feature", "tippecanoe": { "layer": "2AFCA0B344A81583915776463", "minzoom": 2, "maxzoom": 8 }, "properties": { "halo": 0.8, "title": "乌勒王国", "fontsize": 12, "tyid": "304000", "oid": "103:1576575147375", "color": "#202020" }, "geometry": { "type": "Point", "coordinates": [ -6.152344, 54.622978 ] } }
{ "type": "Feature", "tippecanoe": { "layer": "2AFCA0B344A81583915776463", "minzoom": 2, "maxzoom": 8 }, "properties": { "halo": 0.8, "title": "布雷芬内王国", "fontsize": 12, "tyid": "304000", "oid": "103:1576575147371", "color": "#202020" }, "geometry": { "type": "Point", "coordinates": [ -7.646484, 54.110943 ] } }
{ "type": "Feature", "tippecanoe": { "layer": "2AFCA0B344A81583915776463", "minzoom": 2, "maxzoom": 8 }, "properties": { "halo": 0.8, "title": "米瑟王国", "fontsize": 12, "tyid": "304000", "oid": "103:1576575147369", "color": "#202020" }, "geometry": { "type": "Point", "coordinates": [ -7.558594, 53.540307 ] } }
{ "type": "Feature", "tippecanoe": { "layer": "2AFCA0B344A81583915776463", "minzoom": 2, "maxzoom": 8 }, "properties": { "halo": 0.8, "title": "奥斯拉尔王国", "fontsize": 12, "tyid": "304000", "oid": "103:1576575147363", "color": "#202020" }, "geometry": { "type": "Point", "coordinates": [ -7.382812, 52.696361 ] } }
{ "type": "Feature", "tippecanoe": { "layer": "2AFCA0B344A81583915776463", "minzoom": 2, "maxzoom": 8 }, "properties": { "halo": 0.8, "title": "奥利尔王国", "fontsize": 12, "tyid": "304000", "oid": "103:1576575147373", "color": "#202020" }, "geometry": { "type": "Point", "coordinates": [ -6.855469, 54.162434 ] } }
{ "type": "Feature", "tippecanoe": { "layer": "2AFCA0B344A81583915776463", "minzoom": 2, "maxzoom": 8 }, "properties": { "halo": 0.8, "title": "伦斯特王国", "fontsize": 12, "tyid": "304000", "oid": "103:1576575147365", "color": "#202020" }, "geometry": { "type": "Point", "coordinates": [ -6.767578, 52.908902 ] } }
{ "type": "Feature", "tippecanoe": { "layer": "2AFCA0B344A81583915776463", "minzoom": 2, "maxzoom": 8 }, "properties": { "halo": 0.8, "title": "格温内斯王国", "fontsize": 12, "tyid": "304000", "oid": "103:1576575147354", "color": "#202020" }, "geometry": { "type": "Point", "coordinates": [ -3.867188, 53.014783 ] } }
{ "type": "Feature", "tippecanoe": { "layer": "2AFCA0B344A81583915776463", "minzoom": 2, "maxzoom": 8 }, "properties": { "halo": 0.8, "title": "波威斯王国", "fontsize": 12, "tyid": "304000", "oid": "103:1576575147297", "color": "#202020" }, "geometry": { "type": "Point", "coordinates": [ -3.339844, 52.589701 ] } }
{ "type": "Feature", "tippecanoe": { "layer": "2AFCA0B344A81583915776463", "minzoom": 2, "maxzoom": 8 }, "properties": { "halo": 0.8, "title": "达费德王国", "fontsize": 12, "tyid": "304000", "oid": "103:1576575147298", "color": "#202020" }, "geometry": { "type": "Point", "coordinates": [ -4.833984, 51.890054 ] } }
{ "type": "Feature", "tippecanoe": { "layer": "2AFCA0B344A81583915776463", "minzoom": 2, "maxzoom": 8 }, "properties": { "halo": 0.8, "title": "格温特王国", "fontsize": 12, "tyid": "304000", "oid": "103:1576575147295", "color": "#202020" }, "geometry": { "type": "Point", "coordinates": [ -3.691406, 51.890054 ] } }
{ "type": "Feature", "tippecanoe": { "layer": "2AFCA0B344A81583915776463", "minzoom": 2, "maxzoom": 8 }, "properties": { "halo": 0.8, "title": "萨塞克斯王国", "fontsize": 12, "tyid": "304000", "oid": "103:1576575147376", "color": "#202020" }, "geometry": { "type": "Point", "coordinates": [ -0.175781, 51.013755 ] } }
{ "type": "Feature", "tippecanoe": { "layer": "2AFCA0B344A81583915776463", "minzoom": 2, "maxzoom": 8 }, "properties": { "halo": 0.8, "title": "奈克尔埃米尔国", "fontsize": 12, "tyid": "304000", "oid": "103:1576575147300", "color": "#202020" }, "geometry": { "type": "Point", "coordinates": [ -3.515625, 35.029996 ] } }
{ "type": "Feature", "tippecanoe": { "layer": "2AFCA0B344A81583915776463", "minzoom": 2, "maxzoom": 8 }, "properties": { "halo": 0.8, "title": "哥得兰人", "fontsize": 12, "tyid": "304001", "oid": "103:1576575147401", "color": "#262626" }, "geometry": { "type": "Point", "coordinates": [ 18.457031, 57.515823 ] } }
{ "type": "Feature", "tippecanoe": { "layer": "2AFCA0B344A81583915776463", "minzoom": 2, "maxzoom": 8 }, "properties": { "halo": 0.8, "title": "埃塞克斯王国", "fontsize": 12, "tyid": "304000", "oid": "103:1576575147378", "color": "#202020" }, "geometry": { "type": "Point", "coordinates": [ 0.527344, 51.835778 ] } }
{ "type": "Feature", "tippecanoe": { "layer": "2AFCA0B344A81583915776463", "minzoom": 2, "maxzoom": 8 }, "properties": { "halo": 0.8, "title": "东盎格利亚王国", "fontsize": 12, "tyid": "304000", "oid": "103:1576575147380", "color": "#202020" }, "geometry": { "type": "Point", "coordinates": [ 0.966797, 52.482780 ] } }
{ "type": "Feature", "tippecanoe": { "layer": "2AFCA0B344A81583915776463", "minzoom": 2, "maxzoom": 8 }, "properties": { "halo": 0.8, "title": "肯特王国", "fontsize": 12, "tyid": "304000", "oid": "103:1576575147353", "color": "#202020" }, "geometry": { "type": "Point", "coordinates": [ 0.703125, 51.234407 ] } }
{ "type": "Feature", "tippecanoe": { "layer": "2AFCA0B344A81583915776463", "minzoom": 2, "maxzoom": 8 }, "properties": { "halo": 0.8, "title": "弗里斯兰人", "fontsize": 12, "tyid": "304001", "oid": "103:1576575147398", "color": "#262626" }, "geometry": { "type": "Point", "coordinates": [ 9.052734, 54.418930 ] } }
{ "type": "Feature", "tippecanoe": { "layer": "2AFCA0B344A81583915776463", "minzoom": 2, "maxzoom": 8 }, "properties": { "halo": 0.8, "title": "萨克森人", "fontsize": 12, "tyid": "304002", "oid": "103:1576575147410", "color": "#262626" }, "geometry": { "type": "Point", "coordinates": [ 9.843750, 54.007769 ] } }
{ "type": "Feature", "tippecanoe": { "layer": "2AFCA0B344A81583915776463", "minzoom": 2, "maxzoom": 8 }, "properties": { "halo": 0.8, "title": "威尼斯共和国", "fontsize": 12, "tyid": "304000", "oid": "103:1576575147565", "color": "#202020" }, "geometry": { "type": "Point", "coordinates": [ 12.304688, 45.583290 ] } }
{ "type": "Feature", "tippecanoe": { "layer": "2AFCA0B344A81583915776463", "minzoom": 2, "maxzoom": 8 }, "properties": { "halo": 0.8, "title": "纳伦廷人", "fontsize": 12, "tyid": "304001", "oid": "103:1576575147303", "color": "#262626" }, "geometry": { "type": "Point", "coordinates": [ 17.226562, 43.261206 ] } }
{ "type": "Feature", "tippecanoe": { "layer": "2AFCA0B344A81583915776463", "minzoom": 2, "maxzoom": 8 }, "properties": { "halo": 0.8, "title": "奥耶塞利人", "fontsize": 12, "tyid": "304001", "oid": "103:1576575147402", "color": "#262626" }, "geometry": { "type": "Point", "coordinates": [ 22.500000, 58.447733 ] } }
{ "type": "Feature", "tippecanoe": { "layer": "2AFCA0B344A81583915776463", "minzoom": 2, "maxzoom": 8 }, "properties": { "halo": 0.8, "title": "沃茨人", "fontsize": 12, "tyid": "304001", "oid": "103:1576575147414", "color": "#262626" }, "geometry": { "type": "Point", "coordinates": [ 29.003906, 59.310768 ] } }
{ "type": "Feature", "tippecanoe": { "layer": "2AFCA0B344A81583915776463", "minzoom": 2, "maxzoom": 8 }, "properties": { "halo": 0.8, "title": "莫拉玛人", "fontsize": 12, "tyid": "304001", "oid": "103:1576575147451", "color": "#262626" }, "geometry": { "type": "Point", "coordinates": [ 41.396484, 56.656226 ] } }
{ "type": "Feature", "tippecanoe": { "layer": "2AFCA0B344A81583915776463", "minzoom": 2, "maxzoom": 8 }, "properties": { "halo": 0.8, "title": "第比利斯埃米尔国", "fontsize": 12, "tyid": "304000", "oid": "103:1576575147337", "color": "#202020" }, "geometry": { "type": "Point", "coordinates": [ 44.560547, 41.442726 ] } }
{ "type": "Feature", "tippecanoe": { "layer": "2AFCA0B344A81583915776463", "minzoom": 2, "maxzoom": 8 }, "properties": { "halo": 0.8, "title": "乌斯鲁萨那公国", "fontsize": 12, "tyid": "304000", "oid": "103:1576575147339", "color": "#202020" }, "geometry": { "type": "Point", "coordinates": [ 68.466797, 39.909736 ] } }
{ "type": "Feature", "tippecanoe": { "layer": "2AFCA0B344A81583915776463", "minzoom": 2, "maxzoom": 8 }, "properties": { "halo": 0.8, "title": "阿拉帕王朝", "fontsize": 12, "tyid": "304000", "oid": "103:1576575147487", "color": "#202020" }, "geometry": { "type": "Point", "coordinates": [ 74.970703, 13.325485 ] } }
{ "type": "Feature", "tippecanoe": { "layer": "2AFCA0B344A81583915776463", "minzoom": 2, "maxzoom": 8 }, "properties": { "halo": 0.8, "title": "朱罗国", "fontsize": 12, "tyid": "304000", "oid": "103:1576575147321", "color": "#202020" }, "geometry": { "type": "Point", "coordinates": [ 79.541016, 10.833306 ] } }
{ "type": "Feature", "tippecanoe": { "layer": "2AFCA0B344A81583915776463", "minzoom": 2, "maxzoom": 8 }, "properties": { "halo": 0.8, "title": "罗涡国", "fontsize": 12, "tyid": "304000", "oid": "103:1576575147335", "color": "#202020" }, "geometry": { "type": "Point", "coordinates": [ 100.810547, 14.519780 ] } }
{ "type": "Feature", "tippecanoe": { "layer": "2AFCA0B344A81583915776463", "minzoom": 2, "maxzoom": 8 }, "properties": { "halo": 0.8, "title": "刚迦王国", "fontsize": 12, "tyid": "304000", "oid": "103:1576575147512", "color": "#202020" }, "geometry": { "type": "Point", "coordinates": [ 100.810547, 4.565474 ] } }
{ "type": "Feature", "tippecanoe": { "layer": "2AFCA0B344A81583915776463", "minzoom": 2, "maxzoom": 8 }, "properties": { "halo": 0.8, "title": "婆皇国", "fontsize": 12, "tyid": "304000", "oid": "103:1576575147336", "color": "#202020" }, "geometry": { "type": "Point", "coordinates": [ 103.095703, 3.425692 ] } }
{ "type": "Feature", "tippecanoe": { "layer": "2AFCA0B344A81583915776463", "minzoom": 2, "maxzoom": 8 }, "properties": { "halo": 0.8, "title": "巽他王国", "fontsize": 12, "tyid": "304000", "oid": "103:1576575147515", "color": "#202020" }, "geometry": { "type": "Point", "coordinates": [ 106.611328, -6.664608 ] } }
{ "type": "Feature", "tippecanoe": { "layer": "2AFCA0E30EB81583915776461", "minzoom": 2, "maxzoom": 8 }, "properties": { "halo": 0.8, "title": "福切马里尼文化", "fontsize": 12, "tyid": "304002", "oid": "103:1576575147345", "color": "#262626" }, "geometry": { "type": "Point", "coordinates": [ -94.570312, 33.943360 ] } }
{ "type": "Feature", "tippecanoe": { "layer": "2AFCA0E30EB81583915776461", "minzoom": 2, "maxzoom": 8 }, "properties": { "halo": 0.8, "title": "梅花河口文化", "fontsize": 12, "tyid": "304002", "oid": "103:1576575147578", "color": "#262626" }, "geometry": { "type": "Point", "coordinates": [ -91.669922, 34.669359 ] } }
{ "type": "Feature", "tippecanoe": { "layer": "2AFCA0E30EB81583915776461", "minzoom": 2, "maxzoom": 8 }, "properties": { "halo": 0.8, "title": "科尔斯溪文化", "fontsize": 12, "tyid": "304002", "oid": "103:1576575147568", "color": "#262626" }, "geometry": { "type": "Point", "coordinates": [ -91.318359, 31.353637 ] } }
{ "type": "Feature", "tippecanoe": { "layer": "2AFCA0E30EB81583915776461", "minzoom": 2, "maxzoom": 8 }, "properties": { "halo": 0.8, "title": "萨波特克文明", "fontsize": 12, "tyid": "304002", "oid": "103:1576575147576", "color": "#262626" }, "geometry": { "type": "Point", "coordinates": [ -95.888672, 16.888660 ] } }
{ "type": "Feature", "tippecanoe": { "layer": "2AFCA0E30EB81583915776461", "minzoom": 2, "maxzoom": 8 }, "properties": { "halo": 0.8, "title": "维登岛文化", "fontsize": 12, "tyid": "304002", "oid": "103:1576575147570", "color": "#262626" }, "geometry": { "type": "Point", "coordinates": [ -85.253906, 30.826781 ] } }
{ "type": "Feature", "tippecanoe": { "layer": "2AFCA0E30EB81583915776461", "minzoom": 2, "maxzoom": 8 }, "properties": { "halo": 0.8, "title": "皮克特诸王国", "fontsize": 12, "tyid": "304000", "oid": "103:1576575147393", "color": "#202020" }, "geometry": { "type": "Point", "coordinates": [ -4.042969, 56.704506 ] } }
{ "type": "Feature", "tippecanoe": { "layer": "2AFCA0E30EB81583915776461", "minzoom": 2, "maxzoom": 8 }, "properties": { "halo": 0.8, "title": "康诺特诸王国", "fontsize": 12, "tyid": "304002", "oid": "103:1576575147367", "color": "#262626" }, "geometry": { "type": "Point", "coordinates": [ -8.964844, 53.748711 ] } }
{ "type": "Feature", "tippecanoe": { "layer": "2AFCA0E30EB81583915776461", "minzoom": 2, "maxzoom": 8 }, "properties": { "halo": 0.8, "title": "明斯特王国", "fontsize": 12, "tyid": "304000", "oid": "103:1576575147294", "color": "#202020" }, "geometry": { "type": "Point", "coordinates": [ -8.789062, 52.321911 ] } }
{ "type": "Feature", "tippecanoe": { "layer": "2AFCA0E30EB81583915776461", "minzoom": 2, "maxzoom": 8 }, "properties": { "halo": 0.8, "title": "斯特拉瑟克雷德王国", "fontsize": 12, "tyid": "304000", "oid": "103:1576575147350", "color": "#202020" }, "geometry": { "type": "Point", "coordinates": [ -4.218750, 55.429013 ] } }
{ "type": "Feature", "tippecanoe": { "layer": "2AFCA0E30EB81583915776461", "minzoom": 2, "maxzoom": 8 }, "properties": { "halo": 0.8, "title": "诺森布里亚王国", "fontsize": 12, "tyid": "304000", "oid": "103:1576575147356", "color": "#202020" }, "geometry": { "type": "Point", "coordinates": [ -1.582031, 54.418930 ] } }
{ "type": "Feature", "tippecanoe": { "layer": "2AFCA0E30EB81583915776461", "minzoom": 2, "maxzoom": 8 }, "properties": { "halo": 0.8, "title": "麦西亚王国", "fontsize": 12, "tyid": "304000", "oid": "103:1576575147348", "color": "#202020" }, "geometry": { "type": "Point", "coordinates": [ -1.406250, 52.536273 ] } }
{ "type": "Feature", "tippecanoe": { "layer": "2AFCA0E30EB81583915776461", "minzoom": 2, "maxzoom": 8 }, "properties": { "halo": 0.8, "title": "威塞克斯王国", "fontsize": 12, "tyid": "304000", "oid": "103:1576575147351", "color": "#202020" }, "geometry": { "type": "Point", "coordinates": [ -2.724609, 51.013755 ] } }
{ "type": "Feature", "tippecanoe": { "layer": "2AFCA0E30EB81583915776461", "minzoom": 2, "maxzoom": 8 }, "properties": { "halo": 0.8, "title": "阿斯图里亚斯王国", "fontsize": 12, "tyid": "304000", "oid": "103:1576575147389", "color": "#202020" }, "geometry": { "type": "Point", "coordinates": [ -5.976562, 42.488302 ] } }
{ "type": "Feature", "tippecanoe": { "layer": "2AFCA0E30EB81583915776461", "minzoom": 2, "maxzoom": 8 }, "properties": { "halo": 0.8, "title": "凯尔特布立吞人", "fontsize": 12, "tyid": "304000", "oid": "103:1576575147386", "color": "#202020" }, "geometry": { "type": "Point", "coordinates": [ -3.164062, 48.224673 ] } }
{ "type": "Feature", "tippecanoe": { "layer": "2AFCA0E30EB81583915776461", "minzoom": 2, "maxzoom": 8 }, "properties": { "halo": 0.8, "title": "巴哈瓦塔联盟", "fontsize": 12, "tyid": "304002", "oid": "103:1576575147381", "color": "#262626" }, "geometry": { "type": "Point", "coordinates": [ -7.998047, 32.546813 ] } }
{ "type": "Feature", "tippecanoe": { "layer": "2AFCA0E30EB81583915776461", "minzoom": 2, "maxzoom": 8 }, "properties": { "halo": 0.8, "title": "西吉尔马萨埃米尔国", "fontsize": 12, "tyid": "304000", "oid": "103:1576575147301", "color": "#202020" }, "geometry": { "type": "Point", "coordinates": [ -4.394531, 30.977609 ] } }
{ "type": "Feature", "tippecanoe": { "layer": "2AFCA0E30EB81583915776461", "minzoom": 2, "maxzoom": 8 }, "properties": { "halo": 0.8, "title": "谢列尔人", "fontsize": 12, "tyid": "304001", "oid": "103:1576575147537", "color": "#262626" }, "geometry": { "type": "Point", "coordinates": [ -9.052734, 18.479609 ] } }
{ "type": "Feature", "tippecanoe": { "layer": "2AFCA0E30EB81583915776461", "minzoom": 2, "maxzoom": 8 }, "properties": { "halo": 0.8, "title": "加纳帝国", "fontsize": 12, "tyid": "304000", "oid": "103:1576575147540", "color": "#202020" }, "geometry": { "type": "Point", "coordinates": [ -8.789062, 15.368950 ] } }
{ "type": "Feature", "tippecanoe": { "layer": "2AFCA0E30EB81583915776461", "minzoom": 2, "maxzoom": 8 }, "properties": { "halo": 0.8, "title": "丹麦人", "fontsize": 12, "tyid": "304001", "oid": "103:1576575147400", "color": "#262626" }, "geometry": { "type": "Point", "coordinates": [ 9.052734, 56.218923 ] } }
{ "type": "Feature", "tippecanoe": { "layer": "2AFCA0E30EB81583915776461", "minzoom": 2, "maxzoom": 8 }, "properties": { "halo": 0.8, "title": "古拉脱维亚人", "fontsize": 12, "tyid": "304001", "oid": "103:1576575147419", "color": "#262626" }, "geometry": { "type": "Point", "coordinates": [ 22.412109, 57.088515 ] } }
{ "type": "Feature", "tippecanoe": { "layer": "2AFCA0E30EB81583915776461", "minzoom": 2, "maxzoom": 8 }, "properties": { "halo": 0.8, "title": "波西米亚人", "fontsize": 12, "tyid": "304001", "oid": "103:1576575147417", "color": "#262626" }, "geometry": { "type": "Point", "coordinates": [ 14.326172, 49.837982 ] } }
{ "type": "Feature", "tippecanoe": { "layer": "2AFCA0E30EB81583915776461", "minzoom": 2, "maxzoom": 8 }, "properties": { "halo": 0.8, "title": "古普鲁士人", "fontsize": 12, "tyid": "304001", "oid": "103:1576575147442", "color": "#262626" }, "geometry": { "type": "Point", "coordinates": [ 20.742188, 54.265224 ] } }
{ "type": "Feature", "tippecanoe": { "layer": "2AFCA0E30EB81583915776461", "minzoom": 2, "maxzoom": 8 }, "properties": { "halo": 0.8, "title": "巴伐利亚公国", "fontsize": 12, "tyid": "304000", "oid": "103:1576575147521", "color": "#202020" }, "geometry": { "type": "Point", "coordinates": [ 12.568359, 48.107431 ] } }
{ "type": "Feature", "tippecanoe": { "layer": "2AFCA0E30EB81583915776461", "minzoom": 2, "maxzoom": 8 }, "properties": { "halo": 0.8, "title": "卡兰塔尼亚亲王国", "fontsize": 12, "tyid": "304000", "oid": "103:1576575147435", "color": "#202020" }, "geometry": { "type": "Point", "coordinates": [ 14.765625, 47.100045 ] } }
{ "type": "Feature", "tippecanoe": { "layer": "2AFCA0E30EB81583915776461", "minzoom": 2, "maxzoom": 8 }, "properties": { "halo": 0.8, "title": "教皇国", "fontsize": 12, "tyid": "304000", "oid": "103:1576575147427", "color": "#202020" }, "geometry": { "type": "Point", "coordinates": [ 11.865234, 44.276671 ] } }
{ "type": "Feature", "tippecanoe": { "layer": "2AFCA0E30EB81583915776461", "minzoom": 2, "maxzoom": 8 }, "properties": { "halo": 0.8, "title": "克罗地亚公国", "fontsize": 12, "tyid": "304000", "oid": "103:1576575147433", "color": "#202020" }, "geometry": { "type": "Point", "coordinates": [ 16.435547, 44.840291 ] } }
{ "type": "Feature", "tippecanoe": { "layer": "2AFCA0E30EB81583915776461", "minzoom": 2, "maxzoom": 8 }, "properties": { "halo": 0.8, "title": "贝内文托亲王国", "fontsize": 12, "tyid": "304000", "oid": "103:1576575147425", "color": "#202020" }, "geometry": { "type": "Point", "coordinates": [ 15.380859, 41.112469 ] } }
{ "type": "Feature", "tippecanoe": { "layer": "2AFCA0E30EB81583915776461", "minzoom": 2, "maxzoom": 8 }, "properties": { "halo": 0.8, "title": "尼特拉公国", "fontsize": 12, "tyid": "304000", "oid": "103:1576575147522", "color": "#202020" }, "geometry": { "type": "Point", "coordinates": [ 18.632812, 48.458352 ] } }
{ "type": "Feature", "tippecanoe": { "layer": "2AFCA0E30EB81583915776461", "minzoom": 2, "maxzoom": 8 }, "properties": { "halo": 0.8, "title": "卡累利阿人", "fontsize": 12, "tyid": "304001", "oid": "103:1576575147412", "color": "#262626" }, "geometry": { "type": "Point", "coordinates": [ 31.552734, 61.689872 ] } }
{ "type": "Feature", "tippecanoe": { "layer": "2AFCA0E30EB81583915776461", "minzoom": 2, "maxzoom": 8 }, "properties": { "halo": 0.8, "title": "哈马莱舍特人", "fontsize": 12, "tyid": "304001", "oid": "103:1576575147408", "color": "#262626" }, "geometry": { "type": "Point", "coordinates": [ 24.785156, 61.354614 ] } }
{ "type": "Feature", "tippecanoe": { "layer": "2AFCA0E30EB81583915776461", "minzoom": 2, "maxzoom": 8 }, "properties": { "halo": 0.8, "title": "古爱沙尼亚人", "fontsize": 12, "tyid": "304001", "oid": "103:1576575147404", "color": "#262626" }, "geometry": { "type": "Point", "coordinates": [ 25.664062, 58.859224 ] } }
{ "type": "Feature", "tippecanoe": { "layer": "2AFCA0E30EB81583915776461", "minzoom": 2, "maxzoom": 8 }, "properties": { "halo": 0.8, "title": "利沃尼亚人", "fontsize": 12, "tyid": "304001", "oid": "103:1576575147416", "color": "#262626" }, "geometry": { "type": "Point", "coordinates": [ 25.488281, 57.562995 ] } }
{ "type": "Feature", "tippecanoe": { "layer": "2AFCA0E30EB81583915776461", "minzoom": 2, "maxzoom": 8 }, "properties": { "halo": 0.8, "title": "维普森人", "fontsize": 12, "tyid": "304001", "oid": "103:1576575147448", "color": "#262626" }, "geometry": { "type": "Point", "coordinates": [ 36.738281, 59.400365 ] } }
{ "type": "Feature", "tippecanoe": { "layer": "2AFCA0E30EB81583915776461", "minzoom": 2, "maxzoom": 8 }, "properties": { "halo": 0.8, "title": "米利亚人", "fontsize": 12, "tyid": "304001", "oid": "103:1576575147449", "color": "#262626" }, "geometry": { "type": "Point", "coordinates": [ 39.375000, 57.279043 ] } }
{ "type": "Feature", "tippecanoe": { "layer": "2AFCA0E30EB81583915776461", "minzoom": 2, "maxzoom": 8 }, "properties": { "halo": 0.8, "title": "米舒拉人", "fontsize": 12, "tyid": "304001", "oid": "103:1576575147453", "color": "#262626" }, "geometry": { "type": "Point", "coordinates": [ 40.693359, 55.875311 ] } }
{ "type": "Feature", "tippecanoe": { "layer": "2AFCA0E30EB81583915776461", "minzoom": 2, "maxzoom": 8 }, "properties": { "halo": 0.8, "title": "马里人", "fontsize": 12, "tyid": "304001", "oid": "103:1576575147454", "color": "#262626" }, "geometry": { "type": "Point", "coordinates": [ 43.681641, 58.447733 ] } }
{ "type": "Feature", "tippecanoe": { "layer": "2AFCA0E30EB81583915776461", "minzoom": 2, "maxzoom": 8 }, "properties": { "halo": 0.8, "title": "萨莫吉希亚人", "fontsize": 12, "tyid": "304001", "oid": "103:1576575147306", "color": "#262626" }, "geometry": { "type": "Point", "coordinates": [ 23.466797, 55.677584 ] } }
{ "type": "Feature", "tippecanoe": { "layer": "2AFCA0E30EB81583915776461", "minzoom": 2, "maxzoom": 8 }, "properties": { "halo": 0.8, "title": "古立陶宛人", "fontsize": 12, "tyid": "304001", "oid": "103:1576575147443", "color": "#262626" }, "geometry": { "type": "Point", "coordinates": [ 24.257812, 54.470038 ] } }
{ "type": "Feature", "tippecanoe": { "layer": "2AFCA0E30EB81583915776461", "minzoom": 2, "maxzoom": 8 }, "properties": { "halo": 0.8, "title": "约特文基人", "fontsize": 12, "tyid": "304001", "oid": "103:1576575147307", "color": "#262626" }, "geometry": { "type": "Point", "coordinates": [ 22.587891, 53.383328 ] } }
{ "type": "Feature", "tippecanoe": { "layer": "2AFCA0E30EB81583915776461", "minzoom": 2, "maxzoom": 8 }, "properties": { "halo": 0.8, "title": "莫尔多维亚人", "fontsize": 12, "tyid": "304001", "oid": "103:1576575147456", "color": "#262626" }, "geometry": { "type": "Point", "coordinates": [ 41.396484, 54.418930 ] } }
{ "type": "Feature", "tippecanoe": { "layer": "2AFCA0E30EB81583915776461", "minzoom": 2, "maxzoom": 8 }, "properties": { "halo": 0.8, "title": "阿布哈兹王国", "fontsize": 12, "tyid": "304000", "oid": "103:1576575147520", "color": "#202020" }, "geometry": { "type": "Point", "coordinates": [ 42.011719, 42.617791 ] } }
{ "type": "Feature", "tippecanoe": { "layer": "2AFCA0E30EB81583915776461", "minzoom": 2, "maxzoom": 8 }, "properties": { "halo": 0.8, "title": "鲁斯塔米王朝", "fontsize": 12, "tyid": "304000", "oid": "103:1576575147383", "color": "#202020" }, "geometry": { "type": "Point", "coordinates": [ 3.164062, 35.317366 ] } }
{ "type": "Feature", "tippecanoe": { "layer": "2AFCA0E30EB81583915776461", "minzoom": 2, "maxzoom": 8 }, "properties": { "halo": 0.8, "title": "豪萨人", "fontsize": 12, "tyid": "304001", "oid": "103:1576575147546", "color": "#262626" }, "geometry": { "type": "Point", "coordinates": [ 7.822266, 13.752725 ] } }
{ "type": "Feature", "tippecanoe": { "layer": "2AFCA0E30EB81583915776461", "minzoom": 2, "maxzoom": 8 }, "properties": { "halo": 0.8, "title": "约鲁巴人", "fontsize": 12, "tyid": "304001", "oid": "103:1576575147549", "color": "#262626" }, "geometry": { "type": "Point", "coordinates": [ 5.009766, 6.839170 ] } }
{ "type": "Feature", "tippecanoe": { "layer": "2AFCA0E30EB81583915776461", "minzoom": 2, "maxzoom": 8 }, "properties": { "halo": 0.8, "title": "阿罗底亚王国", "fontsize": 12, "tyid": "304000", "oid": "103:1576575147341", "color": "#202020" }, "geometry": { "type": "Point", "coordinates": [ 33.662109, 14.859850 ] } }
{ "type": "Feature", "tippecanoe": { "layer": "2AFCA0E30EB81583915776461", "minzoom": 2, "maxzoom": 8 }, "properties": { "halo": 0.8, "title": "富尔人", "fontsize": 12, "tyid": "304001", "oid": "103:1576575147544", "color": "#262626" }, "geometry": { "type": "Point", "coordinates": [ 33.222656, 11.609193 ] } }
{ "type": "Feature", "tippecanoe": { "layer": "2AFCA0E30EB81583915776461", "minzoom": 2, "maxzoom": 8 }, "properties": { "halo": 0.8, "title": "贝扎人", "fontsize": 12, "tyid": "304001", "oid": "103:1576575147536", "color": "#262626" }, "geometry": { "type": "Point", "coordinates": [ 35.244141, 20.961440 ] } }
{ "type": "Feature", "tippecanoe": { "layer": "2AFCA0E30EB81583915776461", "minzoom": 2, "maxzoom": 8 }, "properties": { "halo": 0.8, "title": "伏尔加保加利亚汗国", "fontsize": 12, "tyid": "304000", "oid": "103:1576575147458", "color": "#202020" }, "geometry": { "type": "Point", "coordinates": [ 47.373047, 54.316523 ] } }
{ "type": "Feature", "tippecanoe": { "layer": "2AFCA0E30EB81583915776461", "minzoom": 2, "maxzoom": 8 }, "properties": { "halo": 0.8, "title": "拔悉密部落", "fontsize": 12, "tyid": "304001", "oid": "103:1576575147471", "color": "#262626" }, "geometry": { "type": "Point", "coordinates": [ 85.166016, 47.754098 ] } }
{ "type": "Feature", "tippecanoe": { "layer": "2AFCA0E30EB81583915776461", "minzoom": 2, "maxzoom": 8 }, "properties": { "halo": 0.8, "title": "布哈拉胡达斯", "fontsize": 12, "tyid": "304000", "oid": "103:1576575147526", "color": "#202020" }, "geometry": { "type": "Point", "coordinates": [ 64.511719, 39.842286 ] } }
{ "type": "Feature", "tippecanoe": { "layer": "2AFCA0E30EB81583915776461", "minzoom": 2, "maxzoom": 8 }, "properties": { "halo": 0.8, "title": "尊比王朝", "fontsize": 12, "tyid": "304000", "oid": "103:1576575147477", "color": "#202020" }, "geometry": { "type": "Point", "coordinates": [ 65.654297, 31.503629 ] } }
{ "type": "Feature", "tippecanoe": { "layer": "2AFCA0E30EB81583915776461", "minzoom": 2, "maxzoom": 8 }, "properties": { "halo": 0.8, "title": "费尔干纳亲王国", "fontsize": 12, "tyid": "304000", "oid": "103:1576575147527", "color": "#202020" }, "geometry": { "type": "Point", "coordinates": [ 71.718750, 40.647304 ] } }
{ "type": "Feature", "tippecanoe": { "layer": "2AFCA0E30EB81583915776461", "minzoom": 2, "maxzoom": 8 }, "properties": { "halo": 0.8, "title": "遮伏多王朝", "fontsize": 12, "tyid": "304000", "oid": "103:1576575147530", "color": "#202020" }, "geometry": { "type": "Point", "coordinates": [ 71.806641, 22.998852 ] } }
{ "type": "Feature", "tippecanoe": { "layer": "2AFCA0E30EB81583915776461", "minzoom": 2, "maxzoom": 8 }, "properties": { "halo": 0.8, "title": "萨姆巴尔的乔汉王朝", "fontsize": 12, "tyid": "304000", "oid": "103:1576575147314", "color": "#202020" }, "geometry": { "type": "Point", "coordinates": [ 74.443359, 27.916767 ] } }
{ "type": "Feature", "tippecanoe": { "layer": "2AFCA0E30EB81583915776461", "minzoom": 2, "maxzoom": 8 }, "properties": { "halo": 0.8, "title": "吐末罗王朝", "fontsize": 12, "tyid": "304000", "oid": "103:1576575147313", "color": "#202020" }, "geometry": { "type": "Point", "coordinates": [ 76.201172, 29.305561 ] } }
{ "type": "Feature", "tippecanoe": { "layer": "2AFCA0E30EB81583915776461", "minzoom": 2, "maxzoom": 8 }, "properties": { "halo": 0.8, "title": "戛丘里王朝", "fontsize": 12, "tyid": "304000", "oid": "103:1576575147480", "color": "#202020" }, "geometry": { "type": "Point", "coordinates": [ 79.013672, 30.145127 ] } }
{ "type": "Feature", "tippecanoe": { "layer": "2AFCA0E30EB81583915776461", "minzoom": 2, "maxzoom": 8 }, "properties": { "halo": 0.8, "title": "特里普里的卡拉丘里王朝", "fontsize": 12, "tyid": "304000", "oid": "103:1576575147563", "color": "#202020" }, "geometry": { "type": "Point", "coordinates": [ 81.035156, 22.998852 ] } }
{ "type": "Feature", "tippecanoe": { "layer": "2AFCA0E30EB81583915776461", "minzoom": 2, "maxzoom": 8 }, "properties": { "halo": 0.8, "title": "杰达拉塔王朝", "fontsize": 12, "tyid": "304000", "oid": "103:1576575147483", "color": "#202020" }, "geometry": { "type": "Point", "coordinates": [ 70.488281, 21.943046 ] } }
{ "type": "Feature", "tippecanoe": { "layer": "2AFCA0E30EB81583915776461", "minzoom": 2, "maxzoom": 8 }, "properties": { "halo": 0.8, "title": "西恒伽王朝", "fontsize": 12, "tyid": "304000", "oid": "103:1576575147485", "color": "#202020" }, "geometry": { "type": "Point", "coordinates": [ 76.904297, 12.811801 ] } }
{ "type": "Feature", "tippecanoe": { "layer": "2AFCA0E30EB81583915776461", "minzoom": 2, "maxzoom": 8 }, "properties": { "halo": 0.8, "title": "哲罗国", "fontsize": 12, "tyid": "304000", "oid": "103:1576575147322", "color": "#202020" }, "geometry": { "type": "Point", "coordinates": [ 76.289062, 10.487812 ] } }
{ "type": "Feature", "tippecanoe": { "layer": "2AFCA0E30EB81583915776461", "minzoom": 2, "maxzoom": 8 }, "properties": { "halo": 0.8, "title": "潘地亚王国", "fontsize": 12, "tyid": "304000", "oid": "103:1576575147320", "color": "#202020" }, "geometry": { "type": "Point", "coordinates": [ 77.783203, 10.055403 ] } }
{ "type": "Feature", "tippecanoe": { "layer": "2AFCA0E30EB81583915776461", "minzoom": 2, "maxzoom": 8 }, "properties": { "halo": 0.8, "title": "东遮娄其王朝", "fontsize": 12, "tyid": "304000", "oid": "103:1576575147316", "color": "#202020" }, "geometry": { "type": "Point", "coordinates": [ 81.738281, 17.224758 ] } }
{ "type": "Feature", "tippecanoe": { "layer": "2AFCA0E30EB81583915776461", "minzoom": 2, "maxzoom": 8 }, "properties": { "halo": 0.8, "title": "帕拉瓦王朝", "fontsize": 12, "tyid": "304000", "oid": "103:1576575147484", "color": "#202020" }, "geometry": { "type": "Point", "coordinates": [ 78.925781, 13.496473 ] } }
{ "type": "Feature", "tippecanoe": { "layer": "2AFCA0E30EB81583915776461", "minzoom": 2, "maxzoom": 8 }, "properties": { "halo": 0.8, "title": "波缪格逻王朝", "fontsize": 12, "tyid": "304000", "oid": "103:1576575147481", "color": "#202020" }, "geometry": { "type": "Point", "coordinates": [ 84.814453, 20.715015 ] } }
{ "type": "Feature", "tippecanoe": { "layer": "2AFCA0E30EB81583915776461", "minzoom": 2, "maxzoom": 8 }, "properties": { "halo": 0.8, "title": "阿努拉德普勒王国", "fontsize": 12, "tyid": "304000", "oid": "103:1576575147305", "color": "#202020" }, "geometry": { "type": "Point", "coordinates": [ 80.683594, 7.623887 ] } }
{ "type": "Feature", "tippecanoe": { "layer": "2AFCA0E30EB81583915776461", "minzoom": 2, "maxzoom": 8 }, "properties": { "halo": 0.8, "title": "迦摩缕波王国", "fontsize": 12, "tyid": "304000", "oid": "103:1576575147505", "color": "#202020" }, "geometry": { "type": "Point", "coordinates": [ 93.251953, 26.273714 ] } }
{ "type": "Feature", "tippecanoe": { "layer": "2AFCA0E30EB81583915776461", "minzoom": 2, "maxzoom": 8 }, "properties": { "halo": 0.8, "title": "瓦萨利王国", "fontsize": 12, "tyid": "304002", "oid": "103:1576575147329", "color": "#262626" }, "geometry": { "type": "Point", "coordinates": [ 93.076172, 22.755921 ] } }
{ "type": "Feature", "tippecanoe": { "layer": "2AFCA0E30EB81583915776461", "minzoom": 2, "maxzoom": 8 }, "properties": { "halo": 0.8, "title": "直通王国", "fontsize": 12, "tyid": "304000", "oid": "103:1576575147499", "color": "#202020" }, "geometry": { "type": "Point", "coordinates": [ 95.537109, 17.308688 ] } }
{ "type": "Feature", "tippecanoe": { "layer": "2AFCA0E30EB81583915776461", "minzoom": 2, "maxzoom": 8 }, "properties": { "halo": 0.8, "title": "骠国", "fontsize": 12, "tyid": "304002", "oid": "103:1576575147501", "color": "#262626" }, "geometry": { "type": "Point", "coordinates": [ 95.712891, 20.961440 ] } }
{ "type": "Feature", "tippecanoe": { "layer": "2AFCA0E30EB81583915776461", "minzoom": 2, "maxzoom": 8 }, "properties": { "halo": 0.8, "title": "掸族", "fontsize": 12, "tyid": "304001", "oid": "103:1576575147506", "color": "#262626" }, "geometry": { "type": "Point", "coordinates": [ 98.613281, 20.632784 ] } }
{ "type": "Feature", "tippecanoe": { "layer": "2AFCA0E30EB81583915776461", "minzoom": 2, "maxzoom": 8 }, "properties": { "halo": 0.8, "title": "骇黎朋猜国", "fontsize": 12, "tyid": "304000", "oid": "103:1576575147332", "color": "#202020" }, "geometry": { "type": "Point", "coordinates": [ 99.580078, 17.978733 ] } }
{ "type": "Feature", "tippecanoe": { "layer": "2AFCA0E30EB81583915776461", "minzoom": 2, "maxzoom": 8 }, "properties": { "halo": 0.8, "title": "陀罗钵地王国", "fontsize": 12, "tyid": "304000", "oid": "103:1576575147510", "color": "#202020" }, "geometry": { "type": "Point", "coordinates": [ 99.228516, 14.519780 ] } }
{ "type": "Feature", "tippecanoe": { "layer": "2AFCA0E30EB81583915776461", "minzoom": 2, "maxzoom": 8 }, "properties": { "halo": 0.8, "title": "狼牙脩国", "fontsize": 12, "tyid": "304000", "oid": "103:1576575147328", "color": "#202020" }, "geometry": { "type": "Point", "coordinates": [ 99.316406, 8.320212 ] } }
{ "type": "Feature", "tippecanoe": { "layer": "2AFCA0E30EB81583915776461", "minzoom": 2, "maxzoom": 8 }, "properties": { "halo": 0.8, "title": "孟族", "fontsize": 12, "tyid": "304002", "oid": "103:1576575147507", "color": "#262626" }, "geometry": { "type": "Point", "coordinates": [ 102.744141, 19.973349 ] } }
{ "type": "Feature", "tippecanoe": { "layer": "2AFCA0E30EB81583915776461", "minzoom": 2, "maxzoom": 8 }, "properties": { "halo": 0.8, "title": "占婆国", "fontsize": 12, "tyid": "304000", "oid": "103:1576575147502", "color": "#202020" }, "geometry": { "type": "Point", "coordinates": [ 107.490234, 16.214675 ] } }
{ "type": "Feature", "tippecanoe": { "layer": "2AFCA0E30EB81583915776461", "minzoom": 2, "maxzoom": 8 }, "properties": { "halo": 0.8, "title": "新罗", "fontsize": 12, "tyid": "304000", "oid": "103:1576575147488", "color": "#202020" }, "geometry": { "type": "Point", "coordinates": [ 128.320312, 36.809285 ] } }
{ "type": "Feature", "tippecanoe": { "layer": "2AFCA0E30EB81583915776461", "minzoom": 2, "maxzoom": 8 }, "properties": { "halo": 0.8, "title": "尼夫赫人", "fontsize": 12, "tyid": "304001", "oid": "103:1576575147498", "color": "#262626" }, "geometry": { "type": "Point", "coordinates": [ 142.470703, 52.536273 ] } }
{ "type": "Feature", "tippecanoe": { "layer": "2AFCA0E30EB81583915776461", "minzoom": 2, "maxzoom": 8 }, "properties": { "halo": 0.8, "title": "阿伊努人", "fontsize": 12, "tyid": "304001", "oid": "103:1576575147490", "color": "#262626" }, "geometry": { "type": "Point", "coordinates": [ 142.558594, 43.389082 ] } }
{ "type": "Feature", "tippecanoe": { "layer": "2AFCA0E30EB81583915776461", "minzoom": 2, "maxzoom": 8 }, "properties": { "halo": 0.8, "title": "虾夷", "fontsize": 12, "tyid": "304001", "oid": "103:1576575147497", "color": "#262626" }, "geometry": { "type": "Point", "coordinates": [ 140.625000, 38.822591 ] } }
{ "type": "Feature", "tippecanoe": { "layer": "2AFCA0E30EB81583915776461", "minzoom": 2, "maxzoom": 8 }, "properties": { "halo": 0.8, "title": "加鲁王国", "fontsize": 12, "tyid": "304000", "oid": "103:1576575147518", "color": "#202020" }, "geometry": { "type": "Point", "coordinates": [ 108.193359, -7.013668 ] } }
{ "type": "Feature", "tippecanoe": { "layer": "2AFCA0E30EB81583915776461", "minzoom": 2, "maxzoom": 8 }, "properties": { "halo": 0.8, "title": "马打兰王国", "fontsize": 12, "tyid": "304000", "oid": "103:1576575147516", "color": "#202020" }, "geometry": { "type": "Point", "coordinates": [ 111.269531, -7.449624 ] } }
{ "type": "Feature", "tippecanoe": { "layer": "2AFCA0E30EB81583915776461", "minzoom": 2, "maxzoom": 8 }, "properties": { "halo": 0.8, "title": "夏连特拉王朝", "fontsize": 12, "tyid": "304000", "oid": "103:1576575147513", "color": "#202020" }, "geometry": { "type": "Point", "coordinates": [ 114.257812, -2.986927 ] } }
{ "type": "Feature", "tippecanoe": { "layer": "2AFCA112A5881583915776479", "minzoom": 2, "maxzoom": 8 }, "properties": { "halo": 1.6, "title": "阿拉楚阿文化", "fontsize": 12, "tyid": "304002", "oid": "103:1576575147347", "color": "#0056E7" }, "geometry": { "type": "Point", "coordinates": [ -82.441406, 29.611670 ] } }
{ "type": "Feature", "tippecanoe": { "layer": "2AFCA112A5881583915776479", "minzoom": 2, "maxzoom": 8 }, "properties": { "halo": 1.6, "title": "维京人", "fontsize": 12, "tyid": "304001", "oid": "103:1576575147362", "color": "#0056E7" }, "geometry": { "type": "Point", "coordinates": [ -1.406250, 60.326948 ] } }
{ "type": "Feature", "tippecanoe": { "layer": "2AFCA112A5881583915776479", "minzoom": 2, "maxzoom": 8 }, "properties": { "halo": 1.8, "title": "达尔里阿达王国", "fontsize": 12, "tyid": "304000", "oid": "103:1576575147360", "color": "#0056E7" }, "geometry": { "type": "Point", "coordinates": [ -5.361328, 56.316537 ] } }
{ "type": "Feature", "tippecanoe": { "layer": "2AFCA112A5881583915776479", "minzoom": 2, "maxzoom": 8 }, "properties": { "halo": 1.8, "title": "埃里克王国", "fontsize": 12, "tyid": "304000", "oid": "103:1576575147358", "color": "#0056E7" }, "geometry": { "type": "Point", "coordinates": [ -7.646484, 54.622978 ] } }
{ "type": "Feature", "tippecanoe": { "layer": "2AFCA112A5881583915776479", "minzoom": 2, "maxzoom": 8 }, "properties": { "halo": 1.8, "title": "乌勒王国", "fontsize": 12, "tyid": "304000", "oid": "103:1576575147375", "color": "#0056E7" }, "geometry": { "type": "Point", "coordinates": [ -6.152344, 54.622978 ] } }
{ "type": "Feature", "tippecanoe": { "layer": "2AFCA112A5881583915776479", "minzoom": 2, "maxzoom": 8 }, "properties": { "halo": 1.8, "title": "布雷芬内王国", "fontsize": 12, "tyid": "304000", "oid": "103:1576575147371", "color": "#0056E7" }, "geometry": { "type": "Point", "coordinates": [ -7.646484, 54.110943 ] } }
{ "type": "Feature", "tippecanoe": { "layer": "2AFCA112A5881583915776479", "minzoom": 2, "maxzoom": 8 }, "properties": { "halo": 1.8, "title": "米瑟王国", "fontsize": 12, "tyid": "304000", "oid": "103:1576575147369", "color": "#0056E7" }, "geometry": { "type": "Point", "coordinates": [ -7.558594, 53.540307 ] } }
{ "type": "Feature", "tippecanoe": { "layer": "2AFCA112A5881583915776479", "minzoom": 2, "maxzoom": 8 }, "properties": { "halo": 1.8, "title": "奥斯拉尔王国", "fontsize": 12, "tyid": "304000", "oid": "103:1576575147363", "color": "#0056E7" }, "geometry": { "type": "Point", "coordinates": [ -7.382812, 52.696361 ] } }
{ "type": "Feature", "tippecanoe": { "layer": "2AFCA112A5881583915776479", "minzoom": 2, "maxzoom": 8 }, "properties": { "halo": 1.8, "title": "奥利尔王国", "fontsize": 12, "tyid": "304000", "oid": "103:1576575147373", "color": "#0056E7" }, "geometry": { "type": "Point", "coordinates": [ -6.855469, 54.162434 ] } }
{ "type": "Feature", "tippecanoe": { "layer": "2AFCA112A5881583915776479", "minzoom": 2, "maxzoom": 8 }, "properties": { "halo": 1.8, "title": "伦斯特王国", "fontsize": 12, "tyid": "304000", "oid": "103:1576575147365", "color": "#0056E7" }, "geometry": { "type": "Point", "coordinates": [ -6.767578, 52.908902 ] } }
{ "type": "Feature", "tippecanoe": { "layer": "2AFCA112A5881583915776479", "minzoom": 2, "maxzoom": 8 }, "properties": { "halo": 1.8, "title": "格温内斯王国", "fontsize": 12, "tyid": "304000", "oid": "103:1576575147354", "color": "#0056E7" }, "geometry": { "type": "Point", "coordinates": [ -3.867188, 53.014783 ] } }
{ "type": "Feature", "tippecanoe": { "layer": "2AFCA112A5881583915776479", "minzoom": 2, "maxzoom": 8 }, "properties": { "halo": 1.8, "title": "波威斯王国", "fontsize": 12, "tyid": "304000", "oid": "103:1576575147297", "color": "#0056E7" }, "geometry": { "type": "Point", "coordinates": [ -3.339844, 52.589701 ] } }
{ "type": "Feature", "tippecanoe": { "layer": "2AFCA112A5881583915776479", "minzoom": 2, "maxzoom": 8 }, "properties": { "halo": 1.8, "title": "达费德王国", "fontsize": 12, "tyid": "304000", "oid": "103:1576575147298", "color": "#0056E7" }, "geometry": { "type": "Point", "coordinates": [ -4.833984, 51.890054 ] } }
{ "type": "Feature", "tippecanoe": { "layer": "2AFCA112A5881583915776479", "minzoom": 2, "maxzoom": 8 }, "properties": { "halo": 1.8, "title": "格温特王国", "fontsize": 12, "tyid": "304000", "oid": "103:1576575147295", "color": "#0056E7" }, "geometry": { "type": "Point", "coordinates": [ -3.691406, 51.890054 ] } }
{ "type": "Feature", "tippecanoe": { "layer": "2AFCA112A5881583915776479", "minzoom": 2, "maxzoom": 8 }, "properties": { "halo": 1.8, "title": "萨塞克斯王国", "fontsize": 12, "tyid": "304000", "oid": "103:1576575147376", "color": "#0056E7" }, "geometry": { "type": "Point", "coordinates": [ -0.175781, 51.013755 ] } }
{ "type": "Feature", "tippecanoe": { "layer": "2AFCA112A5881583915776479", "minzoom": 2, "maxzoom": 8 }, "properties": { "halo": 1.8, "title": "奈克尔埃米尔国", "fontsize": 12, "tyid": "304000", "oid": "103:1576575147300", "color": "#0056E7" }, "geometry": { "type": "Point", "coordinates": [ -3.515625, 35.029996 ] } }
{ "type": "Feature", "tippecanoe": { "layer": "2AFCA112A5881583915776479", "minzoom": 2, "maxzoom": 8 }, "properties": { "halo": 1.6, "title": "哥得兰人", "fontsize": 12, "tyid": "304001", "oid": "103:1576575147401", "color": "#0056E7" }, "geometry": { "type": "Point", "coordinates": [ 18.457031, 57.515823 ] } }
{ "type": "Feature", "tippecanoe": { "layer": "2AFCA112A5881583915776479", "minzoom": 2, "maxzoom": 8 }, "properties": { "halo": 1.8, "title": "埃塞克斯王国", "fontsize": 12, "tyid": "304000", "oid": "103:1576575147378", "color": "#0056E7" }, "geometry": { "type": "Point", "coordinates": [ 0.527344, 51.835778 ] } }
{ "type": "Feature", "tippecanoe": { "layer": "2AFCA112A5881583915776479", "minzoom": 2, "maxzoom": 8 }, "properties": { "halo": 1.8, "title": "东盎格利亚王国", "fontsize": 12, "tyid": "304000", "oid": "103:1576575147380", "color": "#0056E7" }, "geometry": { "type": "Point", "coordinates": [ 0.966797, 52.482780 ] } }
{ "type": "Feature", "tippecanoe": { "layer": "2AFCA112A5881583915776479", "minzoom": 2, "maxzoom": 8 }, "properties": { "halo": 1.8, "title": "肯特王国", "fontsize": 12, "tyid": "304000", "oid": "103:1576575147353", "color": "#0056E7" }, "geometry": { "type": "Point", "coordinates": [ 0.703125, 51.234407 ] } }
{ "type": "Feature", "tippecanoe": { "layer": "2AFCA112A5881583915776479", "minzoom": 2, "maxzoom": 8 }, "properties": { "halo": 1.6, "title": "弗里斯兰人", "fontsize": 12, "tyid": "304001", "oid": "103:1576575147398", "color": "#0056E7" }, "geometry": { "type": "Point", "coordinates": [ 9.052734, 54.418930 ] } }
{ "type": "Feature", "tippecanoe": { "layer": "2AFCA112A5881583915776479", "minzoom": 2, "maxzoom": 8 }, "properties": { "halo": 1.6, "title": "萨克森人", "fontsize": 12, "tyid": "304002", "oid": "103:1576575147410", "color": "#0056E7" }, "geometry": { "type": "Point", "coordinates": [ 9.843750, 54.007769 ] } }
{ "type": "Feature", "tippecanoe": { "layer": "2AFCA112A5881583915776479", "minzoom": 2, "maxzoom": 8 }, "properties": { "halo": 1.8, "title": "威尼斯共和国", "fontsize": 12, "tyid": "304000", "oid": "103:1576575147565", "color": "#0056E7" }, "geometry": { "type": "Point", "coordinates": [ 12.304688, 45.583290 ] } }
{ "type": "Feature", "tippecanoe": { "layer": "2AFCA112A5881583915776479", "minzoom": 2, "maxzoom": 8 }, "properties": { "halo": 1.6, "title": "纳伦廷人", "fontsize": 12, "tyid": "304001", "oid": "103:1576575147303", "color": "#0056E7" }, "geometry": { "type": "Point", "coordinates": [ 17.226562, 43.261206 ] } }
{ "type": "Feature", "tippecanoe": { "layer": "2AFCA112A5881583915776479", "minzoom": 2, "maxzoom": 8 }, "properties": { "halo": 1.6, "title": "奥耶塞利人", "fontsize": 12, "tyid": "304001", "oid": "103:1576575147402", "color": "#0056E7" }, "geometry": { "type": "Point", "coordinates": [ 22.500000, 58.447733 ] } }
{ "type": "Feature", "tippecanoe": { "layer": "2AFCA112A5881583915776479", "minzoom": 2, "maxzoom": 8 }, "properties": { "halo": 1.6, "title": "沃茨人", "fontsize": 12, "tyid": "304001", "oid": "103:1576575147414", "color": "#0056E7" }, "geometry": { "type": "Point", "coordinates": [ 29.003906, 59.310768 ] } }
{ "type": "Feature", "tippecanoe": { "layer": "2AFCA112A5881583915776479", "minzoom": 2, "maxzoom": 8 }, "properties": { "halo": 1.6, "title": "莫拉玛人", "fontsize": 12, "tyid": "304001", "oid": "103:1576575147451", "color": "#0056E7" }, "geometry": { "type": "Point", "coordinates": [ 41.396484, 56.656226 ] } }
{ "type": "Feature", "tippecanoe": { "layer": "2AFCA112A5881583915776479", "minzoom": 2, "maxzoom": 8 }, "properties": { "halo": 1.8, "title": "第比利斯埃米尔国", "fontsize": 12, "tyid": "304000", "oid": "103:1576575147337", "color": "#0056E7" }, "geometry": { "type": "Point", "coordinates": [ 44.560547, 41.442726 ] } }
{ "type": "Feature", "tippecanoe": { "layer": "2AFCA112A5881583915776479", "minzoom": 2, "maxzoom": 8 }, "properties": { "halo": 1.8, "title": "乌斯鲁萨那公国", "fontsize": 12, "tyid": "304000", "oid": "103:1576575147339", "color": "#0056E7" }, "geometry": { "type": "Point", "coordinates": [ 68.466797, 39.909736 ] } }
{ "type": "Feature", "tippecanoe": { "layer": "2AFCA112A5881583915776479", "minzoom": 2, "maxzoom": 8 }, "properties": { "halo": 1.8, "title": "阿拉帕王朝", "fontsize": 12, "tyid": "304000", "oid": "103:1576575147487", "color": "#0056E7" }, "geometry": { "type": "Point", "coordinates": [ 74.970703, 13.325485 ] } }
{ "type": "Feature", "tippecanoe": { "layer": "2AFCA112A5881583915776479", "minzoom": 2, "maxzoom": 8 }, "properties": { "halo": 1.8, "title": "朱罗国", "fontsize": 12, "tyid": "304000", "oid": "103:1576575147321", "color": "#0056E7" }, "geometry": { "type": "Point", "coordinates": [ 79.541016, 10.833306 ] } }
{ "type": "Feature", "tippecanoe": { "layer": "2AFCA112A5881583915776479", "minzoom": 2, "maxzoom": 8 }, "properties": { "halo": 1.8, "title": "罗涡国", "fontsize": 12, "tyid": "304000", "oid": "103:1576575147335", "color": "#0056E7" }, "geometry": { "type": "Point", "coordinates": [ 100.810547, 14.519780 ] } }
{ "type": "Feature", "tippecanoe": { "layer": "2AFCA112A5881583915776479", "minzoom": 2, "maxzoom": 8 }, "properties": { "halo": 1.8, "title": "刚迦王国", "fontsize": 12, "tyid": "304000", "oid": "103:1576575147512", "color": "#0056E7" }, "geometry": { "type": "Point", "coordinates": [ 100.810547, 4.565474 ] } }
{ "type": "Feature", "tippecanoe": { "layer": "2AFCA112A5881583915776479", "minzoom": 2, "maxzoom": 8 }, "properties": { "halo": 1.8, "title": "婆皇国", "fontsize": 12, "tyid": "304000", "oid": "103:1576575147336", "color": "#0056E7" }, "geometry": { "type": "Point", "coordinates": [ 103.095703, 3.425692 ] } }
{ "type": "Feature", "tippecanoe": { "layer": "2AFCA112A5881583915776479", "minzoom": 2, "maxzoom": 8 }, "properties": { "halo": 1.8, "title": "巽他王国", "fontsize": 12, "tyid": "304000", "oid": "103:1576575147515", "color": "#0056E7" }, "geometry": { "type": "Point", "coordinates": [ 106.611328, -6.664608 ] } }
{ "type": "Feature", "tippecanoe": { "layer": "2AFCA12489E81583915776489", "minzoom": 2, "maxzoom": 8 }, "properties": { "halo": 1.6, "title": "福切马里尼文化", "fontsize": 12, "tyid": "304002", "oid": "103:1576575147345", "color": "#0056E7" }, "geometry": { "type": "Point", "coordinates": [ -94.570312, 33.943360 ] } }
{ "type": "Feature", "tippecanoe": { "layer": "2AFCA12489E81583915776489", "minzoom": 2, "maxzoom": 8 }, "properties": { "halo": 1.6, "title": "梅花河口文化", "fontsize": 12, "tyid": "304002", "oid": "103:1576575147578", "color": "#0056E7" }, "geometry": { "type": "Point", "coordinates": [ -91.669922, 34.669359 ] } }
{ "type": "Feature", "tippecanoe": { "layer": "2AFCA12489E81583915776489", "minzoom": 2, "maxzoom": 8 }, "properties": { "halo": 1.6, "title": "科尔斯溪文化", "fontsize": 12, "tyid": "304002", "oid": "103:1576575147568", "color": "#0056E7" }, "geometry": { "type": "Point", "coordinates": [ -91.318359, 31.353637 ] } }
{ "type": "Feature", "tippecanoe": { "layer": "2AFCA12489E81583915776489", "minzoom": 2, "maxzoom": 8 }, "properties": { "halo": 1.6, "title": "萨波特克文明", "fontsize": 12, "tyid": "304002", "oid": "103:1576575147576", "color": "#0056E7" }, "geometry": { "type": "Point", "coordinates": [ -95.888672, 16.888660 ] } }
{ "type": "Feature", "tippecanoe": { "layer": "2AFCA12489E81583915776489", "minzoom": 2, "maxzoom": 8 }, "properties": { "halo": 1.6, "title": "维登岛文化", "fontsize": 12, "tyid": "304002", "oid": "103:1576575147570", "color": "#0056E7" }, "geometry": { "type": "Point", "coordinates": [ -85.253906, 30.826781 ] } }
{ "type": "Feature", "tippecanoe": { "layer": "2AFCA12489E81583915776489", "minzoom": 2, "maxzoom": 8 }, "properties": { "halo": 1.8, "title": "皮克特诸王国", "fontsize": 12, "tyid": "304000", "oid": "103:1576575147393", "color": "#0056E7" }, "geometry": { "type": "Point", "coordinates": [ -4.042969, 56.704506 ] } }
{ "type": "Feature", "tippecanoe": { "layer": "2AFCA12489E81583915776489", "minzoom": 2, "maxzoom": 8 }, "properties": { "halo": 1.6, "title": "康诺特诸王国", "fontsize": 12, "tyid": "304002", "oid": "103:1576575147367", "color": "#0056E7" }, "geometry": { "type": "Point", "coordinates": [ -8.964844, 53.748711 ] } }
{ "type": "Feature", "tippecanoe": { "layer": "2AFCA12489E81583915776489", "minzoom": 2, "maxzoom": 8 }, "properties": { "halo": 1.8, "title": "明斯特王国", "fontsize": 12, "tyid": "304000", "oid": "103:1576575147294", "color": "#0056E7" }, "geometry": { "type": "Point", "coordinates": [ -8.789062, 52.321911 ] } }
{ "type": "Feature", "tippecanoe": { "layer": "2AFCA12489E81583915776489", "minzoom": 2, "maxzoom": 8 }, "properties": { "halo": 1.8, "title": "斯特拉瑟克雷德王国", "fontsize": 12, "tyid": "304000", "oid": "103:1576575147350", "color": "#0056E7" }, "geometry": { "type": "Point", "coordinates": [ -4.218750, 55.429013 ] } }
{ "type": "Feature", "tippecanoe": { "layer": "2AFCA12489E81583915776489", "minzoom": 2, "maxzoom": 8 }, "properties": { "halo": 1.8, "title": "诺森布里亚王国", "fontsize": 12, "tyid": "304000", "oid": "103:1576575147356", "color": "#0056E7" }, "geometry": { "type": "Point", "coordinates": [ -1.582031, 54.418930 ] } }
{ "type": "Feature", "tippecanoe": { "layer": "2AFCA12489E81583915776489", "minzoom": 2, "maxzoom": 8 }, "properties": { "halo": 1.8, "title": "麦西亚王国", "fontsize": 12, "tyid": "304000", "oid": "103:1576575147348", "color": "#0056E7" }, "geometry": { "type": "Point", "coordinates": [ -1.406250, 52.536273 ] } }
{ "type": "Feature", "tippecanoe": { "layer": "2AFCA12489E81583915776489", "minzoom": 2, "maxzoom": 8 }, "properties": { "halo": 1.8, "title": "威塞克斯王国", "fontsize": 12, "tyid": "304000", "oid": "103:1576575147351", "color": "#0056E7" }, "geometry": { "type": "Point", "coordinates": [ -2.724609, 51.013755 ] } }
{ "type": "Feature", "tippecanoe": { "layer": "2AFCA12489E81583915776489", "minzoom": 2, "maxzoom": 8 }, "properties": { "halo": 1.8, "title": "阿斯图里亚斯王国", "fontsize": 12, "tyid": "304000", "oid": "103:1576575147389", "color": "#0056E7" }, "geometry": { "type": "Point", "coordinates": [ -5.976562, 42.488302 ] } }
{ "type": "Feature", "tippecanoe": { "layer": "2AFCA12489E81583915776489", "minzoom": 2, "maxzoom": 8 }, "properties": { "halo": 1.8, "title": "凯尔特布立吞人", "fontsize": 12, "tyid": "304000", "oid": "103:1576575147386", "color": "#0056E7" }, "geometry": { "type": "Point", "coordinates": [ -3.164062, 48.224673 ] } }
{ "type": "Feature", "tippecanoe": { "layer": "2AFCA12489E81583915776489", "minzoom": 2, "maxzoom": 8 }, "properties": { "halo": 1.6, "title": "巴哈瓦塔联盟", "fontsize": 12, "tyid": "304002", "oid": "103:1576575147381", "color": "#0056E7" }, "geometry": { "type": "Point", "coordinates": [ -7.998047, 32.546813 ] } }
{ "type": "Feature", "tippecanoe": { "layer": "2AFCA12489E81583915776489", "minzoom": 2, "maxzoom": 8 }, "properties": { "halo": 1.8, "title": "西吉尔马萨埃米尔国", "fontsize": 12, "tyid": "304000", "oid": "103:1576575147301", "color": "#0056E7" }, "geometry": { "type": "Point", "coordinates": [ -4.394531, 30.977609 ] } }
{ "type": "Feature", "tippecanoe": { "layer": "2AFCA12489E81583915776489", "minzoom": 2, "maxzoom": 8 }, "properties": { "halo": 1.6, "title": "谢列尔人", "fontsize": 12, "tyid": "304001", "oid": "103:1576575147537", "color": "#0056E7" }, "geometry": { "type": "Point", "coordinates": [ -9.052734, 18.479609 ] } }
{ "type": "Feature", "tippecanoe": { "layer": "2AFCA12489E81583915776489", "minzoom": 2, "maxzoom": 8 }, "properties": { "halo": 1.8, "title": "加纳帝国", "fontsize": 12, "tyid": "304000", "oid": "103:1576575147540", "color": "#0056E7" }, "geometry": { "type": "Point", "coordinates": [ -8.789062, 15.368950 ] } }
{ "type": "Feature", "tippecanoe": { "layer": "2AFCA12489E81583915776489", "minzoom": 2, "maxzoom": 8 }, "properties": { "halo": 1.6, "title": "丹麦人", "fontsize": 12, "tyid": "304001", "oid": "103:1576575147400", "color": "#0056E7" }, "geometry": { "type": "Point", "coordinates": [ 9.052734, 56.218923 ] } }
{ "type": "Feature", "tippecanoe": { "layer": "2AFCA12489E81583915776489", "minzoom": 2, "maxzoom": 8 }, "properties": { "halo": 1.6, "title": "古拉脱维亚人", "fontsize": 12, "tyid": "304001", "oid": "103:1576575147419", "color": "#0056E7" }, "geometry": { "type": "Point", "coordinates": [ 22.412109, 57.088515 ] } }
{ "type": "Feature", "tippecanoe": { "layer": "2AFCA12489E81583915776489", "minzoom": 2, "maxzoom": 8 }, "properties": { "halo": 1.6, "title": "波西米亚人", "fontsize": 12, "tyid": "304001", "oid": "103:1576575147417", "color": "#0056E7" }, "geometry": { "type": "Point", "coordinates": [ 14.326172, 49.837982 ] } }
{ "type": "Feature", "tippecanoe": { "layer": "2AFCA12489E81583915776489", "minzoom": 2, "maxzoom": 8 }, "properties": { "halo": 1.6, "title": "古普鲁士人", "fontsize": 12, "tyid": "304001", "oid": "103:1576575147442", "color": "#0056E7" }, "geometry": { "type": "Point", "coordinates": [ 20.742188, 54.265224 ] } }
{ "type": "Feature", "tippecanoe": { "layer": "2AFCA12489E81583915776489", "minzoom": 2, "maxzoom": 8 }, "properties": { "halo": 1.8, "title": "巴伐利亚公国", "fontsize": 12, "tyid": "304000", "oid": "103:1576575147521", "color": "#0056E7" }, "geometry": { "type": "Point", "coordinates": [ 12.568359, 48.107431 ] } }
{ "type": "Feature", "tippecanoe": { "layer": "2AFCA12489E81583915776489", "minzoom": 2, "maxzoom": 8 }, "properties": { "halo": 1.8, "title": "卡兰塔尼亚亲王国", "fontsize": 12, "tyid": "304000", "oid": "103:1576575147435", "color": "#0056E7" }, "geometry": { "type": "Point", "coordinates": [ 14.765625, 47.100045 ] } }
{ "type": "Feature", "tippecanoe": { "layer": "2AFCA12489E81583915776489", "minzoom": 2, "maxzoom": 8 }, "properties": { "halo": 1.8, "title": "教皇国", "fontsize": 12, "tyid": "304000", "oid": "103:1576575147427", "color": "#0056E7" }, "geometry": { "type": "Point", "coordinates": [ 11.865234, 44.276671 ] } }
{ "type": "Feature", "tippecanoe": { "layer": "2AFCA12489E81583915776489", "minzoom": 2, "maxzoom": 8 }, "properties": { "halo": 1.8, "title": "克罗地亚公国", "fontsize": 12, "tyid": "304000", "oid": "103:1576575147433", "color": "#0056E7" }, "geometry": { "type": "Point", "coordinates": [ 16.435547, 44.840291 ] } }
{ "type": "Feature", "tippecanoe": { "layer": "2AFCA12489E81583915776489", "minzoom": 2, "maxzoom": 8 }, "properties": { "halo": 1.8, "title": "贝内文托亲王国", "fontsize": 12, "tyid": "304000", "oid": "103:1576575147425", "color": "#0056E7" }, "geometry": { "type": "Point", "coordinates": [ 15.380859, 41.112469 ] } }
{ "type": "Feature", "tippecanoe": { "layer": "2AFCA12489E81583915776489", "minzoom": 2, "maxzoom": 8 }, "properties": { "halo": 1.8, "title": "尼特拉公国", "fontsize": 12, "tyid": "304000", "oid": "103:1576575147522", "color": "#0056E7" }, "geometry": { "type": "Point", "coordinates": [ 18.632812, 48.458352 ] } }
{ "type": "Feature", "tippecanoe": { "layer": "2AFCA12489E81583915776489", "minzoom": 2, "maxzoom": 8 }, "properties": { "halo": 1.6, "title": "卡累利阿人", "fontsize": 12, "tyid": "304001", "oid": "103:1576575147412", "color": "#0056E7" }, "geometry": { "type": "Point", "coordinates": [ 31.552734, 61.689872 ] } }
{ "type": "Feature", "tippecanoe": { "layer": "2AFCA12489E81583915776489", "minzoom": 2, "maxzoom": 8 }, "properties": { "halo": 1.6, "title": "哈马莱舍特人", "fontsize": 12, "tyid": "304001", "oid": "103:1576575147408", "color": "#0056E7" }, "geometry": { "type": "Point", "coordinates": [ 24.785156, 61.354614 ] } }
{ "type": "Feature", "tippecanoe": { "layer": "2AFCA12489E81583915776489", "minzoom": 2, "maxzoom": 8 }, "properties": { "halo": 1.6, "title": "古爱沙尼亚人", "fontsize": 12, "tyid": "304001", "oid": "103:1576575147404", "color": "#0056E7" }, "geometry": { "type": "Point", "coordinates": [ 25.664062, 58.859224 ] } }
{ "type": "Feature", "tippecanoe": { "layer": "2AFCA12489E81583915776489", "minzoom": 2, "maxzoom": 8 }, "properties": { "halo": 1.6, "title": "利沃尼亚人", "fontsize": 12, "tyid": "304001", "oid": "103:1576575147416", "color": "#0056E7" }, "geometry": { "type": "Point", "coordinates": [ 25.488281, 57.562995 ] } }
{ "type": "Feature", "tippecanoe": { "layer": "2AFCA12489E81583915776489", "minzoom": 2, "maxzoom": 8 }, "properties": { "halo": 1.6, "title": "维普森人", "fontsize": 12, "tyid": "304001", "oid": "103:1576575147448", "color": "#0056E7" }, "geometry": { "type": "Point", "coordinates": [ 36.738281, 59.400365 ] } }
{ "type": "Feature", "tippecanoe": { "layer": "2AFCA12489E81583915776489", "minzoom": 2, "maxzoom": 8 }, "properties": { "halo": 1.6, "title": "米利亚人", "fontsize": 12, "tyid": "304001", "oid": "103:1576575147449", "color": "#0056E7" }, "geometry": { "type": "Point", "coordinates": [ 39.375000, 57.279043 ] } }
{ "type": "Feature", "tippecanoe": { "layer": "2AFCA12489E81583915776489", "minzoom": 2, "maxzoom": 8 }, "properties": { "halo": 1.6, "title": "米舒拉人", "fontsize": 12, "tyid": "304001", "oid": "103:1576575147453", "color": "#0056E7" }, "geometry": { "type": "Point", "coordinates": [ 40.693359, 55.875311 ] } }
{ "type": "Feature", "tippecanoe": { "layer": "2AFCA12489E81583915776489", "minzoom": 2, "maxzoom": 8 }, "properties": { "halo": 1.6, "title": "马里人", "fontsize": 12, "tyid": "304001", "oid": "103:1576575147454", "color": "#0056E7" }, "geometry": { "type": "Point", "coordinates": [ 43.681641, 58.447733 ] } }
{ "type": "Feature", "tippecanoe": { "layer": "2AFCA12489E81583915776489", "minzoom": 2, "maxzoom": 8 }, "properties": { "halo": 1.6, "title": "萨莫吉希亚人", "fontsize": 12, "tyid": "304001", "oid": "103:1576575147306", "color": "#0056E7" }, "geometry": { "type": "Point", "coordinates": [ 23.466797, 55.677584 ] } }
{ "type": "Feature", "tippecanoe": { "layer": "2AFCA12489E81583915776489", "minzoom": 2, "maxzoom": 8 }, "properties": { "halo": 1.6, "title": "古立陶宛人", "fontsize": 12, "tyid": "304001", "oid": "103:1576575147443", "color": "#0056E7" }, "geometry": { "type": "Point", "coordinates": [ 24.257812, 54.470038 ] } }
{ "type": "Feature", "tippecanoe": { "layer": "2AFCA12489E81583915776489", "minzoom": 2, "maxzoom": 8 }, "properties": { "halo": 1.6, "title": "约特文基人", "fontsize": 12, "tyid": "304001", "oid": "103:1576575147307", "color": "#0056E7" }, "geometry": { "type": "Point", "coordinates": [ 22.587891, 53.383328 ] } }
{ "type": "Feature", "tippecanoe": { "layer": "2AFCA12489E81583915776489", "minzoom": 2, "maxzoom": 8 }, "properties": { "halo": 1.6, "title": "莫尔多维亚人", "fontsize": 12, "tyid": "304001", "oid": "103:1576575147456", "color": "#0056E7" }, "geometry": { "type": "Point", "coordinates": [ 41.396484, 54.418930 ] } }
{ "type": "Feature", "tippecanoe": { "layer": "2AFCA12489E81583915776489", "minzoom": 2, "maxzoom": 8 }, "properties": { "halo": 1.8, "title": "阿布哈兹王国", "fontsize": 12, "tyid": "304000", "oid": "103:1576575147520", "color": "#0056E7" }, "geometry": { "type": "Point", "coordinates": [ 42.011719, 42.617791 ] } }
{ "type": "Feature", "tippecanoe": { "layer": "2AFCA12489E81583915776489", "minzoom": 2, "maxzoom": 8 }, "properties": { "halo": 1.8, "title": "鲁斯塔米王朝", "fontsize": 12, "tyid": "304000", "oid": "103:1576575147383", "color": "#0056E7" }, "geometry": { "type": "Point", "coordinates": [ 3.164062, 35.317366 ] } }
{ "type": "Feature", "tippecanoe": { "layer": "2AFCA12489E81583915776489", "minzoom": 2, "maxzoom": 8 }, "properties": { "halo": 1.6, "title": "豪萨人", "fontsize": 12, "tyid": "304001", "oid": "103:1576575147546", "color": "#0056E7" }, "geometry": { "type": "Point", "coordinates": [ 7.822266, 13.752725 ] } }
{ "type": "Feature", "tippecanoe": { "layer": "2AFCA12489E81583915776489", "minzoom": 2, "maxzoom": 8 }, "properties": { "halo": 1.6, "title": "约鲁巴人", "fontsize": 12, "tyid": "304001", "oid": "103:1576575147549", "color": "#0056E7" }, "geometry": { "type": "Point", "coordinates": [ 5.009766, 6.839170 ] } }
{ "type": "Feature", "tippecanoe": { "layer": "2AFCA12489E81583915776489", "minzoom": 2, "maxzoom": 8 }, "properties": { "halo": 1.8, "title": "阿罗底亚王国", "fontsize": 12, "tyid": "304000", "oid": "103:1576575147341", "color": "#0056E7" }, "geometry": { "type": "Point", "coordinates": [ 33.662109, 14.859850 ] } }
{ "type": "Feature", "tippecanoe": { "layer": "2AFCA12489E81583915776489", "minzoom": 2, "maxzoom": 8 }, "properties": { "halo": 1.6, "title": "富尔人", "fontsize": 12, "tyid": "304001", "oid": "103:1576575147544", "color": "#0056E7" }, "geometry": { "type": "Point", "coordinates": [ 33.222656, 11.609193 ] } }
{ "type": "Feature", "tippecanoe": { "layer": "2AFCA12489E81583915776489", "minzoom": 2, "maxzoom": 8 }, "properties": { "halo": 1.6, "title": "贝扎人", "fontsize": 12, "tyid": "304001", "oid": "103:1576575147536", "color": "#0056E7" }, "geometry": { "type": "Point", "coordinates": [ 35.244141, 20.961440 ] } }
{ "type": "Feature", "tippecanoe": { "layer": "2AFCA12489E81583915776489", "minzoom": 2, "maxzoom": 8 }, "properties": { "halo": 1.8, "title": "伏尔加保加利亚汗国", "fontsize": 12, "tyid": "304000", "oid": "103:1576575147458", "color": "#0056E7" }, "geometry": { "type": "Point", "coordinates": [ 47.373047, 54.316523 ] } }
{ "type": "Feature", "tippecanoe": { "layer": "2AFCA12489E81583915776489", "minzoom": 2, "maxzoom": 8 }, "properties": { "halo": 1.6, "title": "拔悉密部落", "fontsize": 12, "tyid": "304001", "oid": "103:1576575147471", "color": "#0056E7" }, "geometry": { "type": "Point", "coordinates": [ 85.166016, 47.754098 ] } }
{ "type": "Feature", "tippecanoe": { "layer": "2AFCA12489E81583915776489", "minzoom": 2, "maxzoom": 8 }, "properties": { "halo": 1.8, "title": "布哈拉胡达斯", "fontsize": 12, "tyid": "304000", "oid": "103:1576575147526", "color": "#0056E7" }, "geometry": { "type": "Point", "coordinates": [ 64.511719, 39.842286 ] } }
{ "type": "Feature", "tippecanoe": { "layer": "2AFCA12489E81583915776489", "minzoom": 2, "maxzoom": 8 }, "properties": { "halo": 1.8, "title": "尊比王朝", "fontsize": 12, "tyid": "304000", "oid": "103:1576575147477", "color": "#0056E7" }, "geometry": { "type": "Point", "coordinates": [ 65.654297, 31.503629 ] } }
{ "type": "Feature", "tippecanoe": { "layer": "2AFCA12489E81583915776489", "minzoom": 2, "maxzoom": 8 }, "properties": { "halo": 1.8, "title": "费尔干纳亲王国", "fontsize": 12, "tyid": "304000", "oid": "103:1576575147527", "color": "#0056E7" }, "geometry": { "type": "Point", "coordinates": [ 71.718750, 40.647304 ] } }
{ "type": "Feature", "tippecanoe": { "layer": "2AFCA12489E81583915776489", "minzoom": 2, "maxzoom": 8 }, "properties": { "halo": 1.8, "title": "遮伏多王朝", "fontsize": 12, "tyid": "304000", "oid": "103:1576575147530", "color": "#0056E7" }, "geometry": { "type": "Point", "coordinates": [ 71.806641, 22.998852 ] } }
{ "type": "Feature", "tippecanoe": { "layer": "2AFCA12489E81583915776489", "minzoom": 2, "maxzoom": 8 }, "properties": { "halo": 1.8, "title": "萨姆巴尔的乔汉王朝", "fontsize": 12, "tyid": "304000", "oid": "103:1576575147314", "color": "#0056E7" }, "geometry": { "type": "Point", "coordinates": [ 74.443359, 27.916767 ] } }
{ "type": "Feature", "tippecanoe": { "layer": "2AFCA12489E81583915776489", "minzoom": 2, "maxzoom": 8 }, "properties": { "halo": 1.8, "title": "吐末罗王朝", "fontsize": 12, "tyid": "304000", "oid": "103:1576575147313", "color": "#0056E7" }, "geometry": { "type": "Point", "coordinates": [ 76.201172, 29.305561 ] } }
{ "type": "Feature", "tippecanoe": { "layer": "2AFCA12489E81583915776489", "minzoom": 2, "maxzoom": 8 }, "properties": { "halo": 1.8, "title": "戛丘里王朝", "fontsize": 12, "tyid": "304000", "oid": "103:1576575147480", "color": "#0056E7" }, "geometry": { "type": "Point", "coordinates": [ 79.013672, 30.145127 ] } }
{ "type": "Feature", "tippecanoe": { "layer": "2AFCA12489E81583915776489", "minzoom": 2, "maxzoom": 8 }, "properties": { "halo": 1.8, "title": "特里普里的卡拉丘里王朝", "fontsize": 12, "tyid": "304000", "oid": "103:1576575147563", "color": "#0056E7" }, "geometry": { "type": "Point", "coordinates": [ 81.035156, 22.998852 ] } }
{ "type": "Feature", "tippecanoe": { "layer": "2AFCA12489E81583915776489", "minzoom": 2, "maxzoom": 8 }, "properties": { "halo": 1.8, "title": "杰达拉塔王朝", "fontsize": 12, "tyid": "304000", "oid": "103:1576575147483", "color": "#0056E7" }, "geometry": { "type": "Point", "coordinates": [ 70.488281, 21.943046 ] } }
{ "type": "Feature", "tippecanoe": { "layer": "2AFCA12489E81583915776489", "minzoom": 2, "maxzoom": 8 }, "properties": { "halo": 1.8, "title": "西恒伽王朝", "fontsize": 12, "tyid": "304000", "oid": "103:1576575147485", "color": "#0056E7" }, "geometry": { "type": "Point", "coordinates": [ 76.904297, 12.811801 ] } }
{ "type": "Feature", "tippecanoe": { "layer": "2AFCA12489E81583915776489", "minzoom": 2, "maxzoom": 8 }, "properties": { "halo": 1.8, "title": "哲罗国", "fontsize": 12, "tyid": "304000", "oid": "103:1576575147322", "color": "#0056E7" }, "geometry": { "type": "Point", "coordinates": [ 76.289062, 10.487812 ] } }
{ "type": "Feature", "tippecanoe": { "layer": "2AFCA12489E81583915776489", "minzoom": 2, "maxzoom": 8 }, "properties": { "halo": 1.8, "title": "潘地亚王国", "fontsize": 12, "tyid": "304000", "oid": "103:1576575147320", "color": "#0056E7" }, "geometry": { "type": "Point", "coordinates": [ 77.783203, 10.055403 ] } }
{ "type": "Feature", "tippecanoe": { "layer": "2AFCA12489E81583915776489", "minzoom": 2, "maxzoom": 8 }, "properties": { "halo": 1.8, "title": "东遮娄其王朝", "fontsize": 12, "tyid": "304000", "oid": "103:1576575147316", "color": "#0056E7" }, "geometry": { "type": "Point", "coordinates": [ 81.738281, 17.224758 ] } }
{ "type": "Feature", "tippecanoe": { "layer": "2AFCA12489E81583915776489", "minzoom": 2, "maxzoom": 8 }, "properties": { "halo": 1.8, "title": "帕拉瓦王朝", "fontsize": 12, "tyid": "304000", "oid": "103:1576575147484", "color": "#0056E7" }, "geometry": { "type": "Point", "coordinates": [ 78.925781, 13.496473 ] } }
{ "type": "Feature", "tippecanoe": { "layer": "2AFCA12489E81583915776489", "minzoom": 2, "maxzoom": 8 }, "properties": { "halo": 1.8, "title": "波缪格逻王朝", "fontsize": 12, "tyid": "304000", "oid": "103:1576575147481", "color": "#0056E7" }, "geometry": { "type": "Point", "coordinates": [ 84.814453, 20.715015 ] } }
{ "type": "Feature", "tippecanoe": { "layer": "2AFCA12489E81583915776489", "minzoom": 2, "maxzoom": 8 }, "properties": { "halo": 1.8, "title": "阿努拉德普勒王国", "fontsize": 12, "tyid": "304000", "oid": "103:1576575147305", "color": "#0056E7" }, "geometry": { "type": "Point", "coordinates": [ 80.683594, 7.623887 ] } }
{ "type": "Feature", "tippecanoe": { "layer": "2AFCA12489E81583915776489", "minzoom": 2, "maxzoom": 8 }, "properties": { "halo": 1.8, "title": "迦摩缕波王国", "fontsize": 12, "tyid": "304000", "oid": "103:1576575147505", "color": "#0056E7" }, "geometry": { "type": "Point", "coordinates": [ 93.251953, 26.273714 ] } }
{ "type": "Feature", "tippecanoe": { "layer": "2AFCA12489E81583915776489", "minzoom": 2, "maxzoom": 8 }, "properties": { "halo": 1.6, "title": "瓦萨利王国", "fontsize": 12, "tyid": "304002", "oid": "103:1576575147329", "color": "#0056E7" }, "geometry": { "type": "Point", "coordinates": [ 93.076172, 22.755921 ] } }
{ "type": "Feature", "tippecanoe": { "layer": "2AFCA12489E81583915776489", "minzoom": 2, "maxzoom": 8 }, "properties": { "halo": 1.8, "title": "直通王国", "fontsize": 12, "tyid": "304000", "oid": "103:1576575147499", "color": "#0056E7" }, "geometry": { "type": "Point", "coordinates": [ 95.537109, 17.308688 ] } }
{ "type": "Feature", "tippecanoe": { "layer": "2AFCA12489E81583915776489", "minzoom": 2, "maxzoom": 8 }, "properties": { "halo": 1.6, "title": "骠国", "fontsize": 12, "tyid": "304002", "oid": "103:1576575147501", "color": "#0056E7" }, "geometry": { "type": "Point", "coordinates": [ 95.712891, 20.961440 ] } }
{ "type": "Feature", "tippecanoe": { "layer": "2AFCA12489E81583915776489", "minzoom": 2, "maxzoom": 8 }, "properties": { "halo": 1.6, "title": "掸族", "fontsize": 12, "tyid": "304001", "oid": "103:1576575147506", "color": "#0056E7" }, "geometry": { "type": "Point", "coordinates": [ 98.613281, 20.632784 ] } }
{ "type": "Feature", "tippecanoe": { "layer": "2AFCA12489E81583915776489", "minzoom": 2, "maxzoom": 8 }, "properties": { "halo": 1.8, "title": "骇黎朋猜国", "fontsize": 12, "tyid": "304000", "oid": "103:1576575147332", "color": "#0056E7" }, "geometry": { "type": "Point", "coordinates": [ 99.580078, 17.978733 ] } }
{ "type": "Feature", "tippecanoe": { "layer": "2AFCA12489E81583915776489", "minzoom": 2, "maxzoom": 8 }, "properties": { "halo": 1.8, "title": "陀罗钵地王国", "fontsize": 12, "tyid": "304000", "oid": "103:1576575147510", "color": "#0056E7" }, "geometry": { "type": "Point", "coordinates": [ 99.228516, 14.519780 ] } }
{ "type": "Feature", "tippecanoe": { "layer": "2AFCA12489E81583915776489", "minzoom": 2, "maxzoom": 8 }, "properties": { "halo": 1.8, "title": "狼牙脩国", "fontsize": 12, "tyid": "304000", "oid": "103:1576575147328", "color": "#0056E7" }, "geometry": { "type": "Point", "coordinates": [ 99.316406, 8.320212 ] } }
{ "type": "Feature", "tippecanoe": { "layer": "2AFCA12489E81583915776489", "minzoom": 2, "maxzoom": 8 }, "properties": { "halo": 1.6, "title": "孟族", "fontsize": 12, "tyid": "304002", "oid": "103:1576575147507", "color": "#0056E7" }, "geometry": { "type": "Point", "coordinates": [ 102.744141, 19.973349 ] } }
{ "type": "Feature", "tippecanoe": { "layer": "2AFCA12489E81583915776489", "minzoom": 2, "maxzoom": 8 }, "properties": { "halo": 1.8, "title": "占婆国", "fontsize": 12, "tyid": "304000", "oid": "103:1576575147502", "color": "#0056E7" }, "geometry": { "type": "Point", "coordinates": [ 107.490234, 16.214675 ] } }
{ "type": "Feature", "tippecanoe": { "layer": "2AFCA12489E81583915776489", "minzoom": 2, "maxzoom": 8 }, "properties": { "halo": 1.8, "title": "新罗", "fontsize": 12, "tyid": "304000", "oid": "103:1576575147488", "color": "#0056E7" }, "geometry": { "type": "Point", "coordinates": [ 128.320312, 36.809285 ] } }
{ "type": "Feature", "tippecanoe": { "layer": "2AFCA12489E81583915776489", "minzoom": 2, "maxzoom": 8 }, "properties": { "halo": 1.6, "title": "尼夫赫人", "fontsize": 12, "tyid": "304001", "oid": "103:1576575147498", "color": "#0056E7" }, "geometry": { "type": "Point", "coordinates": [ 142.470703, 52.536273 ] } }
{ "type": "Feature", "tippecanoe": { "layer": "2AFCA12489E81583915776489", "minzoom": 2, "maxzoom": 8 }, "properties": { "halo": 1.6, "title": "阿伊努人", "fontsize": 12, "tyid": "304001", "oid": "103:1576575147490", "color": "#0056E7" }, "geometry": { "type": "Point", "coordinates": [ 142.558594, 43.389082 ] } }
{ "type": "Feature", "tippecanoe": { "layer": "2AFCA12489E81583915776489", "minzoom": 2, "maxzoom": 8 }, "properties": { "halo": 1.6, "title": "虾夷", "fontsize": 12, "tyid": "304001", "oid": "103:1576575147497", "color": "#0056E7" }, "geometry": { "type": "Point", "coordinates": [ 140.625000, 38.822591 ] } }
{ "type": "Feature", "tippecanoe": { "layer": "2AFCA12489E81583915776489", "minzoom": 2, "maxzoom": 8 }, "properties": { "halo": 1.8, "title": "加鲁王国", "fontsize": 12, "tyid": "304000", "oid": "103:1576575147518", "color": "#0056E7" }, "geometry": { "type": "Point", "coordinates": [ 108.193359, -7.013668 ] } }
{ "type": "Feature", "tippecanoe": { "layer": "2AFCA12489E81583915776489", "minzoom": 2, "maxzoom": 8 }, "properties": { "halo": 1.8, "title": "马打兰王国", "fontsize": 12, "tyid": "304000", "oid": "103:1576575147516", "color": "#0056E7" }, "geometry": { "type": "Point", "coordinates": [ 111.269531, -7.449624 ] } }
{ "type": "Feature", "tippecanoe": { "layer": "2AFCA12489E81583915776489", "minzoom": 2, "maxzoom": 8 }, "properties": { "halo": 1.8, "title": "夏连特拉王朝", "fontsize": 12, "tyid": "304000", "oid": "103:1576575147513", "color": "#0056E7" }, "geometry": { "type": "Point", "coordinates": [ 114.257812, -2.986927 ] } }
{ "type": "Feature", "tippecanoe": { "layer": "2AFCA1248A581583915776493", "minzoom": 2, "maxzoom": 8 }, "properties": { "tyid": "410000", "centroid": "{\"type\":\"Point\",\"coordinates\":[102.890655519,50.32448578]}", "opacity": 1, "oid": "103:1582721307215", "color": "#A11300", "width": 3 }, "geometry": { "type": "MultiLineString", "coordinates": [ [ [ 108.017578, 21.616579 ], [ 106.611328, 22.024546 ], [ 106.523438, 22.512557 ], [ 106.699219, 22.836946 ], [ 105.820312, 22.998852 ], [ 105.205078, 23.402765 ], [ 103.886719, 22.512557 ], [ 103.535156, 22.836946 ], [ 103.183594, 22.105999 ], [ 102.480469, 22.512557 ], [ 101.777344, 21.861499 ], [ 101.689453, 21.207459 ], [ 101.162109, 21.207459 ], [ 100.986328, 21.779905 ], [ 100.195312, 21.534847 ], [ 99.843750, 22.105999 ], [ 99.140625, 22.187405 ], [ 99.228516, 22.917923 ], [ 98.437500, 23.079732 ], [ 98.701172, 23.402765 ], [ 98.349609, 23.966176 ], [ 98.525391, 24.206890 ], [ 97.294922, 23.805450 ], [ 97.470703, 25.324167 ], [ 98.261719, 26.431228 ], [ 98.701172, 26.667096 ], [ 98.613281, 27.605671 ], [ 98.261719, 27.605671 ], [ 98.085938, 28.226970 ], [ 97.558594, 28.536275 ], [ 97.031250, 27.761330 ], [ 96.240234, 28.304381 ], [ 95.625000, 28.304381 ], [ 94.218750, 27.605671 ], [ 93.691406, 27.059126 ], [ 92.988281, 26.902477 ], [ 92.021484, 26.902477 ], [ 92.109375, 27.371767 ], [ 91.494141, 27.605671 ], [ 91.494141, 27.916767 ], [ 90.791016, 28.071980 ] ], [ [ 130.605469, 42.293564 ], [ 130.166016, 42.940339 ], [ 129.814453, 43.004647 ], [ 129.638672, 42.488302 ], [ 129.287109, 42.423457 ], [ 128.847656, 42.032974 ], [ 127.968750, 42.032974 ], [ 128.232422, 41.574361 ], [ 128.056641, 41.442726 ], [ 127.177734, 41.508577 ], [ 126.826172, 41.836828 ], [ 125.947266, 40.913513 ], [ 124.804688, 40.513799 ], [ 124.277344, 40.044438 ] ], [ [ 135.263672, 54.775346 ], [ 132.978516, 54.162434 ], [ 130.517578, 54.110943 ], [ 131.835938, 54.927142 ], [ 131.044922, 55.677584 ], [ 129.462891, 55.776573 ], [ 128.759766, 55.528631 ], [ 127.705078, 55.727110 ], [ 126.123047, 55.627996 ], [ 125.859375, 55.825973 ], [ 124.804688, 55.924586 ], [ 123.134766, 54.775346 ], [ 121.376953, 54.265224 ], [ 121.025391, 54.521081 ], [ 120.234375, 54.162434 ], [ 119.267578, 54.007769 ], [ 119.003906, 53.383328 ], [ 119.179688, 53.120405 ], [ 120.058594, 53.488046 ], [ 121.201172, 53.540307 ], [ 121.376953, 53.383328 ], [ 120.761719, 53.278353 ], [ 119.970703, 52.802761 ], [ 120.058594, 52.589701 ], [ 120.673828, 52.536273 ], [ 120.673828, 51.998410 ], [ 120.058594, 51.672555 ], [ 119.091797, 50.401515 ], [ 119.355469, 50.401515 ], [ 119.267578, 50.120578 ], [ 118.037109, 49.610710 ], [ 116.191406, 50.064192 ], [ 115.312500, 49.951220 ], [ 114.960938, 50.233152 ], [ 114.257812, 50.289339 ], [ 112.675781, 49.496675 ], [ 110.654297, 49.152970 ], [ 108.457031, 49.382373 ], [ 107.929688, 49.724479 ], [ 107.929688, 49.951220 ], [ 107.050781, 50.064192 ], [ 106.523438, 50.345460 ], [ 105.292969, 50.513427 ], [ 103.974609, 50.176898 ], [ 103.271484, 50.233152 ], [ 102.216797, 50.625073 ], [ 102.041016, 51.399206 ], [ 98.964844, 52.106505 ], [ 98.613281, 52.482780 ], [ 98.876953, 52.908902 ], [ 99.140625, 52.961875 ], [ 98.789062, 53.173119 ], [ 98.173828, 53.120405 ], [ 96.767578, 53.800651 ], [ 96.416016, 53.592505 ], [ 94.658203, 53.435719 ], [ 94.394531, 52.961875 ], [ 94.130859, 52.908902 ], [ 93.515625, 52.214339 ], [ 92.812500, 51.890054 ], [ 91.054688, 51.890054 ], [ 90.175781, 52.696361 ], [ 87.802734, 53.383328 ], [ 86.396484, 53.173119 ], [ 86.132812, 52.908902 ], [ 83.056641, 51.618017 ], [ 82.617188, 51.179343 ], [ 83.056641, 50.958427 ], [ 83.232422, 50.513427 ], [ 82.529297, 49.724479 ], [ 82.529297, 49.325122 ], [ 81.298828, 48.690960 ], [ 81.035156, 48.166085 ], [ 79.628906, 47.694974 ], [ 79.453125, 46.800059 ], [ 78.750000, 46.800059 ], [ 78.750000, 46.619261 ], [ 78.574219, 46.800059 ], [ 78.222656, 46.498392 ], [ 77.783203, 46.679594 ], [ 74.531250, 46.800059 ], [ 73.564453, 46.134170 ], [ 73.388672, 45.706179 ], [ 72.070312, 44.964798 ], [ 70.488281, 44.402392 ], [ 69.521484, 43.452919 ], [ 70.927734, 42.293564 ], [ 73.212891, 42.163403 ], [ 73.916016, 41.836828 ], [ 74.003906, 41.574361 ], [ 73.300781, 41.508577 ], [ 73.828125, 41.046217 ], [ 73.212891, 40.847060 ], [ 72.949219, 40.446947 ], [ 73.125000, 40.044438 ], [ 72.773438, 39.842286 ], [ 72.861328, 39.368279 ], [ 72.421875, 39.436193 ], [ 72.070312, 39.095963 ], [ 72.246094, 38.548165 ], [ 71.894531, 38.272689 ], [ 72.158203, 37.649034 ], [ 71.718750, 36.738884 ], [ 73.476562, 37.509726 ], [ 73.740234, 37.439974 ], [ 73.740234, 37.160317 ], [ 74.531250, 37.090240 ], [ 75.673828, 36.385913 ], [ 75.761719, 36.031332 ], [ 74.882812, 35.817813 ], [ 75.322266, 35.173808 ], [ 75.146484, 34.669359 ], [ 76.113281, 33.578015 ], [ 77.080078, 32.990236 ], [ 77.080078, 32.472695 ], [ 77.871094, 31.802893 ], [ 78.662109, 31.728167 ], [ 79.013672, 31.052934 ], [ 79.892578, 30.826781 ], [ 80.683594, 30.145127 ], [ 82.001953, 30.145127 ], [ 83.583984, 29.228890 ], [ 83.935547, 29.305561 ], [ 84.462891, 28.536275 ], [ 85.605469, 28.226970 ], [ 85.869141, 27.916767 ], [ 87.714844, 27.839076 ], [ 88.681641, 28.071980 ], [ 88.945312, 27.215556 ], [ 89.560547, 28.226970 ], [ 90.791016, 28.071980 ] ] ] } }
{ "type": "Feature", "tippecanoe": { "layer": "2AFCA1248A581583915776493", "minzoom": 2, "maxzoom": 8 }, "properties": { "tyid": "410000", "centroid": "{\"type\":\"Point\",\"coordinates\":[118.9965612163,11.9748626986]}", "opacity": 1, "oid": "103:1582721307213", "color": "#A11300", "width": 3 }, "geometry": { "type": "MultiLineString", "coordinates": [ [ [ 122.695312, 24.447150 ], [ 122.431641, 23.402765 ] ], [ [ 120.849609, 20.550509 ], [ 121.728516, 21.616579 ] ], [ [ 119.355469, 17.727759 ], [ 119.794922, 18.895893 ] ], [ [ 118.916016, 14.689881 ], [ 118.916016, 16.045813 ] ], [ [ 118.476562, 10.833306 ], [ 119.003906, 12.039321 ] ], [ [ 115.312500, 7.013668 ], [ 116.191406, 8.059230 ] ], [ [ 111.708984, 3.425692 ], [ 112.939453, 3.864255 ] ], [ [ 108.281250, 5.965754 ], [ 108.193359, 7.362467 ] ], [ [ 110.039062, 11.264612 ], [ 110.214844, 12.468760 ] ], [ [ 109.775391, 15.029686 ], [ 109.248047, 16.214675 ] ] ] } }
{ "type": "Feature", "tippecanoe": { "layer": "2AFCA1248CC01583915776487", "minzoom": 2, "maxzoom": 8 }, "properties": { "halo": 1.8, "title": "托尔特克帝国", "fontsize": 12, "tyid": "304000", "oid": "103:1576575147574", "color": "#0056E7" }, "geometry": { "type": "Point", "coordinates": [ -100.634766, 20.303418 ] } }
{ "type": "Feature", "tippecanoe": { "layer": "2AFCA1248CC01583915776487", "minzoom": 2, "maxzoom": 8 }, "properties": { "halo": 1.8, "title": "玛雅文明[古典时期]", "fontsize": 12, "tyid": "304000", "oid": "103:1576575147342", "color": "#0056E7" }, "geometry": { "type": "Point", "coordinates": [ -91.230469, 16.551962 ] } }
{ "type": "Feature", "tippecanoe": { "layer": "2AFCA1248CC01583915776487", "minzoom": 2, "maxzoom": 8 }, "properties": { "halo": 1.6, "title": "柏柏尔人诸部", "fontsize": 12, "tyid": "304002", "oid": "103:1576575147385", "color": "#0056E7" }, "geometry": { "type": "Point", "coordinates": [ -5.888672, 33.504759 ] } }
{ "type": "Feature", "tippecanoe": { "layer": "2AFCA1248CC01583915776487", "minzoom": 2, "maxzoom": 8 }, "properties": { "halo": 1.8, "title": "科尔多瓦埃米尔国", "fontsize": 12, "tyid": "304000", "oid": "103:1576575147291", "color": "#0056E7" }, "geometry": { "type": "Point", "coordinates": [ -4.130859, 39.504041 ] } }
{ "type": "Feature", "tippecanoe": { "layer": "2AFCA1248CC01583915776487", "minzoom": 2, "maxzoom": 8 }, "properties": { "halo": 1.6, "title": "曼德人", "fontsize": 12, "tyid": "304001", "oid": "103:1576575147541", "color": "#0056E7" }, "geometry": { "type": "Point", "coordinates": [ -6.591797, 13.154376 ] } }
{ "type": "Feature", "tippecanoe": { "layer": "2AFCA1248CC01583915776487", "minzoom": 2, "maxzoom": 8 }, "properties": { "halo": 1.8, "title": "瓦里帝国", "fontsize": 12, "tyid": "304000", "oid": "103:1576575147573", "color": "#0056E7" }, "geometry": { "type": "Point", "coordinates": [ -74.619141, -12.554564 ] } }
{ "type": "Feature", "tippecanoe": { "layer": "2AFCA1248CC01583915776487", "minzoom": 2, "maxzoom": 8 }, "properties": { "halo": 1.8, "title": "蒂亚瓦纳科帝国", "fontsize": 12, "tyid": "304000", "oid": "103:1576575147571", "color": "#0056E7" }, "geometry": { "type": "Point", "coordinates": [ -68.466797, -19.062118 ] } }
{ "type": "Feature", "tippecanoe": { "layer": "2AFCA1248CC01583915776487", "minzoom": 2, "maxzoom": 8 }, "properties": { "halo": 1.6, "title": "萨米人", "fontsize": 12, "tyid": "304001", "oid": "103:1576575147407", "color": "#0056E7" }, "geometry": { "type": "Point", "coordinates": [ 26.367188, 68.592487 ] } }
{ "type": "Feature", "tippecanoe": { "layer": "2AFCA1248CC01583915776487", "minzoom": 2, "maxzoom": 8 }, "properties": { "halo": 1.8, "title": "查理曼帝国", "fontsize": 12, "tyid": "304000", "oid": "103:1576575147566", "color": "#0056E7" }, "geometry": { "type": "Point", "coordinates": [ 5.625000, 47.635784 ] } }
{ "type": "Feature", "tippecanoe": { "layer": "2AFCA1248CC01583915776487", "minzoom": 2, "maxzoom": 8 }, "properties": { "halo": 1.6, "title": "西斯拉夫人", "fontsize": 12, "tyid": "304002", "oid": "103:1576575147395", "color": "#0056E7" }, "geometry": { "type": "Point", "coordinates": [ 17.050781, 52.052490 ] } }
{ "type": "Feature", "tippecanoe": { "layer": "2AFCA1248CC01583915776487", "minzoom": 2, "maxzoom": 8 }, "properties": { "halo": 1.8, "title": "阿瓦尔汗国", "fontsize": 12, "tyid": "304000", "oid": "103:1576575147437", "color": "#0056E7" }, "geometry": { "type": "Point", "coordinates": [ 21.796875, 46.377254 ] } }
{ "type": "Feature", "tippecanoe": { "layer": "2AFCA1248CC01583915776487", "minzoom": 2, "maxzoom": 8 }, "properties": { "halo": 1.6, "title": "南斯拉夫人", "fontsize": 12, "tyid": "304001", "oid": "103:1576575147431", "color": "#0056E7" }, "geometry": { "type": "Point", "coordinates": [ 21.357422, 41.310824 ] } }
{ "type": "Feature", "tippecanoe": { "layer": "2AFCA1248CC01583915776487", "minzoom": 2, "maxzoom": 8 }, "properties": { "halo": 1.6, "title": "芬兰人", "fontsize": 12, "tyid": "304001", "oid": "103:1576575147406", "color": "#0056E7" }, "geometry": { "type": "Point", "coordinates": [ 29.970703, 65.440002 ] } }
{ "type": "Feature", "tippecanoe": { "layer": "2AFCA1248CC01583915776487", "minzoom": 2, "maxzoom": 8 }, "properties": { "halo": 1.6, "title": "诺夫哥罗德斯拉夫人", "fontsize": 12, "tyid": "304001", "oid": "103:1576575147421", "color": "#0056E7" }, "geometry": { "type": "Point", "coordinates": [ 31.904297, 57.088515 ] } }
{ "type": "Feature", "tippecanoe": { "layer": "2AFCA1248CC01583915776487", "minzoom": 2, "maxzoom": 8 }, "properties": { "halo": 1.6, "title": "东斯拉夫人", "fontsize": 12, "tyid": "304001", "oid": "103:1576575147445", "color": "#0056E7" }, "geometry": { "type": "Point", "coordinates": [ 30.146484, 50.903033 ] } }
{ "type": "Feature", "tippecanoe": { "layer": "2AFCA1248CC01583915776487", "minzoom": 2, "maxzoom": 8 }, "properties": { "halo": 1.8, "title": "保加利亚第一王国", "fontsize": 12, "tyid": "304000", "oid": "103:1576575147428", "color": "#0056E7" }, "geometry": { "type": "Point", "coordinates": [ 26.279297, 43.580391 ] } }
{ "type": "Feature", "tippecanoe": { "layer": "2AFCA1248CC01583915776487", "minzoom": 2, "maxzoom": 8 }, "properties": { "halo": 1.8, "title": "可萨汗国", "fontsize": 12, "tyid": "304000", "oid": "103:1576575147524", "color": "#0056E7" }, "geometry": { "type": "Point", "coordinates": [ 42.714844, 47.931066 ] } }
{ "type": "Feature", "tippecanoe": { "layer": "2AFCA1248CC01583915776487", "minzoom": 2, "maxzoom": 8 }, "properties": { "halo": 1.6, "title": "萨奥文明", "fontsize": 12, "tyid": "304002", "oid": "103:1576575147551", "color": "#0056E7" }, "geometry": { "type": "Point", "coordinates": [ 7.822266, 7.536764 ] } }
{ "type": "Feature", "tippecanoe": { "layer": "2AFCA1248CC01583915776487", "minzoom": 2, "maxzoom": 8 }, "properties": { "halo": 1.8, "title": "加涅姆帝国", "fontsize": 12, "tyid": "304000", "oid": "103:1576575147547", "color": "#0056E7" }, "geometry": { "type": "Point", "coordinates": [ 14.150391, 11.867351 ] } }
{ "type": "Feature", "tippecanoe": { "layer": "2AFCA1248CC01583915776487", "minzoom": 2, "maxzoom": 8 }, "properties": { "halo": 1.6, "title": "西北班图人诸部", "fontsize": 12, "tyid": "304002", "oid": "103:1576575147534", "color": "#0056E7" }, "geometry": { "type": "Point", "coordinates": [ 18.017578, 1.669686 ] } }
{ "type": "Feature", "tippecanoe": { "layer": "2AFCA1248CC01583915776487", "minzoom": 2, "maxzoom": 8 }, "properties": { "halo": 1.8, "title": "东罗马帝国", "fontsize": 12, "tyid": "304000", "oid": "103:1576575147423", "color": "#0056E7" }, "geometry": { "type": "Point", "coordinates": [ 32.783203, 39.232253 ] } }
{ "type": "Feature", "tippecanoe": { "layer": "2AFCA1248CC01583915776487", "minzoom": 2, "maxzoom": 8 }, "properties": { "halo": 1.6, "title": "图阿雷格人", "fontsize": 12, "tyid": "304001", "oid": "103:1576575147559", "color": "#0056E7" }, "geometry": { "type": "Point", "coordinates": [ 23.027344, 26.588527 ] } }
{ "type": "Feature", "tippecanoe": { "layer": "2AFCA1248CC01583915776487", "minzoom": 2, "maxzoom": 8 }, "properties": { "halo": 1.8, "title": "阿拔斯哈里发国", "fontsize": 12, "tyid": "304000", "oid": "103:1576575147391", "color": "#0056E7" }, "geometry": { "type": "Point", "coordinates": [ 42.275391, 32.842674 ] } }
{ "type": "Feature", "tippecanoe": { "layer": "2AFCA1248CC01583915776487", "minzoom": 2, "maxzoom": 8 }, "properties": { "halo": 1.6, "title": "札加瓦人", "fontsize": 12, "tyid": "304001", "oid": "103:1576575147562", "color": "#0056E7" }, "geometry": { "type": "Point", "coordinates": [ 23.203125, 13.496473 ] } }
{ "type": "Feature", "tippecanoe": { "layer": "2AFCA1248CC01583915776487", "minzoom": 2, "maxzoom": 8 }, "properties": { "halo": 1.8, "title": "马库里亚王国", "fontsize": 12, "tyid": "304000", "oid": "103:1576575147543", "color": "#0056E7" }, "geometry": { "type": "Point", "coordinates": [ 31.904297, 19.559790 ] } }
{ "type": "Feature", "tippecanoe": { "layer": "2AFCA1248CC01583915776487", "minzoom": 2, "maxzoom": 8 }, "properties": { "halo": 1.6, "title": "尼罗特人", "fontsize": 12, "tyid": "304001", "oid": "103:1576575147556", "color": "#0056E7" }, "geometry": { "type": "Point", "coordinates": [ 32.783203, 3.864255 ] } }
{ "type": "Feature", "tippecanoe": { "layer": "2AFCA1248CC01583915776487", "minzoom": 2, "maxzoom": 8 }, "properties": { "halo": 1.8, "title": "阿克苏姆王国", "fontsize": 12, "tyid": "304000", "oid": "103:1576575147533", "color": "#0056E7" }, "geometry": { "type": "Point", "coordinates": [ 39.726562, 12.983148 ] } }
{ "type": "Feature", "tippecanoe": { "layer": "2AFCA1248CC01583915776487", "minzoom": 2, "maxzoom": 8 }, "properties": { "halo": 1.6, "title": "佩切涅格人", "fontsize": 12, "tyid": "304001", "oid": "103:1576575147467", "color": "#0056E7" }, "geometry": { "type": "Point", "coordinates": [ 53.525391, 49.496675 ] } }
{ "type": "Feature", "tippecanoe": { "layer": "2AFCA1248CC01583915776487", "minzoom": 2, "maxzoom": 8 }, "properties": { "halo": 1.6, "title": "巴什基尔人", "fontsize": 12, "tyid": "304001", "oid": "103:1576575147440", "color": "#0056E7" }, "geometry": { "type": "Point", "coordinates": [ 56.601562, 52.589701 ] } }
{ "type": "Feature", "tippecanoe": { "layer": "2AFCA1248CC01583915776487", "minzoom": 2, "maxzoom": 8 }, "properties": { "halo": 1.6, "title": "钦察人", "fontsize": 12, "tyid": "304001", "oid": "103:1576575147466", "color": "#0056E7" }, "geometry": { "type": "Point", "coordinates": [ 67.412109, 50.120578 ] } }
{ "type": "Feature", "tippecanoe": { "layer": "2AFCA1248CC01583915776487", "minzoom": 2, "maxzoom": 8 }, "properties": { "halo": 1.8, "title": "乌古斯叶护国", "fontsize": 12, "tyid": "304000", "oid": "103:1576575147462", "color": "#0056E7" }, "geometry": { "type": "Point", "coordinates": [ 56.425781, 45.521744 ] } }
{ "type": "Feature", "tippecanoe": { "layer": "2AFCA1248CC01583915776487", "minzoom": 2, "maxzoom": 8 }, "properties": { "halo": 1.6, "title": "雅库特人", "fontsize": 12, "tyid": "304001", "oid": "103:1576575147459", "color": "#0056E7" }, "geometry": { "type": "Point", "coordinates": [ 68.994141, 56.656226 ] } }
{ "type": "Feature", "tippecanoe": { "layer": "2AFCA1248CC01583915776487", "minzoom": 2, "maxzoom": 8 }, "properties": { "halo": 1.6, "title": "萨莫耶德人", "fontsize": 12, "tyid": "304001", "oid": "103:1576575147469", "color": "#0056E7" }, "geometry": { "type": "Point", "coordinates": [ 80.507812, 60.108670 ] } }
{ "type": "Feature", "tippecanoe": { "layer": "2AFCA1248CC01583915776487", "minzoom": 2, "maxzoom": 8 }, "properties": { "halo": 1.6, "title": "基马克人", "fontsize": 12, "tyid": "304001", "oid": "103:1576575147461", "color": "#0056E7" }, "geometry": { "type": "Point", "coordinates": [ 78.662109, 49.037868 ] } }
{ "type": "Feature", "tippecanoe": { "layer": "2AFCA1248CC01583915776487", "minzoom": 2, "maxzoom": 8 }, "properties": { "halo": 1.6, "title": "葛逻禄叶护国", "fontsize": 12, "tyid": "304001", "oid": "103:1576575147463", "color": "#0056E7" }, "geometry": { "type": "Point", "coordinates": [ 78.134766, 44.840291 ] } }
{ "type": "Feature", "tippecanoe": { "layer": "2AFCA1248CC01583915776487", "minzoom": 2, "maxzoom": 8 }, "properties": { "halo": 1.8, "title": "喀布尔夏希王朝", "fontsize": 12, "tyid": "304000", "oid": "103:1576575147311", "color": "#0056E7" }, "geometry": { "type": "Point", "coordinates": [ 70.224609, 33.651208 ] } }
{ "type": "Feature", "tippecanoe": { "layer": "2AFCA1248CC01583915776487", "minzoom": 2, "maxzoom": 8 }, "properties": { "halo": 1.8, "title": "卡尔科塔王朝", "fontsize": 12, "tyid": "304000", "oid": "103:1576575147479", "color": "#0056E7" }, "geometry": { "type": "Point", "coordinates": [ 74.443359, 34.307144 ] } }
{ "type": "Feature", "tippecanoe": { "layer": "2AFCA1248CC01583915776487", "minzoom": 2, "maxzoom": 8 }, "properties": { "halo": 1.8, "title": "瞿折罗-普罗蒂诃罗王朝", "fontsize": 12, "tyid": "304000", "oid": "103:1576575147318", "color": "#0056E7" }, "geometry": { "type": "Point", "coordinates": [ 75.234375, 24.447150 ] } }
{ "type": "Feature", "tippecanoe": { "layer": "2AFCA1248CC01583915776487", "minzoom": 2, "maxzoom": 8 }, "properties": { "halo": 1.8, "title": "波罗帝国", "fontsize": 12, "tyid": "304000", "oid": "103:1576575147315", "color": "#0056E7" }, "geometry": { "type": "Point", "coordinates": [ 85.693359, 24.846565 ] } }
{ "type": "Feature", "tippecanoe": { "layer": "2AFCA1248CC01583915776487", "minzoom": 2, "maxzoom": 8 }, "properties": { "halo": 1.8, "title": "罗湿陀罗拘陀王朝", "fontsize": 12, "tyid": "304000", "oid": "103:1576575147439", "color": "#0056E7" }, "geometry": { "type": "Point", "coordinates": [ 76.376953, 18.646245 ] } }
{ "type": "Feature", "tippecanoe": { "layer": "2AFCA1248CC01583915776487", "minzoom": 2, "maxzoom": 8 }, "properties": { "halo": 1.6, "title": "通古斯人", "fontsize": 12, "tyid": "304001", "oid": "103:1576575147492", "color": "#0056E7" }, "geometry": { "type": "Point", "coordinates": [ 98.173828, 64.014496 ] } }
{ "type": "Feature", "tippecanoe": { "layer": "2AFCA1248CC01583915776487", "minzoom": 2, "maxzoom": 8 }, "properties": { "halo": 1.8, "title": "回鹘汗国", "fontsize": 12, "tyid": "304000", "oid": "103:1576575147309", "color": "#0056E7" }, "geometry": { "type": "Point", "coordinates": [ 105.380859, 48.690960 ] } }
{ "type": "Feature", "tippecanoe": { "layer": "2AFCA1248CC01583915776487", "minzoom": 2, "maxzoom": 8 }, "properties": { "halo": 1.6, "title": "室韦诸部", "fontsize": 12, "tyid": "304002", "oid": "103:1576575147495", "color": "#0056E7" }, "geometry": { "type": "Point", "coordinates": [ 126.826172, 52.268157 ] } }
{ "type": "Feature", "tippecanoe": { "layer": "2AFCA1248CC01583915776487", "minzoom": 2, "maxzoom": 8 }, "properties": { "halo": 1.8, "title": "渤海国", "fontsize": 12, "tyid": "304000", "oid": "103:1576575147325", "color": "#0056E7" }, "geometry": { "type": "Point", "coordinates": [ 130.341797, 44.213710 ] } }
{ "type": "Feature", "tippecanoe": { "layer": "2AFCA1248CC01583915776487", "minzoom": 2, "maxzoom": 8 }, "properties": { "halo": 1.8, "title": "吐蕃", "fontsize": 12, "tyid": "304000", "oid": "103:1576575147476", "color": "#0056E7" }, "geometry": { "type": "Point", "coordinates": [ 93.339844, 35.101934 ] } }
{ "type": "Feature", "tippecanoe": { "layer": "2AFCA1248CC01583915776487", "minzoom": 2, "maxzoom": 8 }, "properties": { "halo": 1.8, "title": "南诏国", "fontsize": 12, "tyid": "304000", "oid": "103:1576575147330", "color": "#0056E7" }, "geometry": { "type": "Point", "coordinates": [ 100.546875, 24.367114 ] } }
{ "type": "Feature", "tippecanoe": { "layer": "2AFCA1248CC01583915776487", "minzoom": 2, "maxzoom": 8 }, "properties": { "halo": 1.8, "title": "陆真腊王国", "fontsize": 12, "tyid": "304000", "oid": "103:1576575147333", "color": "#0056E7" }, "geometry": { "type": "Point", "coordinates": [ 104.150391, 16.045813 ] } }
{ "type": "Feature", "tippecanoe": { "layer": "2AFCA1248CC01583915776487", "minzoom": 2, "maxzoom": 8 }, "properties": { "halo": 1.8, "title": "唐", "fontsize": 12, "tyid": "304000", "oid": "103:1576575147473", "color": "#0056E7" }, "geometry": { "type": "Point", "coordinates": [ 112.675781, 36.173357 ] } }
{ "type": "Feature", "tippecanoe": { "layer": "2AFCA1248CC01583915776487", "minzoom": 2, "maxzoom": 8 }, "properties": { "halo": 1.8, "title": "日本平安时代", "fontsize": 12, "tyid": "304000", "oid": "103:1576575147323", "color": "#0056E7" }, "geometry": { "type": "Point", "coordinates": [ 138.339844, 36.102376 ] } }
{ "type": "Feature", "tippecanoe": { "layer": "2AFCA1248CC01583915776487", "minzoom": 2, "maxzoom": 8 }, "properties": { "halo": 1.6, "title": "西班图人诸部", "fontsize": 12, "tyid": "304002", "oid": "103:1576575147558", "color": "#0056E7" }, "geometry": { "type": "Point", "coordinates": [ 18.720703, -12.554564 ] } }
{ "type": "Feature", "tippecanoe": { "layer": "2AFCA1248CC01583915776487", "minzoom": 2, "maxzoom": 8 }, "properties": { "halo": 1.6, "title": "东班图人诸部", "fontsize": 12, "tyid": "304002", "oid": "103:1576575147531", "color": "#0056E7" }, "geometry": { "type": "Point", "coordinates": [ 31.201172, -10.401378 ] } }
{ "type": "Feature", "tippecanoe": { "layer": "2AFCA1248CC01583915776487", "minzoom": 2, "maxzoom": 8 }, "properties": { "halo": 1.6, "title": "斯瓦西里人", "fontsize": 12, "tyid": "304001", "oid": "103:1576575147553", "color": "#0056E7" }, "geometry": { "type": "Point", "coordinates": [ 36.386719, -17.056785 ] } }
{ "type": "Feature", "tippecanoe": { "layer": "2AFCA1248CC01583915776487", "minzoom": 2, "maxzoom": 8 }, "properties": { "halo": 1.6, "title": "科伊桑人", "fontsize": 12, "tyid": "304002", "oid": "103:1576575147555", "color": "#0056E7" }, "geometry": { "type": "Point", "coordinates": [ 24.433594, -27.761330 ] } }
{ "type": "Feature", "tippecanoe": { "layer": "2AFCA1248CC01583915776487", "minzoom": 2, "maxzoom": 8 }, "properties": { "halo": 1.8, "title": "三佛齐王国", "fontsize": 12, "tyid": "304000", "oid": "103:1576575147326", "color": "#0056E7" }, "geometry": { "type": "Point", "coordinates": [ 101.777344, -0.175781 ] } }
{ "type": "Feature", "tippecanoe": { "layer": "2AFCA1248E481583915776481", "minzoom": 2, "maxzoom": 8 }, "properties": { "halo": 0.8, "title": "托尔特克帝国", "fontsize": 12, "tyid": "304000", "oid": "103:1576575147574", "color": "#202020" }, "geometry": { "type": "Point", "coordinates": [ -100.634766, 20.303418 ] } }
{ "type": "Feature", "tippecanoe": { "layer": "2AFCA1248E481583915776481", "minzoom": 2, "maxzoom": 8 }, "properties": { "halo": 0.8, "title": "玛雅文明[古典时期]", "fontsize": 12, "tyid": "304000", "oid": "103:1576575147342", "color": "#202020" }, "geometry": { "type": "Point", "coordinates": [ -91.230469, 16.551962 ] } }
{ "type": "Feature", "tippecanoe": { "layer": "2AFCA1248E481583915776481", "minzoom": 2, "maxzoom": 8 }, "properties": { "halo": 0.8, "title": "柏柏尔人诸部", "fontsize": 12, "tyid": "304002", "oid": "103:1576575147385", "color": "#262626" }, "geometry": { "type": "Point", "coordinates": [ -5.888672, 33.504759 ] } }
{ "type": "Feature", "tippecanoe": { "layer": "2AFCA1248E481583915776481", "minzoom": 2, "maxzoom": 8 }, "properties": { "halo": 0.8, "title": "科尔多瓦埃米尔国", "fontsize": 12, "tyid": "304000", "oid": "103:1576575147291", "color": "#202020" }, "geometry": { "type": "Point", "coordinates": [ -4.130859, 39.504041 ] } }
{ "type": "Feature", "tippecanoe": { "layer": "2AFCA1248E481583915776481", "minzoom": 2, "maxzoom": 8 }, "properties": { "halo": 0.8, "title": "曼德人", "fontsize": 12, "tyid": "304001", "oid": "103:1576575147541", "color": "#262626" }, "geometry": { "type": "Point", "coordinates": [ -6.591797, 13.154376 ] } }
{ "type": "Feature", "tippecanoe": { "layer": "2AFCA1248E481583915776481", "minzoom": 2, "maxzoom": 8 }, "properties": { "halo": 0.8, "title": "瓦里帝国", "fontsize": 12, "tyid": "304000", "oid": "103:1576575147573", "color": "#202020" }, "geometry": { "type": "Point", "coordinates": [ -74.619141, -12.554564 ] } }
{ "type": "Feature", "tippecanoe": { "layer": "2AFCA1248E481583915776481", "minzoom": 2, "maxzoom": 8 }, "properties": { "halo": 0.8, "title": "蒂亚瓦纳科帝国", "fontsize": 12, "tyid": "304000", "oid": "103:1576575147571", "color": "#202020" }, "geometry": { "type": "Point", "coordinates": [ -68.466797, -19.062118 ] } }
{ "type": "Feature", "tippecanoe": { "layer": "2AFCA1248E481583915776481", "minzoom": 2, "maxzoom": 8 }, "properties": { "halo": 0.8, "title": "萨米人", "fontsize": 12, "tyid": "304001", "oid": "103:1576575147407", "color": "#262626" }, "geometry": { "type": "Point", "coordinates": [ 26.367188, 68.592487 ] } }
{ "type": "Feature", "tippecanoe": { "layer": "2AFCA1248E481583915776481", "minzoom": 2, "maxzoom": 8 }, "properties": { "halo": 0.8, "title": "查理曼帝国", "fontsize": 12, "tyid": "304000", "oid": "103:1576575147566", "color": "#202020" }, "geometry": { "type": "Point", "coordinates": [ 5.625000, 47.635784 ] } }
{ "type": "Feature", "tippecanoe": { "layer": "2AFCA1248E481583915776481", "minzoom": 2, "maxzoom": 8 }, "properties": { "halo": 0.8, "title": "西斯拉夫人", "fontsize": 12, "tyid": "304002", "oid": "103:1576575147395", "color": "#262626" }, "geometry": { "type": "Point", "coordinates": [ 17.050781, 52.052490 ] } }
{ "type": "Feature", "tippecanoe": { "layer": "2AFCA1248E481583915776481", "minzoom": 2, "maxzoom": 8 }, "properties": { "halo": 0.8, "title": "阿瓦尔汗国", "fontsize": 12, "tyid": "304000", "oid": "103:1576575147437", "color": "#202020" }, "geometry": { "type": "Point", "coordinates": [ 21.796875, 46.377254 ] } }
{ "type": "Feature", "tippecanoe": { "layer": "2AFCA1248E481583915776481", "minzoom": 2, "maxzoom": 8 }, "properties": { "halo": 0.8, "title": "南斯拉夫人", "fontsize": 12, "tyid": "304001", "oid": "103:1576575147431", "color": "#262626" }, "geometry": { "type": "Point", "coordinates": [ 21.357422, 41.310824 ] } }
{ "type": "Feature", "tippecanoe": { "layer": "2AFCA1248E481583915776481", "minzoom": 2, "maxzoom": 8 }, "properties": { "halo": 0.8, "title": "芬兰人", "fontsize": 12, "tyid": "304001", "oid": "103:1576575147406", "color": "#262626" },