{"year": "AD980",  "type": "Feature", "tippecanoe": { "layer": "2AFCA12B05181583915621368", "minzoom": 2, "maxzoom": 8 }, "properties": { "halo": 0.8, "title": "玛雅文明[后古典时期]", "fontsize": 12, "tyid": "304000", "oid": "103:1576922422889", "color": "#202020" }, "geometry": { "type": "Point", "coordinates": [ -89.208984, 19.228177 ] } }
{"year": "AD980",  "type": "Feature", "tippecanoe": { "layer": "2AFCA12B05181583915621368", "minzoom": 2, "maxzoom": 8 }, "properties": { "halo": 0.8, "title": "冰岛自由邦", "fontsize": 12, "tyid": "304000", "oid": "103:1535120173502", "color": "#202020" }, "geometry": { "type": "Point", "coordinates": [ -19.072266, 64.811557 ] } }
{"year": "AD980",  "type": "Feature", "tippecanoe": { "layer": "2AFCA12B05181583915621368", "minzoom": 2, "maxzoom": 8 }, "properties": { "halo": 0.8, "title": "英格兰王国", "fontsize": 12, "tyid": "304000", "oid": "103:1537435999896", "color": "#202020" }, "geometry": { "type": "Point", "coordinates": [ -1.494141, 52.589701 ] } }
{"year": "AD980",  "type": "Feature", "tippecanoe": { "layer": "2AFCA12B05181583915621368", "minzoom": 2, "maxzoom": 8 }, "properties": { "halo": 0.8, "title": "莱昂王国", "fontsize": 12, "tyid": "304000", "oid": "103:1535120173458", "color": "#202020" }, "geometry": { "type": "Point", "coordinates": [ -6.240234, 42.875964 ] } }
{"year": "AD980",  "type": "Feature", "tippecanoe": { "layer": "2AFCA12B05181583915621368", "minzoom": 2, "maxzoom": 8 }, "properties": { "halo": 0.8, "title": "布列塔尼公国", "fontsize": 12, "tyid": "304000", "oid": "103:1535120173482", "color": "#202020" }, "geometry": { "type": "Point", "coordinates": [ -2.724609, 48.107431 ] } }
{"year": "AD980",  "type": "Feature", "tippecanoe": { "layer": "2AFCA12B05181583915621368", "minzoom": 2, "maxzoom": 8 }, "properties": { "halo": 0.8, "title": "诺曼底公国", "fontsize": 12, "tyid": "304000", "oid": "103:1535120173455", "color": "#202020" }, "geometry": { "type": "Point", "coordinates": [ -0.087891, 48.864715 ] } }
{"year": "AD980",  "type": "Feature", "tippecanoe": { "layer": "2AFCA12B05181583915621368", "minzoom": 2, "maxzoom": 8 }, "properties": { "halo": 0.8, "title": "潘普洛纳王国", "fontsize": 12, "tyid": "304000", "oid": "103:1577244877971", "color": "#202020" }, "geometry": { "type": "Point", "coordinates": [ -0.966797, 42.682435 ] } }
{"year": "AD980",  "type": "Feature", "tippecanoe": { "layer": "2AFCA12B05181583915621368", "minzoom": 2, "maxzoom": 8 }, "properties": { "halo": 0.8, "title": "巴哈瓦塔联盟", "fontsize": 12, "tyid": "304002", "oid": "103:1535120173226", "color": "#262626" }, "geometry": { "type": "Point", "coordinates": [ -7.470703, 32.620870 ] } }
{"year": "AD980",  "type": "Feature", "tippecanoe": { "layer": "2AFCA12B05181583915621368", "minzoom": 2, "maxzoom": 8 }, "properties": { "halo": 0.8, "title": "塔克鲁尔王国", "fontsize": 12, "tyid": "304000", "oid": "103:1535120173151", "color": "#202020" }, "geometry": { "type": "Point", "coordinates": [ -14.238281, 16.636192 ] } }
{"year": "AD980",  "type": "Feature", "tippecanoe": { "layer": "2AFCA12B05181583915621368", "minzoom": 2, "maxzoom": 8 }, "properties": { "halo": 0.8, "title": "莫西人", "fontsize": 12, "tyid": "304001", "oid": "103:1576922422850", "color": "#262626" }, "geometry": { "type": "Point", "coordinates": [ -1.318359, 12.811801 ] } }
{"year": "AD980",  "type": "Feature", "tippecanoe": { "layer": "2AFCA12B05181583915621368", "minzoom": 2, "maxzoom": 8 }, "properties": { "halo": 0.8, "title": "曼德人", "fontsize": 12, "tyid": "304000", "oid": "103:1535120173155", "color": "#202020" }, "geometry": { "type": "Point", "coordinates": [ -9.667969, 11.005904 ] } }
{"year": "AD980",  "type": "Feature", "tippecanoe": { "layer": "2AFCA12B05181583915621368", "minzoom": 2, "maxzoom": 8 }, "properties": { "halo": 0.8, "title": "阿坎人", "fontsize": 12, "tyid": "304001", "oid": "103:1535120173350", "color": "#262626" }, "geometry": { "type": "Point", "coordinates": [ -2.285156, 6.315299 ] } }
{"year": "AD980",  "type": "Feature", "tippecanoe": { "layer": "2AFCA12B05181583915621368", "minzoom": 2, "maxzoom": 8 }, "properties": { "halo": 0.8, "title": "丹麦王国[维京时期]", "fontsize": 12, "tyid": "304000", "oid": "103:1577244877987", "color": "#202020" }, "geometry": { "type": "Point", "coordinates": [ 9.228516, 55.924586 ] } }
{"year": "AD980",  "type": "Feature", "tippecanoe": { "layer": "2AFCA12B05181583915621368", "minzoom": 2, "maxzoom": 8 }, "properties": { "halo": 0.8, "title": "瑞典王国[维京时期]", "fontsize": 12, "tyid": "304000", "oid": "103:1577244877986", "color": "#202020" }, "geometry": { "type": "Point", "coordinates": [ 14.765625, 58.722599 ] } }
{"year": "AD980",  "type": "Feature", "tippecanoe": { "layer": "2AFCA12B05181583915621368", "minzoom": 2, "maxzoom": 8 }, "properties": { "halo": 0.8, "title": "图卢兹伯国", "fontsize": 12, "tyid": "304000", "oid": "103:1535120173464", "color": "#202020" }, "geometry": { "type": "Point", "coordinates": [ 2.285156, 43.897892 ] } }
{"year": "AD980",  "type": "Feature", "tippecanoe": { "layer": "2AFCA12B05181583915621368", "minzoom": 2, "maxzoom": 8 }, "properties": { "halo": 0.8, "title": "勃艮第公国", "fontsize": 12, "tyid": "304000", "oid": "103:1577244877800", "color": "#202020" }, "geometry": { "type": "Point", "coordinates": [ 5.888672, 45.767523 ] } }
{"year": "AD980",  "type": "Feature", "tippecanoe": { "layer": "2AFCA12B05181583915621368", "minzoom": 2, "maxzoom": 8 }, "properties": { "halo": 0.8, "title": "柳蒂奇人", "fontsize": 12, "tyid": "304000", "oid": "103:1537435999933", "color": "#202020" }, "geometry": { "type": "Point", "coordinates": [ 12.919922, 53.173119 ] } }
{"year": "AD980",  "type": "Feature", "tippecanoe": { "layer": "2AFCA12B05181583915621368", "minzoom": 2, "maxzoom": 8 }, "properties": { "halo": 0.8, "title": "波美拉尼亚人", "fontsize": 12, "tyid": "304000", "oid": "103:1537435999936", "color": "#202020" }, "geometry": { "type": "Point", "coordinates": [ 15.908203, 53.696706 ] } }
{"year": "AD980",  "type": "Feature", "tippecanoe": { "layer": "2AFCA12B05181583915621368", "minzoom": 2, "maxzoom": 8 }, "properties": { "halo": 0.8, "title": "波西米亚公国", "fontsize": 12, "tyid": "304000", "oid": "103:1537435999871", "color": "#202020" }, "geometry": { "type": "Point", "coordinates": [ 15.029297, 49.667628 ] } }
{"year": "AD980",  "type": "Feature", "tippecanoe": { "layer": "2AFCA12B05181583915621368", "minzoom": 2, "maxzoom": 8 }, "properties": { "halo": 0.8, "title": "教皇国", "fontsize": 12, "tyid": "304000", "oid": "103:1535120173478", "color": "#202020" }, "geometry": { "type": "Point", "coordinates": [ 12.568359, 42.032974 ] } }
{"year": "AD980",  "type": "Feature", "tippecanoe": { "layer": "2AFCA12B05181583915621368", "minzoom": 2, "maxzoom": 8 }, "properties": { "halo": 0.8, "title": "克罗地亚王国[独立时期]", "fontsize": 12, "tyid": "304000", "oid": "103:1577244877964", "color": "#202020" }, "geometry": { "type": "Point", "coordinates": [ 16.171875, 44.715514 ] } }
{"year": "AD980",  "type": "Feature", "tippecanoe": { "layer": "2AFCA12B05181583915621368", "minzoom": 2, "maxzoom": 8 }, "properties": { "halo": 0.8, "title": "杜基亚公国", "fontsize": 12, "tyid": "304000", "oid": "103:1576922422895", "color": "#202020" }, "geometry": { "type": "Point", "coordinates": [ 19.423828, 43.452919 ] } }
{"year": "AD980",  "type": "Feature", "tippecanoe": { "layer": "2AFCA12B05181583915621368", "minzoom": 2, "maxzoom": 8 }, "properties": { "halo": 0.8, "title": "保加利亚第一王国", "fontsize": 12, "tyid": "304000", "oid": "103:1537435999880", "color": "#202020" }, "geometry": { "type": "Point", "coordinates": [ 22.060547, 42.488302 ] } }
{"year": "AD980",  "type": "Feature", "tippecanoe": { "layer": "2AFCA12B05181583915621368", "minzoom": 2, "maxzoom": 8 }, "properties": { "halo": 0.8, "title": "切尔克斯人", "fontsize": 12, "tyid": "304001", "oid": "103:1535120173283", "color": "#262626" }, "geometry": { "type": "Point", "coordinates": [ 39.814453, 44.465151 ] } }
{"year": "AD980",  "type": "Feature", "tippecanoe": { "layer": "2AFCA12B05181583915621368", "minzoom": 2, "maxzoom": 8 }, "properties": { "halo": 0.8, "title": "阿兰王国", "fontsize": 12, "tyid": "304000", "oid": "103:1535120173245", "color": "#202020" }, "geometry": { "type": "Point", "coordinates": [ 43.417969, 43.644026 ] } }
{"year": "AD980",  "type": "Feature", "tippecanoe": { "layer": "2AFCA12B05181583915621368", "minzoom": 2, "maxzoom": 8 }, "properties": { "halo": 0.8, "title": "阿布哈兹王国", "fontsize": 12, "tyid": "304000", "oid": "103:1535120173176", "color": "#202020" }, "geometry": { "type": "Point", "coordinates": [ 42.714844, 42.617791 ] } }
{"year": "AD980",  "type": "Feature", "tippecanoe": { "layer": "2AFCA12B05181583915621368", "minzoom": 2, "maxzoom": 8 }, "properties": { "halo": 0.8, "title": "伊博人", "fontsize": 12, "tyid": "304001", "oid": "103:1537435999769", "color": "#262626" }, "geometry": { "type": "Point", "coordinates": [ 9.140625, 6.140555 ] } }
{"year": "AD980",  "type": "Feature", "tippecanoe": { "layer": "2AFCA12B05181583915621368", "minzoom": 2, "maxzoom": 8 }, "properties": { "halo": 0.8, "title": "阿勒颇埃米尔国", "fontsize": 12, "tyid": "304000", "oid": "103:1576922422863", "color": "#202020" }, "geometry": { "type": "Point", "coordinates": [ 38.144531, 35.960223 ] } }
{"year": "AD980",  "type": "Feature", "tippecanoe": { "layer": "2AFCA12B05181583915621368", "minzoom": 2, "maxzoom": 8 }, "properties": { "halo": 0.8, "title": "塔奥-科拉耶季亲王国", "fontsize": 12, "tyid": "304000", "oid": "103:1535120173218", "color": "#202020" }, "geometry": { "type": "Point", "coordinates": [ 41.572266, 39.977120 ] } }
{"year": "AD980",  "type": "Feature", "tippecanoe": { "layer": "2AFCA12B05181583915621368", "minzoom": 2, "maxzoom": 8 }, "properties": { "halo": 0.8, "title": "瓦斯普拉坎王国", "fontsize": 12, "tyid": "304000", "oid": "103:1535120173211", "color": "#202020" }, "geometry": { "type": "Point", "coordinates": [ 43.417969, 38.685510 ] } }
{"year": "AD980",  "type": "Feature", "tippecanoe": { "layer": "2AFCA12B05181583915621368", "minzoom": 2, "maxzoom": 8 }, "properties": { "halo": 0.8, "title": "达优人", "fontsize": 12, "tyid": "304001", "oid": "103:1535120173339", "color": "#262626" }, "geometry": { "type": "Point", "coordinates": [ 24.521484, 17.056785 ] } }
{"year": "AD980",  "type": "Feature", "tippecanoe": { "layer": "2AFCA12B05181583915621368", "minzoom": 2, "maxzoom": 8 }, "properties": { "halo": 0.8, "title": "扎格维王朝", "fontsize": 12, "tyid": "304000", "oid": "103:1535120173323", "color": "#202020" }, "geometry": { "type": "Point", "coordinates": [ 39.375000, 12.554564 ] } }
{"year": "AD980",  "type": "Feature", "tippecanoe": { "layer": "2AFCA12B05181583915621368", "minzoom": 2, "maxzoom": 8 }, "properties": { "halo": 0.8, "title": "兹亚迪王朝", "fontsize": 12, "tyid": "304000", "oid": "103:1535120173316", "color": "#202020" }, "geometry": { "type": "Point", "coordinates": [ 44.648438, 14.008696 ] } }
{"year": "AD980",  "type": "Feature", "tippecanoe": { "layer": "2AFCA12B05181583915621368", "minzoom": 2, "maxzoom": 8 }, "properties": { "halo": 0.8, "title": "谢瓦苏丹国", "fontsize": 12, "tyid": "304000", "oid": "103:1537435999750", "color": "#202020" }, "geometry": { "type": "Point", "coordinates": [ 38.496094, 9.795678 ] } }
{"year": "AD980",  "type": "Feature", "tippecanoe": { "layer": "2AFCA12B05181583915621368", "minzoom": 2, "maxzoom": 8 }, "properties": { "halo": 0.8, "title": "伏尔加保加利亚汗国", "fontsize": 12, "tyid": "304000", "oid": "103:1537435999665", "color": "#202020" }, "geometry": { "type": "Point", "coordinates": [ 46.406250, 54.110943 ] } }
{"year": "AD980",  "type": "Feature", "tippecanoe": { "layer": "2AFCA12B05181583915621368", "minzoom": 2, "maxzoom": 8 }, "properties": { "halo": 0.8, "title": "可萨人", "fontsize": 12, "tyid": "304000", "oid": "103:1535120173280", "color": "#202020" }, "geometry": { "type": "Point", "coordinates": [ 46.845703, 43.707594 ] } }
{"year": "AD980",  "type": "Feature", "tippecanoe": { "layer": "2AFCA12B05181583915621368", "minzoom": 2, "maxzoom": 8 }, "properties": { "halo": 0.8, "title": "卡赫季亲王国", "fontsize": 12, "tyid": "304000", "oid": "103:1537435999621", "color": "#202020" }, "geometry": { "type": "Point", "coordinates": [ 46.054688, 41.836828 ] } }
{"year": "AD980",  "type": "Feature", "tippecanoe": { "layer": "2AFCA12B05181583915621368", "minzoom": 2, "maxzoom": 8 }, "properties": { "halo": 0.8, "title": "钦察人", "fontsize": 12, "tyid": "304000", "oid": "103:1535120173365", "color": "#202020" }, "geometry": { "type": "Point", "coordinates": [ 60.732422, 49.095452 ] } }
{"year": "AD980",  "type": "Feature", "tippecanoe": { "layer": "2AFCA12B05181583915621368", "minzoom": 2, "maxzoom": 8 }, "properties": { "halo": 0.8, "title": "亚美尼亚巴格拉提亚王国", "fontsize": 12, "tyid": "304000", "oid": "103:1537435999629", "color": "#202020" }, "geometry": { "type": "Point", "coordinates": [ 45.175781, 40.380028 ] } }
{"year": "AD980",  "type": "Feature", "tippecanoe": { "layer": "2AFCA12B05181583915621368", "minzoom": 2, "maxzoom": 8 }, "properties": { "halo": 0.8, "title": "拉瓦迪亲王国", "fontsize": 12, "tyid": "304000", "oid": "103:1537435999618", "color": "#202020" }, "geometry": { "type": "Point", "coordinates": [ 46.757812, 38.272689 ] } }
{"year": "AD980",  "type": "Feature", "tippecanoe": { "layer": "2AFCA12B05181583915621368", "minzoom": 2, "maxzoom": 8 }, "properties": { "halo": 0.8, "title": "希尔凡沙阿王朝", "fontsize": 12, "tyid": "304000", "oid": "103:1535120173192", "color": "#202020" }, "geometry": { "type": "Point", "coordinates": [ 48.515625, 40.380028 ] } }
{"year": "AD980",  "type": "Feature", "tippecanoe": { "layer": "2AFCA12B05181583915621368", "minzoom": 2, "maxzoom": 8 }, "properties": { "halo": 0.8, "title": "哈撒纳维耶亲王国", "fontsize": 12, "tyid": "304000", "oid": "103:1537435999701", "color": "#202020" }, "geometry": { "type": "Point", "coordinates": [ 47.285156, 34.161818 ] } }
{"year": "AD980",  "type": "Feature", "tippecanoe": { "layer": "2AFCA12B05181583915621368", "minzoom": 2, "maxzoom": 8 }, "properties": { "halo": 0.8, "title": "齐亚尔王朝", "fontsize": 12, "tyid": "304000", "oid": "103:1535120173270", "color": "#202020" }, "geometry": { "type": "Point", "coordinates": [ 54.667969, 37.718590 ] } }
{"year": "AD980",  "type": "Feature", "tippecanoe": { "layer": "2AFCA12B05181583915621368", "minzoom": 2, "maxzoom": 8 }, "properties": { "halo": 0.8, "title": "卡尔马特共和国", "fontsize": 12, "tyid": "304002", "oid": "103:1537435999651", "color": "#262626" }, "geometry": { "type": "Point", "coordinates": [ 49.570312, 24.766785 ] } }
{"year": "AD980",  "type": "Feature", "tippecanoe": { "layer": "2AFCA12B05181583915621368", "minzoom": 2, "maxzoom": 8 }, "properties": { "halo": 0.8, "title": "喀布尔夏希王朝", "fontsize": 12, "tyid": "304000", "oid": "103:1576922422852", "color": "#202020" }, "geometry": { "type": "Point", "coordinates": [ 73.652344, 32.768800 ] } }
{"year": "AD980",  "type": "Feature", "tippecanoe": { "layer": "2AFCA12B05181583915621368", "minzoom": 2, "maxzoom": 8 }, "properties": { "halo": 0.8, "title": "乌婆逻王朝", "fontsize": 12, "tyid": "304000", "oid": "103:1576922422878", "color": "#202020" }, "geometry": { "type": "Point", "coordinates": [ 74.970703, 33.943360 ] } }
{"year": "AD980",  "type": "Feature", "tippecanoe": { "layer": "2AFCA12B05181583915621368", "minzoom": 2, "maxzoom": 8 }, "properties": { "halo": 0.8, "title": "木尔坦埃米尔国", "fontsize": 12, "tyid": "304000", "oid": "103:1576922422854", "color": "#202020" }, "geometry": { "type": "Point", "coordinates": [ 71.982422, 30.675715 ] } }
{"year": "AD980",  "type": "Feature", "tippecanoe": { "layer": "2AFCA12B05181583915621368", "minzoom": 2, "maxzoom": 8 }, "properties": { "halo": 0.8, "title": "索兰基王朝", "fontsize": 12, "tyid": "304000", "oid": "103:1576922422869", "color": "#202020" }, "geometry": { "type": "Point", "coordinates": [ 71.806641, 23.160563 ] } }
{"year": "AD980",  "type": "Feature", "tippecanoe": { "layer": "2AFCA12B05181583915621368", "minzoom": 2, "maxzoom": 8 }, "properties": { "halo": 0.8, "title": "帕拉玛拉王朝", "fontsize": 12, "tyid": "304000", "oid": "103:1535120173532", "color": "#202020" }, "geometry": { "type": "Point", "coordinates": [ 76.376953, 24.527135 ] } }
{"year": "AD980",  "type": "Feature", "tippecanoe": { "layer": "2AFCA12B05181583915621368", "minzoom": 2, "maxzoom": 8 }, "properties": { "halo": 0.8, "title": "瞿折罗-普罗蒂诃罗王朝", "fontsize": 12, "tyid": "304000", "oid": "103:1576922422870", "color": "#202020" }, "geometry": { "type": "Point", "coordinates": [ 80.419922, 26.902477 ] } }
{"year": "AD980",  "type": "Feature", "tippecanoe": { "layer": "2AFCA12B05181583915621368", "minzoom": 2, "maxzoom": 8 }, "properties": { "halo": 0.8, "title": "昌德拉王朝", "fontsize": 12, "tyid": "304000", "oid": "103:1535120173383", "color": "#202020" }, "geometry": { "type": "Point", "coordinates": [ 80.419922, 25.005973 ] } }
{"year": "AD980",  "type": "Feature", "tippecanoe": { "layer": "2AFCA12B05181583915621368", "minzoom": 2, "maxzoom": 8 }, "properties": { "halo": 0.8, "title": "特里普里的卡拉丘里王朝", "fontsize": 12, "tyid": "304000", "oid": "103:1537435999730", "color": "#202020" }, "geometry": { "type": "Point", "coordinates": [ 81.386719, 23.160563 ] } }
{"year": "AD980",  "type": "Feature", "tippecanoe": { "layer": "2AFCA12B05181583915621368", "minzoom": 2, "maxzoom": 8 }, "properties": { "halo": 0.8, "title": "波罗帝国", "fontsize": 12, "tyid": "304000", "oid": "103:1576922422877", "color": "#202020" }, "geometry": { "type": "Point", "coordinates": [ 87.187500, 26.115986 ] } }
{"year": "AD980",  "type": "Feature", "tippecanoe": { "layer": "2AFCA12B05181583915621368", "minzoom": 2, "maxzoom": 8 }, "properties": { "halo": 0.8, "title": "西恒伽王朝", "fontsize": 12, "tyid": "304000", "oid": "103:1537435999813", "color": "#202020" }, "geometry": { "type": "Point", "coordinates": [ 77.607422, 14.689881 ] } }
{"year": "AD980",  "type": "Feature", "tippecanoe": { "layer": "2AFCA12B05181583915621368", "minzoom": 2, "maxzoom": 8 }, "properties": { "halo": 0.8, "title": "巴纳王国", "fontsize": 12, "tyid": "304000", "oid": "103:1537435999808", "color": "#202020" }, "geometry": { "type": "Point", "coordinates": [ 82.880859, 21.043491 ] } }
{"year": "AD980",  "type": "Feature", "tippecanoe": { "layer": "2AFCA12B05181583915621368", "minzoom": 2, "maxzoom": 8 }, "properties": { "halo": 0.8, "title": "东遮娄其王朝", "fontsize": 12, "tyid": "304000", "oid": "103:1535120173387", "color": "#202020" }, "geometry": { "type": "Point", "coordinates": [ 80.595703, 16.551962 ] } }
{"year": "AD980",  "type": "Feature", "tippecanoe": { "layer": "2AFCA12B05181583915621368", "minzoom": 2, "maxzoom": 8 }, "properties": { "halo": 0.8, "title": "索玛瓦犀王朝", "fontsize": 12, "tyid": "304000", "oid": "103:1537435999815", "color": "#202020" }, "geometry": { "type": "Point", "coordinates": [ 84.462891, 19.890723 ] } }
{"year": "AD980",  "type": "Feature", "tippecanoe": { "layer": "2AFCA12B05181583915621368", "minzoom": 2, "maxzoom": 8 }, "properties": { "halo": 0.8, "title": "阿努拉德普勒王国", "fontsize": 12, "tyid": "304000", "oid": "103:1576922422882", "color": "#202020" }, "geometry": { "type": "Point", "coordinates": [ 80.683594, 7.623887 ] } }
{"year": "AD980",  "type": "Feature", "tippecanoe": { "layer": "2AFCA12B05181583915621368", "minzoom": 2, "maxzoom": 8 }, "properties": { "halo": 0.8, "title": "归义军", "fontsize": 12, "tyid": "304000", "oid": "103:1535120173519", "color": "#202020" }, "geometry": { "type": "Point", "coordinates": [ 96.503906, 40.647304 ] } }
{"year": "AD980",  "type": "Feature", "tippecanoe": { "layer": "2AFCA12B05181583915621368", "minzoom": 2, "maxzoom": 8 }, "properties": { "halo": 0.8, "title": "甘州回鹘", "fontsize": 12, "tyid": "304000", "oid": "103:1535120173521", "color": "#202020" }, "geometry": { "type": "Point", "coordinates": [ 98.876953, 39.639538 ] } }
{"year": "AD980",  "type": "Feature", "tippecanoe": { "layer": "2AFCA12B05181583915621368", "minzoom": 2, "maxzoom": 8 }, "properties": { "halo": 0.8, "title": "迦摩缕波王国", "fontsize": 12, "tyid": "304000", "oid": "103:1537435999820", "color": "#202020" }, "geometry": { "type": "Point", "coordinates": [ 92.812500, 26.352498 ] } }
{"year": "AD980",  "type": "Feature", "tippecanoe": { "layer": "2AFCA12B05181583915621368", "minzoom": 2, "maxzoom": 8 }, "properties": { "halo": 0.8, "title": "古曼尼普尔王国", "fontsize": 12, "tyid": "304000", "oid": "103:1577244877787", "color": "#202020" }, "geometry": { "type": "Point", "coordinates": [ 94.130859, 25.165173 ] } }
{"year": "AD980",  "type": "Feature", "tippecanoe": { "layer": "2AFCA12B05181583915621368", "minzoom": 2, "maxzoom": 8 }, "properties": { "halo": 0.8, "title": "凉州吐蕃", "fontsize": 12, "tyid": "304000", "oid": "103:1535120173522", "color": "#202020" }, "geometry": { "type": "Point", "coordinates": [ 101.953125, 37.996163 ] } }
{"year": "AD980",  "type": "Feature", "tippecanoe": { "layer": "2AFCA12B05181583915621368", "minzoom": 2, "maxzoom": 8 }, "properties": { "halo": 0.8, "title": "定难军", "fontsize": 12, "tyid": "304000", "oid": "103:1576922422883", "color": "#202020" }, "geometry": { "type": "Point", "coordinates": [ 109.423828, 37.926868 ] } }
{"year": "AD980",  "type": "Feature", "tippecanoe": { "layer": "2AFCA12B05181583915621368", "minzoom": 2, "maxzoom": 8 }, "properties": { "halo": 0.8, "title": "若开诸国", "fontsize": 12, "tyid": "304000", "oid": "103:1537435999834", "color": "#202020" }, "geometry": { "type": "Point", "coordinates": [ 92.900391, 21.698265 ] } }
{"year": "AD980",  "type": "Feature", "tippecanoe": { "layer": "2AFCA12B05181583915621368", "minzoom": 2, "maxzoom": 8 }, "properties": { "halo": 0.8, "title": "蒲甘王国", "fontsize": 12, "tyid": "304000", "oid": "103:1537435999842", "color": "#202020" }, "geometry": { "type": "Point", "coordinates": [ 95.449219, 21.698265 ] } }
{"year": "AD980",  "type": "Feature", "tippecanoe": { "layer": "2AFCA12B05181583915621368", "minzoom": 2, "maxzoom": 8 }, "properties": { "halo": 0.8, "title": "直通王国", "fontsize": 12, "tyid": "304000", "oid": "103:1535120173410", "color": "#202020" }, "geometry": { "type": "Point", "coordinates": [ 95.537109, 17.224758 ] } }
{"year": "AD980",  "type": "Feature", "tippecanoe": { "layer": "2AFCA12B05181583915621368", "minzoom": 2, "maxzoom": 8 }, "properties": { "halo": 0.8, "title": "骇黎朋猜国", "fontsize": 12, "tyid": "304000", "oid": "103:1576922422884", "color": "#202020" }, "geometry": { "type": "Point", "coordinates": [ 99.667969, 18.145852 ] } }
{"year": "AD980",  "type": "Feature", "tippecanoe": { "layer": "2AFCA12B05181583915621368", "minzoom": 2, "maxzoom": 8 }, "properties": { "halo": 0.8, "title": "大瞿越国", "fontsize": 12, "tyid": "304000", "oid": "103:1537435999717", "color": "#202020" }, "geometry": { "type": "Point", "coordinates": [ 105.205078, 20.055931 ] } }
{"year": "AD980",  "type": "Feature", "tippecanoe": { "layer": "2AFCA12B05181583915621368", "minzoom": 2, "maxzoom": 8 }, "properties": { "halo": 0.8, "title": "占婆国", "fontsize": 12, "tyid": "304000", "oid": "103:1537435999720", "color": "#202020" }, "geometry": { "type": "Point", "coordinates": [ 107.753906, 15.961329 ] } }
{"year": "AD980",  "type": "Feature", "tippecanoe": { "layer": "2AFCA12B05181583915621368", "minzoom": 2, "maxzoom": 8 }, "properties": { "halo": 0.8, "title": "高丽", "fontsize": 12, "tyid": "304000", "oid": "103:1535120173430", "color": "#202020" }, "geometry": { "type": "Point", "coordinates": [ 128.232422, 36.879621 ] } }
{"year": "AD980",  "type": "Feature", "tippecanoe": { "layer": "2AFCA12B05181583915621368", "minzoom": 2, "maxzoom": 8 }, "properties": { "halo": 0.8, "title": "虾夷", "fontsize": 12, "tyid": "304002", "oid": "103:1535120173428", "color": "#262626" }, "geometry": { "type": "Point", "coordinates": [ 142.558594, 43.389082 ] } }
{"year": "AD980",  "type": "Feature", "tippecanoe": { "layer": "2AFCA12B05181583915621368", "minzoom": 2, "maxzoom": 8 }, "properties": { "halo": 0.8, "title": "加鲁王国", "fontsize": 12, "tyid": "304000", "oid": "103:1535120173508", "color": "#202020" }, "geometry": { "type": "Point", "coordinates": [ 108.105469, -7.013668 ] } }
{"year": "AD980",  "type": "Feature", "tippecanoe": { "layer": "2AFCA12B05181583915621368", "minzoom": 2, "maxzoom": 8 }, "properties": { "halo": 0.8, "title": "马打兰王国", "fontsize": 12, "tyid": "304000", "oid": "103:1535120173510", "color": "#202020" }, "geometry": { "type": "Point", "coordinates": [ 111.269531, -7.449624 ] } }
{"year": "AD980",  "type": "Feature", "tippecanoe": { "layer": "2AFCA12B0E101583915621371", "minzoom": 2, "maxzoom": 8 }, "properties": { "halo": 0.8, "title": "奈克尔埃米尔国", "fontsize": 12, "tyid": "304000", "oid": "103:1576922422859", "color": "#202020" }, "geometry": { "type": "Point", "coordinates": [ -3.164062, 35.029996 ] } }
{"year": "AD980",  "type": "Feature", "tippecanoe": { "layer": "2AFCA12B0E101583915621371", "minzoom": 2, "maxzoom": 8 }, "properties": { "halo": 0.8, "title": "巴塞罗那伯国", "fontsize": 12, "tyid": "304000", "oid": "103:1535120173460", "color": "#202020" }, "geometry": { "type": "Point", "coordinates": [ 2.460938, 42.163403 ] } }
{"year": "AD980",  "type": "Feature", "tippecanoe": { "layer": "2AFCA12B0E101583915621371", "minzoom": 2, "maxzoom": 8 }, "properties": { "halo": 0.8, "title": "贝内文托亲王国", "fontsize": 12, "tyid": "304000", "oid": "103:1537435999939", "color": "#202020" }, "geometry": { "type": "Point", "coordinates": [ 14.326172, 41.902277 ] } }
{"year": "AD980",  "type": "Feature", "tippecanoe": { "layer": "2AFCA12B0E101583915621371", "minzoom": 2, "maxzoom": 8 }, "properties": { "halo": 0.8, "title": "特穆塔拉干亲王国", "fontsize": 12, "tyid": "304002", "oid": "103:1537435999709", "color": "#262626" }, "geometry": { "type": "Point", "coordinates": [ 37.529297, 45.151053 ] } }
{"year": "AD980",  "type": "Feature", "tippecanoe": { "layer": "2AFCA12B0E101583915621371", "minzoom": 2, "maxzoom": 8 }, "properties": { "halo": 0.8, "title": "第比利斯埃米尔国", "fontsize": 12, "tyid": "304002", "oid": "103:1576922422857", "color": "#262626" }, "geometry": { "type": "Point", "coordinates": [ 44.912109, 41.771312 ] } }
{"year": "AD980",  "type": "Feature", "tippecanoe": { "layer": "2AFCA12B0E101583915621371", "minzoom": 2, "maxzoom": 8 }, "properties": { "halo": 0.8, "title": "塔希尔-祖拉捷特王国", "fontsize": 12, "tyid": "304000", "oid": "103:1535120173206", "color": "#202020" }, "geometry": { "type": "Point", "coordinates": [ 44.648438, 41.310824 ] } }
{"year": "AD980",  "type": "Feature", "tippecanoe": { "layer": "2AFCA12B0E101583915621371", "minzoom": 2, "maxzoom": 8 }, "properties": { "halo": 0.8, "title": "瓦南德诸王国", "fontsize": 12, "tyid": "304000", "oid": "103:1537435999608", "color": "#202020" }, "geometry": { "type": "Point", "coordinates": [ 42.802734, 40.513799 ] } }
{"year": "AD980",  "type": "Feature", "tippecanoe": { "layer": "2AFCA12B0E101583915621371", "minzoom": 2, "maxzoom": 8 }, "properties": { "halo": 0.8, "title": "沙达迪王朝", "fontsize": 12, "tyid": "304002", "oid": "103:1537435999632", "color": "#262626" }, "geometry": { "type": "Point", "coordinates": [ 44.824219, 39.977120 ] } }
{"year": "AD980",  "type": "Feature", "tippecanoe": { "layer": "2AFCA12B0E101583915621371", "minzoom": 2, "maxzoom": 8 }, "properties": { "halo": 0.8, "title": "阿拔斯哈里发国", "fontsize": 12, "tyid": "304000", "oid": "103:1537435999679", "color": "#202020" }, "geometry": { "type": "Point", "coordinates": [ 44.384766, 33.358062 ] } }
{"year": "AD980",  "type": "Feature", "tippecanoe": { "layer": "2AFCA12B0E101583915621371", "minzoom": 2, "maxzoom": 8 }, "properties": { "halo": 0.8, "title": "高加索阿瓦尔人", "fontsize": 12, "tyid": "304001", "oid": "103:1535120173199", "color": "#262626" }, "geometry": { "type": "Point", "coordinates": [ 46.230469, 42.747012 ] } }
{"year": "AD980",  "type": "Feature", "tippecanoe": { "layer": "2AFCA12B0E101583915621371", "minzoom": 2, "maxzoom": 8 }, "properties": { "halo": 0.8, "title": "列兹金人", "fontsize": 12, "tyid": "304001", "oid": "103:1535120173182", "color": "#262626" }, "geometry": { "type": "Point", "coordinates": [ 47.724609, 41.705729 ] } }
{"year": "AD980",  "type": "Feature", "tippecanoe": { "layer": "2AFCA12B0E101583915621371", "minzoom": 2, "maxzoom": 8 }, "properties": { "halo": 0.8, "title": "杰尔宾特埃米尔国", "fontsize": 12, "tyid": "304000", "oid": "103:1576922422856", "color": "#202020" }, "geometry": { "type": "Point", "coordinates": [ 48.339844, 41.836828 ] } }
{"year": "AD980",  "type": "Feature", "tippecanoe": { "layer": "2AFCA12B0E101583915621371", "minzoom": 2, "maxzoom": 8 }, "properties": { "halo": 0.8, "title": "萨拉里王朝", "fontsize": 12, "tyid": "304000", "oid": "103:1535120173190", "color": "#202020" }, "geometry": { "type": "Point", "coordinates": [ 48.339844, 38.134557 ] } }
{"year": "AD980",  "type": "Feature", "tippecanoe": { "layer": "2AFCA12B0E101583915621371", "minzoom": 2, "maxzoom": 8 }, "properties": { "halo": 0.8, "title": "约斯塔尼王朝", "fontsize": 12, "tyid": "304002", "oid": "103:1537435999831", "color": "#262626" }, "geometry": { "type": "Point", "coordinates": [ 49.306641, 37.020098 ] } }
{"year": "AD980",  "type": "Feature", "tippecanoe": { "layer": "2AFCA12B0E101583915621371", "minzoom": 2, "maxzoom": 8 }, "properties": { "halo": 0.8, "title": "巴文德王朝", "fontsize": 12, "tyid": "304000", "oid": "103:1535120173274", "color": "#202020" }, "geometry": { "type": "Point", "coordinates": [ 52.910156, 36.244273 ] } }
{"year": "AD980",  "type": "Feature", "tippecanoe": { "layer": "2AFCA12B0E101583915621371", "minzoom": 2, "maxzoom": 8 }, "properties": { "halo": 0.8, "title": "法里古尼王朝", "fontsize": 12, "tyid": "304000", "oid": "103:1535120173268", "color": "#202020" }, "geometry": { "type": "Point", "coordinates": [ 65.742188, 36.668419 ] } }
{"year": "AD980",  "type": "Feature", "tippecanoe": { "layer": "2AFCA12B0E101583915621371", "minzoom": 2, "maxzoom": 8 }, "properties": { "halo": 0.8, "title": "古尔王朝", "fontsize": 12, "tyid": "304000", "oid": "103:1535120173266", "color": "#202020" }, "geometry": { "type": "Point", "coordinates": [ 64.687500, 34.524661 ] } }
{"year": "AD980",  "type": "Feature", "tippecanoe": { "layer": "2AFCA12B0E101583915621371", "minzoom": 2, "maxzoom": 8 }, "properties": { "halo": 0.8, "title": "耽罗国", "fontsize": 12, "tyid": "304002", "oid": "103:1537435999930", "color": "#262626" }, "geometry": { "type": "Point", "coordinates": [ 126.474609, 33.431441 ] } }
{"year": "AD980",  "type": "Feature", "tippecanoe": { "layer": "2AFCA12B0E101583915621371", "minzoom": 2, "maxzoom": 8 }, "properties": { "halo": 0.8, "title": "巽他王国", "fontsize": 12, "tyid": "304000", "oid": "103:1535120173506", "color": "#202020" }, "geometry": { "type": "Point", "coordinates": [ 106.611328, -6.664608 ] } }
{"year": "AD980",  "type": "Feature", "tippecanoe": { "layer": "2AFCA12C21D01583915621386", "minzoom": 2, "maxzoom": 8 }, "properties": { "halo": 1.8, "title": "奈克尔埃米尔国", "fontsize": 12, "tyid": "304000", "oid": "103:1576922422859", "color": "#0056E7" }, "geometry": { "type": "Point", "coordinates": [ -3.164062, 35.029996 ] } }
{"year": "AD980",  "type": "Feature", "tippecanoe": { "layer": "2AFCA12C21D01583915621386", "minzoom": 2, "maxzoom": 8 }, "properties": { "halo": 1.8, "title": "巴塞罗那伯国", "fontsize": 12, "tyid": "304000", "oid": "103:1535120173460", "color": "#0056E7" }, "geometry": { "type": "Point", "coordinates": [ 2.460938, 42.163403 ] } }
{"year": "AD980",  "type": "Feature", "tippecanoe": { "layer": "2AFCA12C21D01583915621386", "minzoom": 2, "maxzoom": 8 }, "properties": { "halo": 1.8, "title": "贝内文托亲王国", "fontsize": 12, "tyid": "304000", "oid": "103:1537435999939", "color": "#0056E7" }, "geometry": { "type": "Point", "coordinates": [ 14.326172, 41.902277 ] } }
{"year": "AD980",  "type": "Feature", "tippecanoe": { "layer": "2AFCA12C21D01583915621386", "minzoom": 2, "maxzoom": 8 }, "properties": { "halo": 1.6, "title": "特穆塔拉干亲王国", "fontsize": 12, "tyid": "304002", "oid": "103:1537435999709", "color": "#0056E7" }, "geometry": { "type": "Point", "coordinates": [ 37.529297, 45.151053 ] } }
{"year": "AD980",  "type": "Feature", "tippecanoe": { "layer": "2AFCA12C21D01583915621386", "minzoom": 2, "maxzoom": 8 }, "properties": { "halo": 1.6, "title": "第比利斯埃米尔国", "fontsize": 12, "tyid": "304002", "oid": "103:1576922422857", "color": "#0056E7" }, "geometry": { "type": "Point", "coordinates": [ 44.912109, 41.771312 ] } }
{"year": "AD980",  "type": "Feature", "tippecanoe": { "layer": "2AFCA12C21D01583915621386", "minzoom": 2, "maxzoom": 8 }, "properties": { "halo": 1.8, "title": "塔希尔-祖拉捷特王国", "fontsize": 12, "tyid": "304000", "oid": "103:1535120173206", "color": "#0056E7" }, "geometry": { "type": "Point", "coordinates": [ 44.648438, 41.310824 ] } }
{"year": "AD980",  "type": "Feature", "tippecanoe": { "layer": "2AFCA12C21D01583915621386", "minzoom": 2, "maxzoom": 8 }, "properties": { "halo": 1.8, "title": "瓦南德诸王国", "fontsize": 12, "tyid": "304000", "oid": "103:1537435999608", "color": "#0056E7" }, "geometry": { "type": "Point", "coordinates": [ 42.802734, 40.513799 ] } }
{"year": "AD980",  "type": "Feature", "tippecanoe": { "layer": "2AFCA12C21D01583915621386", "minzoom": 2, "maxzoom": 8 }, "properties": { "halo": 1.6, "title": "沙达迪王朝", "fontsize": 12, "tyid": "304002", "oid": "103:1537435999632", "color": "#0056E7" }, "geometry": { "type": "Point", "coordinates": [ 44.824219, 39.977120 ] } }
{"year": "AD980",  "type": "Feature", "tippecanoe": { "layer": "2AFCA12C21D01583915621386", "minzoom": 2, "maxzoom": 8 }, "properties": { "halo": 1.8, "title": "阿拔斯哈里发国", "fontsize": 12, "tyid": "304000", "oid": "103:1537435999679", "color": "#0056E7" }, "geometry": { "type": "Point", "coordinates": [ 44.384766, 33.358062 ] } }
{"year": "AD980",  "type": "Feature", "tippecanoe": { "layer": "2AFCA12C21D01583915621386", "minzoom": 2, "maxzoom": 8 }, "properties": { "halo": 1.6, "title": "高加索阿瓦尔人", "fontsize": 12, "tyid": "304001", "oid": "103:1535120173199", "color": "#0056E7" }, "geometry": { "type": "Point", "coordinates": [ 46.230469, 42.747012 ] } }
{"year": "AD980",  "type": "Feature", "tippecanoe": { "layer": "2AFCA12C21D01583915621386", "minzoom": 2, "maxzoom": 8 }, "properties": { "halo": 1.6, "title": "列兹金人", "fontsize": 12, "tyid": "304001", "oid": "103:1535120173182", "color": "#0056E7" }, "geometry": { "type": "Point", "coordinates": [ 47.724609, 41.705729 ] } }
{"year": "AD980",  "type": "Feature", "tippecanoe": { "layer": "2AFCA12C21D01583915621386", "minzoom": 2, "maxzoom": 8 }, "properties": { "halo": 1.8, "title": "杰尔宾特埃米尔国", "fontsize": 12, "tyid": "304000", "oid": "103:1576922422856", "color": "#0056E7" }, "geometry": { "type": "Point", "coordinates": [ 48.339844, 41.836828 ] } }
{"year": "AD980",  "type": "Feature", "tippecanoe": { "layer": "2AFCA12C21D01583915621386", "minzoom": 2, "maxzoom": 8 }, "properties": { "halo": 1.8, "title": "萨拉里王朝", "fontsize": 12, "tyid": "304000", "oid": "103:1535120173190", "color": "#0056E7" }, "geometry": { "type": "Point", "coordinates": [ 48.339844, 38.134557 ] } }
{"year": "AD980",  "type": "Feature", "tippecanoe": { "layer": "2AFCA12C21D01583915621386", "minzoom": 2, "maxzoom": 8 }, "properties": { "halo": 1.6, "title": "约斯塔尼王朝", "fontsize": 12, "tyid": "304002", "oid": "103:1537435999831", "color": "#0056E7" }, "geometry": { "type": "Point", "coordinates": [ 49.306641, 37.020098 ] } }
{"year": "AD980",  "type": "Feature", "tippecanoe": { "layer": "2AFCA12C21D01583915621386", "minzoom": 2, "maxzoom": 8 }, "properties": { "halo": 1.8, "title": "巴文德王朝", "fontsize": 12, "tyid": "304000", "oid": "103:1535120173274", "color": "#0056E7" }, "geometry": { "type": "Point", "coordinates": [ 52.910156, 36.244273 ] } }
{"year": "AD980",  "type": "Feature", "tippecanoe": { "layer": "2AFCA12C21D01583915621386", "minzoom": 2, "maxzoom": 8 }, "properties": { "halo": 1.8, "title": "法里古尼王朝", "fontsize": 12, "tyid": "304000", "oid": "103:1535120173268", "color": "#0056E7" }, "geometry": { "type": "Point", "coordinates": [ 65.742188, 36.668419 ] } }
{"year": "AD980",  "type": "Feature", "tippecanoe": { "layer": "2AFCA12C21D01583915621386", "minzoom": 2, "maxzoom": 8 }, "properties": { "halo": 1.8, "title": "古尔王朝", "fontsize": 12, "tyid": "304000", "oid": "103:1535120173266", "color": "#0056E7" }, "geometry": { "type": "Point", "coordinates": [ 64.687500, 34.524661 ] } }
{"year": "AD980",  "type": "Feature", "tippecanoe": { "layer": "2AFCA12C21D01583915621386", "minzoom": 2, "maxzoom": 8 }, "properties": { "halo": 1.6, "title": "耽罗国", "fontsize": 12, "tyid": "304002", "oid": "103:1537435999930", "color": "#0056E7" }, "geometry": { "type": "Point", "coordinates": [ 126.474609, 33.431441 ] } }
{"year": "AD980",  "type": "Feature", "tippecanoe": { "layer": "2AFCA12C21D01583915621386", "minzoom": 2, "maxzoom": 8 }, "properties": { "halo": 1.8, "title": "巽他王国", "fontsize": 12, "tyid": "304000", "oid": "103:1535120173506", "color": "#0056E7" }, "geometry": { "type": "Point", "coordinates": [ 106.611328, -6.664608 ] } }
{"year": "AD980",  "type": "Feature", "tippecanoe": { "layer": "2AFCA138C2781583915621394", "minzoom": 2, "maxzoom": 8 }, "properties": { "halo": 1.8, "title": "托尔特克帝国", "fontsize": 12, "tyid": "304000", "oid": "103:1537435999848", "color": "#0056E7" }, "geometry": { "type": "Point", "coordinates": [ -99.580078, 19.890723 ] } }
{"year": "AD980",  "type": "Feature", "tippecanoe": { "layer": "2AFCA138C2781583915621394", "minzoom": 2, "maxzoom": 8 }, "properties": { "halo": 1.8, "title": "科尔多瓦哈里发国", "fontsize": 12, "tyid": "304000", "oid": "103:1576922422897", "color": "#0056E7" }, "geometry": { "type": "Point", "coordinates": [ -4.394531, 39.639538 ] } }
{"year": "AD980",  "type": "Feature", "tippecanoe": { "layer": "2AFCA138C2781583915621394", "minzoom": 2, "maxzoom": 8 }, "properties": { "halo": 1.8, "title": "柏柏尔人诸部", "fontsize": 12, "tyid": "304000", "oid": "103:1537435999712", "color": "#0056E7" }, "geometry": { "type": "Point", "coordinates": [ -8.789062, 23.160563 ] } }
{"year": "AD980",  "type": "Feature", "tippecanoe": { "layer": "2AFCA138C2781583915621394", "minzoom": 2, "maxzoom": 8 }, "properties": { "halo": 1.8, "title": "加纳帝国", "fontsize": 12, "tyid": "304000", "oid": "103:1535120173153", "color": "#0056E7" }, "geometry": { "type": "Point", "coordinates": [ -7.294922, 15.707663 ] } }
{"year": "AD980",  "type": "Feature", "tippecanoe": { "layer": "2AFCA138C2781583915621394", "minzoom": 2, "maxzoom": 8 }, "properties": { "halo": 1.6, "title": "约鲁巴人", "fontsize": 12, "tyid": "304001", "oid": "103:1535120173143", "color": "#0056E7" }, "geometry": { "type": "Point", "coordinates": [ -3.779297, 8.494105 ] } }
{"year": "AD980",  "type": "Feature", "tippecanoe": { "layer": "2AFCA138C2781583915621394", "minzoom": 2, "maxzoom": 8 }, "properties": { "halo": 1.8, "title": "瓦里帝国", "fontsize": 12, "tyid": "304000", "oid": "103:1537435999856", "color": "#0056E7" }, "geometry": { "type": "Point", "coordinates": [ -75.761719, -11.867351 ] } }
{"year": "AD980",  "type": "Feature", "tippecanoe": { "layer": "2AFCA138C2781583915621394", "minzoom": 2, "maxzoom": 8 }, "properties": { "halo": 1.8, "title": "蒂亚瓦纳科帝国", "fontsize": 12, "tyid": "304000", "oid": "103:1537435999854", "color": "#0056E7" }, "geometry": { "type": "Point", "coordinates": [ -68.027344, -16.214675 ] } }
{"year": "AD980",  "type": "Feature", "tippecanoe": { "layer": "2AFCA138C2781583915621394", "minzoom": 2, "maxzoom": 8 }, "properties": { "halo": 1.8, "title": "挪威王国[维京时期]", "fontsize": 12, "tyid": "304000", "oid": "103:1577244877985", "color": "#0056E7" }, "geometry": { "type": "Point", "coordinates": [ 10.810547, 61.312452 ] } }
{"year": "AD980",  "type": "Feature", "tippecanoe": { "layer": "2AFCA138C2781583915621394", "minzoom": 2, "maxzoom": 8 }, "properties": { "halo": 1.8, "title": "西法兰克王国", "fontsize": 12, "tyid": "304000", "oid": "103:1535120173480", "color": "#0056E7" }, "geometry": { "type": "Point", "coordinates": [ 1.669922, 46.980252 ] } }
{"year": "AD980",  "type": "Feature", "tippecanoe": { "layer": "2AFCA138C2781583915621394", "minzoom": 2, "maxzoom": 8 }, "properties": { "halo": 1.8, "title": "神圣罗马帝国", "fontsize": 12, "tyid": "304000", "oid": "103:1535120173475", "color": "#0056E7" }, "geometry": { "type": "Point", "coordinates": [ 9.843750, 48.806863 ] } }
{"year": "AD980",  "type": "Feature", "tippecanoe": { "layer": "2AFCA138C2781583915621394", "minzoom": 2, "maxzoom": 8 }, "properties": { "halo": 1.8, "title": "斯维塔斯希奈斯王国", "fontsize": 12, "tyid": "304000", "oid": "103:1537435999874", "color": "#0056E7" }, "geometry": { "type": "Point", "coordinates": [ 18.808594, 51.508742 ] } }
{"year": "AD980",  "type": "Feature", "tippecanoe": { "layer": "2AFCA138C2781583915621394", "minzoom": 2, "maxzoom": 8 }, "properties": { "halo": 1.8, "title": "马扎尔人", "fontsize": 12, "tyid": "304000", "oid": "103:1537435999877", "color": "#0056E7" }, "geometry": { "type": "Point", "coordinates": [ 19.687500, 47.398349 ] } }
{"year": "AD980",  "type": "Feature", "tippecanoe": { "layer": "2AFCA138C2781583915621394", "minzoom": 2, "maxzoom": 8 }, "properties": { "halo": 1.8, "title": "基辅罗斯", "fontsize": 12, "tyid": "304000", "oid": "103:1535120173434", "color": "#0056E7" }, "geometry": { "type": "Point", "coordinates": [ 32.958984, 54.521081 ] } }
{"year": "AD980",  "type": "Feature", "tippecanoe": { "layer": "2AFCA138C2781583915621394", "minzoom": 2, "maxzoom": 8 }, "properties": { "halo": 1.8, "title": "佩切涅格汗国", "fontsize": 12, "tyid": "304000", "oid": "103:1535120173243", "color": "#0056E7" }, "geometry": { "type": "Point", "coordinates": [ 43.593750, 48.690960 ] } }
{"year": "AD980",  "type": "Feature", "tippecanoe": { "layer": "2AFCA138C2781583915621394", "minzoom": 2, "maxzoom": 8 }, "properties": { "halo": 1.8, "title": "兹里王朝", "fontsize": 12, "tyid": "304000", "oid": "103:1535120173224", "color": "#0056E7" }, "geometry": { "type": "Point", "coordinates": [ 4.746094, 35.817813 ] } }
{"year": "AD980",  "type": "Feature", "tippecanoe": { "layer": "2AFCA138C2781583915621394", "minzoom": 2, "maxzoom": 8 }, "properties": { "halo": 1.6, "title": "北非贝都因人", "fontsize": 12, "tyid": "304001", "oid": "103:1535120173333", "color": "#0056E7" }, "geometry": { "type": "Point", "coordinates": [ 19.511719, 26.667096 ] } }
{"year": "AD980",  "type": "Feature", "tippecanoe": { "layer": "2AFCA138C2781583915621394", "minzoom": 2, "maxzoom": 8 }, "properties": { "halo": 1.8, "title": "加奥帝国", "fontsize": 12, "tyid": "304000", "oid": "103:1535120173159", "color": "#0056E7" }, "geometry": { "type": "Point", "coordinates": [ 2.021484, 15.368950 ] } }
{"year": "AD980",  "type": "Feature", "tippecanoe": { "layer": "2AFCA138C2781583915621394", "minzoom": 2, "maxzoom": 8 }, "properties": { "halo": 1.8, "title": "图阿雷格人", "fontsize": 12, "tyid": "304000", "oid": "103:1535120173149", "color": "#0056E7" }, "geometry": { "type": "Point", "coordinates": [ 5.976562, 21.779905 ] } }
{"year": "AD980",  "type": "Feature", "tippecanoe": { "layer": "2AFCA138C2781583915621394", "minzoom": 2, "maxzoom": 8 }, "properties": { "halo": 1.6, "title": "豪萨人", "fontsize": 12, "tyid": "304001", "oid": "103:1535120173161", "color": "#0056E7" }, "geometry": { "type": "Point", "coordinates": [ 7.470703, 12.382928 ] } }
{"year": "AD980",  "type": "Feature", "tippecanoe": { "layer": "2AFCA138C2781583915621394", "minzoom": 2, "maxzoom": 8 }, "properties": { "halo": 1.8, "title": "加涅姆帝国", "fontsize": 12, "tyid": "304000", "oid": "103:1535120173163", "color": "#0056E7" }, "geometry": { "type": "Point", "coordinates": [ 16.611328, 15.368950 ] } }
{"year": "AD980",  "type": "Feature", "tippecanoe": { "layer": "2AFCA138C2781583915621394", "minzoom": 2, "maxzoom": 8 }, "properties": { "halo": 1.6, "title": "图布人", "fontsize": 12, "tyid": "304001", "oid": "103:1535120173335", "color": "#0056E7" }, "geometry": { "type": "Point", "coordinates": [ 17.050781, 21.289374 ] } }
{"year": "AD980",  "type": "Feature", "tippecanoe": { "layer": "2AFCA138C2781583915621394", "minzoom": 2, "maxzoom": 8 }, "properties": { "halo": 1.6, "title": "贝蒂-帕胡因人", "fontsize": 12, "tyid": "304001", "oid": "103:1535120173345", "color": "#0056E7" }, "geometry": { "type": "Point", "coordinates": [ 13.798828, 1.230374 ] } }
{"year": "AD980",  "type": "Feature", "tippecanoe": { "layer": "2AFCA138C2781583915621394", "minzoom": 2, "maxzoom": 8 }, "properties": { "halo": 1.8, "title": "法蒂玛哈里发国", "fontsize": 12, "tyid": "304000", "oid": "103:1537435999646", "color": "#0056E7" }, "geometry": { "type": "Point", "coordinates": [ 29.179688, 29.840644 ] } }
{"year": "AD980",  "type": "Feature", "tippecanoe": { "layer": "2AFCA138C2781583915621394", "minzoom": 2, "maxzoom": 8 }, "properties": { "halo": 1.8, "title": "东罗马帝国", "fontsize": 12, "tyid": "304000", "oid": "103:1537435999596", "color": "#0056E7" }, "geometry": { "type": "Point", "coordinates": [ 33.837891, 38.959409 ] } }
{"year": "AD980",  "type": "Feature", "tippecanoe": { "layer": "2AFCA138C2781583915621394", "minzoom": 2, "maxzoom": 8 }, "properties": { "halo": 1.8, "title": "伊拉克的布叶王朝", "fontsize": 12, "tyid": "304000", "oid": "103:1576922422864", "color": "#0056E7" }, "geometry": { "type": "Point", "coordinates": [ 42.011719, 36.102376 ] } }
{"year": "AD980",  "type": "Feature", "tippecanoe": { "layer": "2AFCA138C2781583915621394", "minzoom": 2, "maxzoom": 8 }, "properties": { "halo": 1.6, "title": "贝都因人", "fontsize": 12, "tyid": "304001", "oid": "103:1537435999648", "color": "#0056E7" }, "geometry": { "type": "Point", "coordinates": [ 39.287109, 30.372875 ] } }
{"year": "AD980",  "type": "Feature", "tippecanoe": { "layer": "2AFCA138C2781583915621394", "minzoom": 2, "maxzoom": 8 }, "properties": { "halo": 1.8, "title": "阿希多王朝", "fontsize": 12, "tyid": "304000", "oid": "103:1537435999653", "color": "#0056E7" }, "geometry": { "type": "Point", "coordinates": [ 44.384766, 24.046464 ] } }
{"year": "AD980",  "type": "Feature", "tippecanoe": { "layer": "2AFCA138C2781583915621394", "minzoom": 2, "maxzoom": 8 }, "properties": { "halo": 1.8, "title": "马库里亚王国", "fontsize": 12, "tyid": "304000", "oid": "103:1535120173329", "color": "#0056E7" }, "geometry": { "type": "Point", "coordinates": [ 31.640625, 19.476950 ] } }
{"year": "AD980",  "type": "Feature", "tippecanoe": { "layer": "2AFCA138C2781583915621394", "minzoom": 2, "maxzoom": 8 }, "properties": { "halo": 1.8, "title": "阿罗底亚王国", "fontsize": 12, "tyid": "304000", "oid": "103:1576922422874", "color": "#0056E7" }, "geometry": { "type": "Point", "coordinates": [ 33.310547, 13.752725 ] } }
{"year": "AD980",  "type": "Feature", "tippecanoe": { "layer": "2AFCA138C2781583915621394", "minzoom": 2, "maxzoom": 8 }, "properties": { "halo": 1.6, "title": "卢欧诸部", "fontsize": 12, "tyid": "304001", "oid": "103:1537435999558", "color": "#0056E7" }, "geometry": { "type": "Point", "coordinates": [ 31.640625, 5.878332 ] } }
{"year": "AD980",  "type": "Feature", "tippecanoe": { "layer": "2AFCA138C2781583915621394", "minzoom": 2, "maxzoom": 8 }, "properties": { "halo": 1.8, "title": "尼罗特人", "fontsize": 12, "tyid": "304000", "oid": "103:1537435999786", "color": "#0056E7" }, "geometry": { "type": "Point", "coordinates": [ 30.761719, 1.142502 ] } }
{"year": "AD980",  "type": "Feature", "tippecanoe": { "layer": "2AFCA138C2781583915621394", "minzoom": 2, "maxzoom": 8 }, "properties": { "halo": 1.6, "title": "贝扎人", "fontsize": 12, "tyid": "304001", "oid": "103:1535120173326", "color": "#0056E7" }, "geometry": { "type": "Point", "coordinates": [ 36.474609, 17.811456 ] } }
{"year": "AD980",  "type": "Feature", "tippecanoe": { "layer": "2AFCA138C2781583915621394", "minzoom": 2, "maxzoom": 8 }, "properties": { "halo": 1.8, "title": "雅库特人", "fontsize": 12, "tyid": "304000", "oid": "103:1535120173367", "color": "#0056E7" }, "geometry": { "type": "Point", "coordinates": [ 65.566406, 59.756395 ] } }
{"year": "AD980",  "type": "Feature", "tippecanoe": { "layer": "2AFCA138C2781583915621394", "minzoom": 2, "maxzoom": 8 }, "properties": { "halo": 1.6, "title": "乌古斯叶护国", "fontsize": 12, "tyid": "304001", "oid": "103:1537435999668", "color": "#0056E7" }, "geometry": { "type": "Point", "coordinates": [ 55.810547, 44.402392 ] } }
{"year": "AD980",  "type": "Feature", "tippecanoe": { "layer": "2AFCA138C2781583915621394", "minzoom": 2, "maxzoom": 8 }, "properties": { "halo": 1.8, "title": "巴什基尔人", "fontsize": 12, "tyid": "304000", "oid": "103:1535120173363", "color": "#0056E7" }, "geometry": { "type": "Point", "coordinates": [ 59.238281, 52.321911 ] } }
{"year": "AD980",  "type": "Feature", "tippecanoe": { "layer": "2AFCA138C2781583915621394", "minzoom": 2, "maxzoom": 8 }, "properties": { "halo": 1.8, "title": "基马克-钦察联盟", "fontsize": 12, "tyid": "304000", "oid": "103:1537435999792", "color": "#0056E7" }, "geometry": { "type": "Point", "coordinates": [ 73.476562, 50.958427 ] } }
{"year": "AD980",  "type": "Feature", "tippecanoe": { "layer": "2AFCA138C2781583915621394", "minzoom": 2, "maxzoom": 8 }, "properties": { "halo": 1.8, "title": "喀喇汗国", "fontsize": 12, "tyid": "304000", "oid": "103:1535120173512", "color": "#0056E7" }, "geometry": { "type": "Point", "coordinates": [ 74.707031, 43.771094 ] } }
{"year": "AD980",  "type": "Feature", "tippecanoe": { "layer": "2AFCA138C2781583915621394", "minzoom": 2, "maxzoom": 8 }, "properties": { "halo": 1.8, "title": "高昌回鹘", "fontsize": 12, "tyid": "304000", "oid": "103:1576922422905", "color": "#0056E7" }, "geometry": { "type": "Point", "coordinates": [ 87.890625, 41.836828 ] } }
{"year": "AD980",  "type": "Feature", "tippecanoe": { "layer": "2AFCA138C2781583915621394", "minzoom": 2, "maxzoom": 8 }, "properties": { "halo": 1.8, "title": "吉贝尔的布叶王朝", "fontsize": 12, "tyid": "304000", "oid": "103:1576922422865", "color": "#0056E7" }, "geometry": { "type": "Point", "coordinates": [ 51.064453, 34.524661 ] } }
{"year": "AD980",  "type": "Feature", "tippecanoe": { "layer": "2AFCA138C2781583915621394", "minzoom": 2, "maxzoom": 8 }, "properties": { "halo": 1.8, "title": "法尔斯的布叶王朝", "fontsize": 12, "tyid": "304000", "oid": "103:1576922422860", "color": "#0056E7" }, "geometry": { "type": "Point", "coordinates": [ 54.492188, 29.611670 ] } }
{"year": "AD980",  "type": "Feature", "tippecanoe": { "layer": "2AFCA138C2781583915621394", "minzoom": 2, "maxzoom": 8 }, "properties": { "halo": 1.8, "title": "萨曼帝国", "fontsize": 12, "tyid": "304000", "oid": "103:1537435999681", "color": "#0056E7" }, "geometry": { "type": "Point", "coordinates": [ 63.193359, 39.232253 ] } }
{"year": "AD980",  "type": "Feature", "tippecanoe": { "layer": "2AFCA138C2781583915621394", "minzoom": 2, "maxzoom": 8 }, "properties": { "halo": 1.8, "title": "伽色尼王朝", "fontsize": 12, "tyid": "304000", "oid": "103:1537435999672", "color": "#0056E7" }, "geometry": { "type": "Point", "coordinates": [ 67.324219, 32.916485 ] } }
{"year": "AD980",  "type": "Feature", "tippecanoe": { "layer": "2AFCA138C2781583915621394", "minzoom": 2, "maxzoom": 8 }, "properties": { "halo": 1.8, "title": "萨法尔王朝", "fontsize": 12, "tyid": "304000", "oid": "103:1535120173272", "color": "#0056E7" }, "geometry": { "type": "Point", "coordinates": [ 61.611328, 30.448674 ] } }
{"year": "AD980",  "type": "Feature", "tippecanoe": { "layer": "2AFCA138C2781583915621394", "minzoom": 2, "maxzoom": 8 }, "properties": { "halo": 1.6, "title": "俾路支人", "fontsize": 12, "tyid": "304001", "oid": "103:1535120173276", "color": "#0056E7" }, "geometry": { "type": "Point", "coordinates": [ 61.962891, 26.431228 ] } }
{"year": "AD980",  "type": "Feature", "tippecanoe": { "layer": "2AFCA138C2781583915621394", "minzoom": 2, "maxzoom": 8 }, "properties": { "halo": 1.8, "title": "哈巴里王朝", "fontsize": 12, "tyid": "304000", "oid": "103:1535120173169", "color": "#0056E7" }, "geometry": { "type": "Point", "coordinates": [ 69.345703, 26.588527 ] } }
{"year": "AD980",  "type": "Feature", "tippecanoe": { "layer": "2AFCA138C2781583915621394", "minzoom": 2, "maxzoom": 8 }, "properties": { "halo": 1.8, "title": "萨姆巴尔的乔汉王朝", "fontsize": 12, "tyid": "304000", "oid": "103:1576922422872", "color": "#0056E7" }, "geometry": { "type": "Point", "coordinates": [ 74.619141, 27.683528 ] } }
{"year": "AD980",  "type": "Feature", "tippecanoe": { "layer": "2AFCA138C2781583915621394", "minzoom": 2, "maxzoom": 8 }, "properties": { "halo": 1.8, "title": "于阗国", "fontsize": 12, "tyid": "304000", "oid": "103:1537435999962", "color": "#0056E7" }, "geometry": { "type": "Point", "coordinates": [ 78.837891, 37.857507 ] } }
{"year": "AD980",  "type": "Feature", "tippecanoe": { "layer": "2AFCA138C2781583915621394", "minzoom": 2, "maxzoom": 8 }, "properties": { "halo": 1.8, "title": "西遮娄其帝国", "fontsize": 12, "tyid": "304000", "oid": "103:1576922422867", "color": "#0056E7" }, "geometry": { "type": "Point", "coordinates": [ 76.904297, 18.812718 ] } }
{"year": "AD980",  "type": "Feature", "tippecanoe": { "layer": "2AFCA138C2781583915621394", "minzoom": 2, "maxzoom": 8 }, "properties": { "halo": 1.6, "title": "黠戛斯", "fontsize": 12, "tyid": "304001", "oid": "103:1535120173530", "color": "#0056E7" }, "geometry": { "type": "Point", "coordinates": [ 100.810547, 54.059388 ] } }
{"year": "AD980",  "type": "Feature", "tippecanoe": { "layer": "2AFCA138C2781583915621394", "minzoom": 2, "maxzoom": 8 }, "properties": { "halo": 1.8, "title": "辽", "fontsize": 12, "tyid": "304000", "oid": "103:1535120173402", "color": "#0056E7" }, "geometry": { "type": "Point", "coordinates": [ 119.794922, 44.527843 ] } }
{"year": "AD980",  "type": "Feature", "tippecanoe": { "layer": "2AFCA138C2781583915621394", "minzoom": 2, "maxzoom": 8 }, "properties": { "halo": 1.6, "title": "室韦诸部", "fontsize": 12, "tyid": "304001", "oid": "103:1537435999740", "color": "#0056E7" }, "geometry": { "type": "Point", "coordinates": [ 128.144531, 52.749594 ] } }
{"year": "AD980",  "type": "Feature", "tippecanoe": { "layer": "2AFCA138C2781583915621394", "minzoom": 2, "maxzoom": 8 }, "properties": { "halo": 1.6, "title": "吐蕃诸部", "fontsize": 12, "tyid": "304002", "oid": "103:1535120173517", "color": "#0056E7" }, "geometry": { "type": "Point", "coordinates": [ 93.164062, 32.842674 ] } }
{"year": "AD980",  "type": "Feature", "tippecanoe": { "layer": "2AFCA138C2781583915621394", "minzoom": 2, "maxzoom": 8 }, "properties": { "halo": 1.8, "title": "大理国", "fontsize": 12, "tyid": "304000", "oid": "103:1535120173534", "color": "#0056E7" }, "geometry": { "type": "Point", "coordinates": [ 100.634766, 25.324167 ] } }
{"year": "AD980",  "type": "Feature", "tippecanoe": { "layer": "2AFCA138C2781583915621394", "minzoom": 2, "maxzoom": 8 }, "properties": { "halo": 1.8, "title": "北宋", "fontsize": 12, "tyid": "304000", "oid": "103:1535120173524", "color": "#0056E7" }, "geometry": { "type": "Point", "coordinates": [ 112.236328, 30.902225 ] } }
{"year": "AD980",  "type": "Feature", "tippecanoe": { "layer": "2AFCA138C2781583915621394", "minzoom": 2, "maxzoom": 8 }, "properties": { "halo": 1.8, "title": "高棉帝国", "fontsize": 12, "tyid": "304000", "oid": "103:1535120173289", "color": "#0056E7" }, "geometry": { "type": "Point", "coordinates": [ 103.886719, 14.093957 ] } }
{"year": "AD980",  "type": "Feature", "tippecanoe": { "layer": "2AFCA138C2781583915621394", "minzoom": 2, "maxzoom": 8 }, "properties": { "halo": 1.8, "title": "日本平安时代", "fontsize": 12, "tyid": "304000", "oid": "103:1576922422893", "color": "#0056E7" }, "geometry": { "type": "Point", "coordinates": [ 137.548828, 36.244273 ] } }
{"year": "AD980",  "type": "Feature", "tippecanoe": { "layer": "2AFCA138C2781583915621394", "minzoom": 2, "maxzoom": 8 }, "properties": { "halo": 1.6, "title": "班图人诸部", "fontsize": 12, "tyid": "304001", "oid": "103:1535120173134", "color": "#0056E7" }, "geometry": { "type": "Point", "coordinates": [ 27.070312, -5.528511 ] } }
{"year": "AD980",  "type": "Feature", "tippecanoe": { "layer": "2AFCA138C2781583915621394", "minzoom": 2, "maxzoom": 8 }, "properties": { "halo": 1.6, "title": "科伊桑人", "fontsize": 12, "tyid": "304001", "oid": "103:1535120173165", "color": "#0056E7" }, "geometry": { "type": "Point", "coordinates": [ 24.521484, -20.961440 ] } }
{"year": "AD980",  "type": "Feature", "tippecanoe": { "layer": "2AFCA138C2781583915621394", "minzoom": 2, "maxzoom": 8 }, "properties": { "halo": 1.6, "title": "基卢瓦苏丹国", "fontsize": 12, "tyid": "304001", "oid": "103:1535120173132", "color": "#0056E7" }, "geometry": { "type": "Point", "coordinates": [ 39.375000, -12.726084 ] } }
{"year": "AD980",  "type": "Feature", "tippecanoe": { "layer": "2AFCA138C2781583915621394", "minzoom": 2, "maxzoom": 8 }, "properties": { "halo": 1.8, "title": "三佛齐王国", "fontsize": 12, "tyid": "304000", "oid": "103:1537435999949", "color": "#0056E7" }, "geometry": { "type": "Point", "coordinates": [ 101.513672, -0.439449 ] } }
{"year": "AD980",  "type": "Feature", "tippecanoe": { "layer": "2AFCA138C4381583915621397", "minzoom": 2, "maxzoom": 8 }, "properties": { "halo": 1.8, "title": "玛雅文明[后古典时期]", "fontsize": 12, "tyid": "304000", "oid": "103:1576922422889", "color": "#0056E7" }, "geometry": { "type": "Point", "coordinates": [ -89.208984, 19.228177 ] } }
{"year": "AD980",  "type": "Feature", "tippecanoe": { "layer": "2AFCA138C4381583915621397", "minzoom": 2, "maxzoom": 8 }, "properties": { "halo": 1.8, "title": "冰岛自由邦", "fontsize": 12, "tyid": "304000", "oid": "103:1535120173502", "color": "#0056E7" }, "geometry": { "type": "Point", "coordinates": [ -19.072266, 64.811557 ] } }
{"year": "AD980",  "type": "Feature", "tippecanoe": { "layer": "2AFCA138C4381583915621397", "minzoom": 2, "maxzoom": 8 }, "properties": { "halo": 1.8, "title": "英格兰王国", "fontsize": 12, "tyid": "304000", "oid": "103:1537435999896", "color": "#0056E7" }, "geometry": { "type": "Point", "coordinates": [ -1.494141, 52.589701 ] } }
{"year": "AD980",  "type": "Feature", "tippecanoe": { "layer": "2AFCA138C4381583915621397", "minzoom": 2, "maxzoom": 8 }, "properties": { "halo": 1.8, "title": "莱昂王国", "fontsize": 12, "tyid": "304000", "oid": "103:1535120173458", "color": "#0056E7" }, "geometry": { "type": "Point", "coordinates": [ -6.240234, 42.875964 ] } }
{"year": "AD980",  "type": "Feature", "tippecanoe": { "layer": "2AFCA138C4381583915621397", "minzoom": 2, "maxzoom": 8 }, "properties": { "halo": 1.8, "title": "布列塔尼公国", "fontsize": 12, "tyid": "304000", "oid": "103:1535120173482", "color": "#0056E7" }, "geometry": { "type": "Point", "coordinates": [ -2.724609, 48.107431 ] } }
{"year": "AD980",  "type": "Feature", "tippecanoe": { "layer": "2AFCA138C4381583915621397", "minzoom": 2, "maxzoom": 8 }, "properties": { "halo": 1.8, "title": "诺曼底公国", "fontsize": 12, "tyid": "304000", "oid": "103:1535120173455", "color": "#0056E7" }, "geometry": { "type": "Point", "coordinates": [ -0.087891, 48.864715 ] } }
{"year": "AD980",  "type": "Feature", "tippecanoe": { "layer": "2AFCA138C4381583915621397", "minzoom": 2, "maxzoom": 8 }, "properties": { "halo": 1.8, "title": "潘普洛纳王国", "fontsize": 12, "tyid": "304000", "oid": "103:1577244877971", "color": "#0056E7" }, "geometry": { "type": "Point", "coordinates": [ -0.966797, 42.682435 ] } }
{"year": "AD980",  "type": "Feature", "tippecanoe": { "layer": "2AFCA138C4381583915621397", "minzoom": 2, "maxzoom": 8 }, "properties": { "halo": 1.6, "title": "巴哈瓦塔联盟", "fontsize": 12, "tyid": "304002", "oid": "103:1535120173226", "color": "#0056E7" }, "geometry": { "type": "Point", "coordinates": [ -7.470703, 32.620870 ] } }
{"year": "AD980",  "type": "Feature", "tippecanoe": { "layer": "2AFCA138C4381583915621397", "minzoom": 2, "maxzoom": 8 }, "properties": { "halo": 1.8, "title": "塔克鲁尔王国", "fontsize": 12, "tyid": "304000", "oid": "103:1535120173151", "color": "#0056E7" }, "geometry": { "type": "Point", "coordinates": [ -14.238281, 16.636192 ] } }
{"year": "AD980",  "type": "Feature", "tippecanoe": { "layer": "2AFCA138C4381583915621397", "minzoom": 2, "maxzoom": 8 }, "properties": { "halo": 1.6, "title": "莫西人", "fontsize": 12, "tyid": "304001", "oid": "103:1576922422850", "color": "#0056E7" }, "geometry": { "type": "Point", "coordinates": [ -1.318359, 12.811801 ] } }
{"year": "AD980",  "type": "Feature", "tippecanoe": { "layer": "2AFCA138C4381583915621397", "minzoom": 2, "maxzoom": 8 }, "properties": { "halo": 1.8, "title": "曼德人", "fontsize": 12, "tyid": "304000", "oid": "103:1535120173155", "color": "#0056E7" }, "geometry": { "type": "Point", "coordinates": [ -9.667969, 11.005904 ] } }
{"year": "AD980",  "type": "Feature", "tippecanoe": { "layer": "2AFCA138C4381583915621397", "minzoom": 2, "maxzoom": 8 }, "properties": { "halo": 1.6, "title": "阿坎人", "fontsize": 12, "tyid": "304001", "oid": "103:1535120173350", "color": "#0056E7" }, "geometry": { "type": "Point", "coordinates": [ -2.285156, 6.315299 ] } }
{"year": "AD980",  "type": "Feature", "tippecanoe": { "layer": "2AFCA138C4381583915621397", "minzoom": 2, "maxzoom": 8 }, "properties": { "halo": 1.8, "title": "丹麦王国[维京时期]", "fontsize": 12, "tyid": "304000", "oid": "103:1577244877987", "color": "#0056E7" }, "geometry": { "type": "Point", "coordinates": [ 9.228516, 55.924586 ] } }
{"year": "AD980",  "type": "Feature", "tippecanoe": { "layer": "2AFCA138C4381583915621397", "minzoom": 2, "maxzoom": 8 }, "properties": { "halo": 1.8, "title": "瑞典王国[维京时期]", "fontsize": 12, "tyid": "304000", "oid": "103:1577244877986", "color": "#0056E7" }, "geometry": { "type": "Point", "coordinates": [ 14.765625, 58.722599 ] } }
{"year": "AD980",  "type": "Feature", "tippecanoe": { "layer": "2AFCA138C4381583915621397", "minzoom": 2, "maxzoom": 8 }, "properties": { "halo": 1.8, "title": "图卢兹伯国", "fontsize": 12, "tyid": "304000", "oid": "103:1535120173464", "color": "#0056E7" }, "geometry": { "type": "Point", "coordinates": [ 2.285156, 43.897892 ] } }
{"year": "AD980",  "type": "Feature", "tippecanoe": { "layer": "2AFCA138C4381583915621397", "minzoom": 2, "maxzoom": 8 }, "properties": { "halo": 1.8, "title": "勃艮第公国", "fontsize": 12, "tyid": "304000", "oid": "103:1577244877800", "color": "#0056E7" }, "geometry": { "type": "Point", "coordinates": [ 5.888672, 45.767523 ] } }
{"year": "AD980",  "type": "Feature", "tippecanoe": { "layer": "2AFCA138C4381583915621397", "minzoom": 2, "maxzoom": 8 }, "properties": { "halo": 1.8, "title": "柳蒂奇人", "fontsize": 12, "tyid": "304000", "oid": "103:1537435999933", "color": "#0056E7" }, "geometry": { "type": "Point", "coordinates": [ 12.919922, 53.173119 ] } }
{"year": "AD980",  "type": "Feature", "tippecanoe": { "layer": "2AFCA138C4381583915621397", "minzoom": 2, "maxzoom": 8 }, "properties": { "halo": 1.8, "title": "波美拉尼亚人", "fontsize": 12, "tyid": "304000", "oid": "103:1537435999936", "color": "#0056E7" }, "geometry": { "type": "Point", "coordinates": [ 15.908203, 53.696706 ] } }
{"year": "AD980",  "type": "Feature", "tippecanoe": { "layer": "2AFCA138C4381583915621397", "minzoom": 2, "maxzoom": 8 }, "properties": { "halo": 1.8, "title": "波西米亚公国", "fontsize": 12, "tyid": "304000", "oid": "103:1537435999871", "color": "#0056E7" }, "geometry": { "type": "Point", "coordinates": [ 15.029297, 49.667628 ] } }
{"year": "AD980",  "type": "Feature", "tippecanoe": { "layer": "2AFCA138C4381583915621397", "minzoom": 2, "maxzoom": 8 }, "properties": { "halo": 1.8, "title": "教皇国", "fontsize": 12, "tyid": "304000", "oid": "103:1535120173478", "color": "#0056E7" }, "geometry": { "type": "Point", "coordinates": [ 12.568359, 42.032974 ] } }
{"year": "AD980",  "type": "Feature", "tippecanoe": { "layer": "2AFCA138C4381583915621397", "minzoom": 2, "maxzoom": 8 }, "properties": { "halo": 1.8, "title": "克罗地亚王国[独立时期]", "fontsize": 12, "tyid": "304000", "oid": "103:1577244877964", "color": "#0056E7" }, "geometry": { "type": "Point", "coordinates": [ 16.171875, 44.715514 ] } }
{"year": "AD980",  "type": "Feature", "tippecanoe": { "layer": "2AFCA138C4381583915621397", "minzoom": 2, "maxzoom": 8 }, "properties": { "halo": 1.8, "title": "杜基亚公国", "fontsize": 12, "tyid": "304000", "oid": "103:1576922422895", "color": "#0056E7" }, "geometry": { "type": "Point", "coordinates": [ 19.423828, 43.452919 ] } }
{"year": "AD980",  "type": "Feature", "tippecanoe": { "layer": "2AFCA138C4381583915621397", "minzoom": 2, "maxzoom": 8 }, "properties": { "halo": 1.8, "title": "保加利亚第一王国", "fontsize": 12, "tyid": "304000", "oid": "103:1537435999880", "color": "#0056E7" }, "geometry": { "type": "Point", "coordinates": [ 22.060547, 42.488302 ] } }
{"year": "AD980",  "type": "Feature", "tippecanoe": { "layer": "2AFCA138C4381583915621397", "minzoom": 2, "maxzoom": 8 }, "properties": { "halo": 1.6, "title": "切尔克斯人", "fontsize": 12, "tyid": "304001", "oid": "103:1535120173283", "color": "#0056E7" }, "geometry": { "type": "Point", "coordinates": [ 39.814453, 44.465151 ] } }
{"year": "AD980",  "type": "Feature", "tippecanoe": { "layer": "2AFCA138C4381583915621397", "minzoom": 2, "maxzoom": 8 }, "properties": { "halo": 1.8, "title": "阿兰王国", "fontsize": 12, "tyid": "304000", "oid": "103:1535120173245", "color": "#0056E7" }, "geometry": { "type": "Point", "coordinates": [ 43.417969, 43.644026 ] } }
{"year": "AD980",  "type": "Feature", "tippecanoe": { "layer": "2AFCA138C4381583915621397", "minzoom": 2, "maxzoom": 8 }, "properties": { "halo": 1.8, "title": "阿布哈兹王国", "fontsize": 12, "tyid": "304000", "oid": "103:1535120173176", "color": "#0056E7" }, "geometry": { "type": "Point", "coordinates": [ 42.714844, 42.617791 ] } }
{"year": "AD980",  "type": "Feature", "tippecanoe": { "layer": "2AFCA138C4381583915621397", "minzoom": 2, "maxzoom": 8 }, "properties": { "halo": 1.6, "title": "伊博人", "fontsize": 12, "tyid": "304001", "oid": "103:1537435999769", "color": "#0056E7" }, "geometry": { "type": "Point", "coordinates": [ 9.140625, 6.140555 ] } }
{"year": "AD980",  "type": "Feature", "tippecanoe": { "layer": "2AFCA138C4381583915621397", "minzoom": 2, "maxzoom": 8 }, "properties": { "halo": 1.8, "title": "阿勒颇埃米尔国", "fontsize": 12, "tyid": "304000", "oid": "103:1576922422863", "color": "#0056E7" }, "geometry": { "type": "Point", "coordinates": [ 38.144531, 35.960223 ] } }
{"year": "AD980",  "type": "Feature", "tippecanoe": { "layer": "2AFCA138C4381583915621397", "minzoom": 2, "maxzoom": 8 }, "properties": { "halo": 1.8, "title": "塔奥-科拉耶季亲王国", "fontsize": 12, "tyid": "304000", "oid": "103:1535120173218", "color": "#0056E7" }, "geometry": { "type": "Point", "coordinates": [ 41.572266, 39.977120 ] } }
{"year": "AD980",  "type": "Feature", "tippecanoe": { "layer": "2AFCA138C4381583915621397", "minzoom": 2, "maxzoom": 8 }, "properties": { "halo": 1.8, "title": "瓦斯普拉坎王国", "fontsize": 12, "tyid": "304000", "oid": "103:1535120173211", "color": "#0056E7" }, "geometry": { "type": "Point", "coordinates": [ 43.417969, 38.685510 ] } }
{"year": "AD980",  "type": "Feature", "tippecanoe": { "layer": "2AFCA138C4381583915621397", "minzoom": 2, "maxzoom": 8 }, "properties": { "halo": 1.6, "title": "达优人", "fontsize": 12, "tyid": "304001", "oid": "103:1535120173339", "color": "#0056E7" }, "geometry": { "type": "Point", "coordinates": [ 24.521484, 17.056785 ] } }
{"year": "AD980",  "type": "Feature", "tippecanoe": { "layer": "2AFCA138C4381583915621397", "minzoom": 2, "maxzoom": 8 }, "properties": { "halo": 1.8, "title": "扎格维王朝", "fontsize": 12, "tyid": "304000", "oid": "103:1535120173323", "color": "#0056E7" }, "geometry": { "type": "Point", "coordinates": [ 39.375000, 12.554564 ] } }
{"year": "AD980",  "type": "Feature", "tippecanoe": { "layer": "2AFCA138C4381583915621397", "minzoom": 2, "maxzoom": 8 }, "properties": { "halo": 1.8, "title": "兹亚迪王朝", "fontsize": 12, "tyid": "304000", "oid": "103:1535120173316", "color": "#0056E7" }, "geometry": { "type": "Point", "coordinates": [ 44.648438, 14.008696 ] } }
{"year": "AD980",  "type": "Feature", "tippecanoe": { "layer": "2AFCA138C4381583915621397", "minzoom": 2, "maxzoom": 8 }, "properties": { "halo": 1.8, "title": "谢瓦苏丹国", "fontsize": 12, "tyid": "304000", "oid": "103:1537435999750", "color": "#0056E7" }, "geometry": { "type": "Point", "coordinates": [ 38.496094, 9.795678 ] } }
{"year": "AD980",  "type": "Feature", "tippecanoe": { "layer": "2AFCA138C4381583915621397", "minzoom": 2, "maxzoom": 8 }, "properties": { "halo": 1.8, "title": "伏尔加保加利亚汗国", "fontsize": 12, "tyid": "304000", "oid": "103:1537435999665", "color": "#0056E7" }, "geometry": { "type": "Point", "coordinates": [ 46.406250, 54.110943 ] } }
{"year": "AD980",  "type": "Feature", "tippecanoe": { "layer": "2AFCA138C4381583915621397", "minzoom": 2, "maxzoom": 8 }, "properties": { "halo": 1.8, "title": "可萨人", "fontsize": 12, "tyid": "304000", "oid": "103:1535120173280", "color": "#0056E7" }, "geometry": { "type": "Point", "coordinates": [ 46.845703, 43.707594 ] } }
{"year": "AD980",  "type": "Feature", "tippecanoe": { "layer": "2AFCA138C4381583915621397", "minzoom": 2, "maxzoom": 8 }, "properties": { "halo": 1.8, "title": "卡赫季亲王国", "fontsize": 12, "tyid": "304000", "oid": "103:1537435999621", "color": "#0056E7" }, "geometry": { "type": "Point", "coordinates": [ 46.054688, 41.836828 ] } }
{"year": "AD980",  "type": "Feature", "tippecanoe": { "layer": "2AFCA138C4381583915621397", "minzoom": 2, "maxzoom": 8 }, "properties": { "halo": 1.8, "title": "钦察人", "fontsize": 12, "tyid": "304000", "oid": "103:1535120173365", "color": "#0056E7" }, "geometry": { "type": "Point", "coordinates": [ 60.732422, 49.095452 ] } }
{"year": "AD980",  "type": "Feature", "tippecanoe": { "layer": "2AFCA138C4381583915621397", "minzoom": 2, "maxzoom": 8 }, "properties": { "halo": 1.8, "title": "亚美尼亚巴格拉提亚王国", "fontsize": 12, "tyid": "304000", "oid": "103:1537435999629", "color": "#0056E7" }, "geometry": { "type": "Point", "coordinates": [ 45.175781, 40.380028 ] } }
{"year": "AD980",  "type": "Feature", "tippecanoe": { "layer": "2AFCA138C4381583915621397", "minzoom": 2, "maxzoom": 8 }, "properties": { "halo": 1.8, "title": "拉瓦迪亲王国", "fontsize": 12, "tyid": "304000", "oid": "103:1537435999618", "color": "#0056E7" }, "geometry": { "type": "Point", "coordinates": [ 46.757812, 38.272689 ] } }
{"year": "AD980",  "type": "Feature", "tippecanoe": { "layer": "2AFCA138C4381583915621397", "minzoom": 2, "maxzoom": 8 }, "properties": { "halo": 1.8, "title": "希尔凡沙阿王朝", "fontsize": 12, "tyid": "304000", "oid": "103:1535120173192", "color": "#0056E7" }, "geometry": { "type": "Point", "coordinates": [ 48.515625, 40.380028 ] } }
{"year": "AD980",  "type": "Feature", "tippecanoe": { "layer": "2AFCA138C4381583915621397", "minzoom": 2, "maxzoom": 8 }, "properties": { "halo": 1.8, "title": "哈撒纳维耶亲王国", "fontsize": 12, "tyid": "304000", "oid": "103:1537435999701", "color": "#0056E7" }, "geometry": { "type": "Point", "coordinates": [ 47.285156, 34.161818 ] } }
{"year": "AD980",  "type": "Feature", "tippecanoe": { "layer": "2AFCA138C4381583915621397", "minzoom": 2, "maxzoom": 8 }, "properties": { "halo": 1.8, "title": "齐亚尔王朝", "fontsize": 12, "tyid": "304000", "oid": "103:1535120173270", "color": "#0056E7" }, "geometry": { "type": "Point", "coordinates": [ 54.667969, 37.718590 ] } }
{"year": "AD980",  "type": "Feature", "tippecanoe": { "layer": "2AFCA138C4381583915621397", "minzoom": 2, "maxzoom": 8 }, "properties": { "halo": 1.6, "title": "卡尔马特共和国", "fontsize": 12, "tyid": "304002", "oid": "103:1537435999651", "color": "#0056E7" }, "geometry": { "type": "Point", "coordinates": [ 49.570312, 24.766785 ] } }
{"year": "AD980",  "type": "Feature", "tippecanoe": { "layer": "2AFCA138C4381583915621397", "minzoom": 2, "maxzoom": 8 }, "properties": { "halo": 1.8, "title": "喀布尔夏希王朝", "fontsize": 12, "tyid": "304000", "oid": "103:1576922422852", "color": "#0056E7" }, "geometry": { "type": "Point", "coordinates": [ 73.652344, 32.768800 ] } }
{"year": "AD980",  "type": "Feature", "tippecanoe": { "layer": "2AFCA138C4381583915621397", "minzoom": 2, "maxzoom": 8 }, "properties": { "halo": 1.8, "title": "乌婆逻王朝", "fontsize": 12, "tyid": "304000", "oid": "103:1576922422878", "color": "#0056E7" }, "geometry": { "type": "Point", "coordinates": [ 74.970703, 33.943360 ] } }
{"year": "AD980",  "type": "Feature", "tippecanoe": { "layer": "2AFCA138C4381583915621397", "minzoom": 2, "maxzoom": 8 }, "properties": { "halo": 1.8, "title": "木尔坦埃米尔国", "fontsize": 12, "tyid": "304000", "oid": "103:1576922422854", "color": "#0056E7" }, "geometry": { "type": "Point", "coordinates": [ 71.982422, 30.675715 ] } }
{"year": "AD980",  "type": "Feature", "tippecanoe": { "layer": "2AFCA138C4381583915621397", "minzoom": 2, "maxzoom": 8 }, "properties": { "halo": 1.8, "title": "索兰基王朝", "fontsize": 12, "tyid": "304000", "oid": "103:1576922422869", "color": "#0056E7" }, "geometry": { "type": "Point", "coordinates": [ 71.806641, 23.160563 ] } }
{"year": "AD980",  "type": "Feature", "tippecanoe": { "layer": "2AFCA138C4381583915621397", "minzoom": 2, "maxzoom": 8 }, "properties": { "halo": 1.8, "title": "帕拉玛拉王朝", "fontsize": 12, "tyid": "304000", "oid": "103:1535120173532", "color": "#0056E7" }, "geometry": { "type": "Point", "coordinates": [ 76.376953, 24.527135 ] } }
{"year": "AD980",  "type": "Feature", "tippecanoe": { "layer": "2AFCA138C4381583915621397", "minzoom": 2, "maxzoom": 8 }, "properties": { "halo": 1.8, "title": "瞿折罗-普罗蒂诃罗王朝", "fontsize": 12, "tyid": "304000", "oid": "103:1576922422870", "color": "#0056E7" }, "geometry": { "type": "Point", "coordinates": [ 80.419922, 26.902477 ] } }
{"year": "AD980",  "type": "Feature", "tippecanoe": { "layer": "2AFCA138C4381583915621397", "minzoom": 2, "maxzoom": 8 }, "properties": { "halo": 1.8, "title": "昌德拉王朝", "fontsize": 12, "tyid": "304000", "oid": "103:1535120173383", "color": "#0056E7" }, "geometry": { "type": "Point", "coordinates": [ 80.419922, 25.005973 ] } }
{"year": "AD980",  "type": "Feature", "tippecanoe": { "layer": "2AFCA138C4381583915621397", "minzoom": 2, "maxzoom": 8 }, "properties": { "halo": 1.8, "title": "特里普里的卡拉丘里王朝", "fontsize": 12, "tyid": "304000", "oid": "103:1537435999730", "color": "#0056E7" }, "geometry": { "type": "Point", "coordinates": [ 81.386719, 23.160563 ] } }
{"year": "AD980",  "type": "Feature", "tippecanoe": { "layer": "2AFCA138C4381583915621397", "minzoom": 2, "maxzoom": 8 }, "properties": { "halo": 1.8, "title": "波罗帝国", "fontsize": 12, "tyid": "304000", "oid": "103:1576922422877", "color": "#0056E7" }, "geometry": { "type": "Point", "coordinates": [ 87.187500, 26.115986 ] } }
{"year": "AD980",  "type": "Feature", "tippecanoe": { "layer": "2AFCA138C4381583915621397", "minzoom": 2, "maxzoom": 8 }, "properties": { "halo": 1.8, "title": "西恒伽王朝", "fontsize": 12, "tyid": "304000", "oid": "103:1537435999813", "color": "#0056E7" }, "geometry": { "type": "Point", "coordinates": [ 77.607422, 14.689881 ] } }
{"year": "AD980",  "type": "Feature", "tippecanoe": { "layer": "2AFCA138C4381583915621397", "minzoom": 2, "maxzoom": 8 }, "properties": { "halo": 1.8, "title": "巴纳王国", "fontsize": 12, "tyid": "304000", "oid": "103:1537435999808", "color": "#0056E7" }, "geometry": { "type": "Point", "coordinates": [ 82.880859, 21.043491 ] } }
{"year": "AD980",  "type": "Feature", "tippecanoe": { "layer": "2AFCA138C4381583915621397", "minzoom": 2, "maxzoom": 8 }, "properties": { "halo": 1.8, "title": "东遮娄其王朝", "fontsize": 12, "tyid": "304000", "oid": "103:1535120173387", "color": "#0056E7" }, "geometry": { "type": "Point", "coordinates": [ 80.595703, 16.551962 ] } }
{"year": "AD980",  "type": "Feature", "tippecanoe": { "layer": "2AFCA138C4381583915621397", "minzoom": 2, "maxzoom": 8 }, "properties": { "halo": 1.8, "title": "索玛瓦犀王朝", "fontsize": 12, "tyid": "304000", "oid": "103:1537435999815", "color": "#0056E7" }, "geometry": { "type": "Point", "coordinates": [ 84.462891, 19.890723 ] } }
{"year": "AD980",  "type": "Feature", "tippecanoe": { "layer": "2AFCA138C4381583915621397", "minzoom": 2, "maxzoom": 8 }, "properties": { "halo": 1.8, "title": "阿努拉德普勒王国", "fontsize": 12, "tyid": "304000", "oid": "103:1576922422882", "color": "#0056E7" }, "geometry": { "type": "Point", "coordinates": [ 80.683594, 7.623887 ] } }
{"year": "AD980",  "type": "Feature", "tippecanoe": { "layer": "2AFCA138C4381583915621397", "minzoom": 2, "maxzoom": 8 }, "properties": { "halo": 1.8, "title": "归义军", "fontsize": 12, "tyid": "304000", "oid": "103:1535120173519", "color": "#0056E7" }, "geometry": { "type": "Point", "coordinates": [ 96.503906, 40.647304 ] } }
{"year": "AD980",  "type": "Feature", "tippecanoe": { "layer": "2AFCA138C4381583915621397", "minzoom": 2, "maxzoom": 8 }, "properties": { "halo": 1.8, "title": "甘州回鹘", "fontsize": 12, "tyid": "304000", "oid": "103:1535120173521", "color": "#0056E7" }, "geometry": { "type": "Point", "coordinates": [ 98.876953, 39.639538 ] } }
{"year": "AD980",  "type": "Feature", "tippecanoe": { "layer": "2AFCA138C4381583915621397", "minzoom": 2, "maxzoom": 8 }, "properties": { "halo": 1.8, "title": "迦摩缕波王国", "fontsize": 12, "tyid": "304000", "oid": "103:1537435999820", "color": "#0056E7" }, "geometry": { "type": "Point", "coordinates": [ 92.812500, 26.352498 ] } }
{"year": "AD980",  "type": "Feature", "tippecanoe": { "layer": "2AFCA138C4381583915621397", "minzoom": 2, "maxzoom": 8 }, "properties": { "halo": 1.8, "title": "古曼尼普尔王国", "fontsize": 12, "tyid": "304000", "oid": "103:1577244877787", "color": "#0056E7" }, "geometry": { "type": "Point", "coordinates": [ 94.130859, 25.165173 ] } }
{"year": "AD980",  "type": "Feature", "tippecanoe": { "layer": "2AFCA138C4381583915621397", "minzoom": 2, "maxzoom": 8 }, "properties": { "halo": 1.8, "title": "凉州吐蕃", "fontsize": 12, "tyid": "304000", "oid": "103:1535120173522", "color": "#0056E7" }, "geometry": { "type": "Point", "coordinates": [ 101.953125, 37.996163 ] } }
{"year": "AD980",  "type": "Feature", "tippecanoe": { "layer": "2AFCA138C4381583915621397", "minzoom": 2, "maxzoom": 8 }, "properties": { "halo": 1.8, "title": "定难军", "fontsize": 12, "tyid": "304000", "oid": "103:1576922422883", "color": "#0056E7" }, "geometry": { "type": "Point", "coordinates": [ 109.423828, 37.926868 ] } }
{"year": "AD980",  "type": "Feature", "tippecanoe": { "layer": "2AFCA138C4381583915621397", "minzoom": 2, "maxzoom": 8 }, "properties": { "halo": 1.8, "title": "若开诸国", "fontsize": 12, "tyid": "304000", "oid": "103:1537435999834", "color": "#0056E7" }, "geometry": { "type": "Point", "coordinates": [ 92.900391, 21.698265 ] } }
{"year": "AD980",  "type": "Feature", "tippecanoe": { "layer": "2AFCA138C4381583915621397", "minzoom": 2, "maxzoom": 8 }, "properties": { "halo": 1.8, "title": "蒲甘王国", "fontsize": 12, "tyid": "304000", "oid": "103:1537435999842", "color": "#0056E7" }, "geometry": { "type": "Point", "coordinates": [ 95.449219, 21.698265 ] } }
{"year": "AD980",  "type": "Feature", "tippecanoe": { "layer": "2AFCA138C4381583915621397", "minzoom": 2, "maxzoom": 8 }, "properties": { "halo": 1.8, "title": "直通王国", "fontsize": 12, "tyid": "304000", "oid": "103:1535120173410", "color": "#0056E7" }, "geometry": { "type": "Point", "coordinates": [ 95.537109, 17.224758 ] } }
{"year": "AD980",  "type": "Feature", "tippecanoe": { "layer": "2AFCA138C4381583915621397", "minzoom": 2, "maxzoom": 8 }, "properties": { "halo": 1.8, "title": "骇黎朋猜国", "fontsize": 12, "tyid": "304000", "oid": "103:1576922422884", "color": "#0056E7" }, "geometry": { "type": "Point", "coordinates": [ 99.667969, 18.145852 ] } }
{"year": "AD980",  "type": "Feature", "tippecanoe": { "layer": "2AFCA138C4381583915621397", "minzoom": 2, "maxzoom": 8 }, "properties": { "halo": 1.8, "title": "大瞿越国", "fontsize": 12, "tyid": "304000", "oid": "103:1537435999717", "color": "#0056E7" }, "geometry": { "type": "Point", "coordinates": [ 105.205078, 20.055931 ] } }
{"year": "AD980",  "type": "Feature", "tippecanoe": { "layer": "2AFCA138C4381583915621397", "minzoom": 2, "maxzoom": 8 }, "properties": { "halo": 1.8, "title": "占婆国", "fontsize": 12, "tyid": "304000", "oid": "103:1537435999720", "color": "#0056E7" }, "geometry": { "type": "Point", "coordinates": [ 107.753906, 15.961329 ] } }
{"year": "AD980",  "type": "Feature", "tippecanoe": { "layer": "2AFCA138C4381583915621397", "minzoom": 2, "maxzoom": 8 }, "properties": { "halo": 1.8, "title": "高丽", "fontsize": 12, "tyid": "304000", "oid": "103:1535120173430", "color": "#0056E7" }, "geometry": { "type": "Point", "coordinates": [ 128.232422, 36.879621 ] } }
{"year": "AD980",  "type": "Feature", "tippecanoe": { "layer": "2AFCA138C4381583915621397", "minzoom": 2, "maxzoom": 8 }, "properties": { "halo": 1.6, "title": "虾夷", "fontsize": 12, "tyid": "304002", "oid": "103:1535120173428", "color": "#0056E7" }, "geometry": { "type": "Point", "coordinates": [ 142.558594, 43.389082 ] } }
{"year": "AD980",  "type": "Feature", "tippecanoe": { "layer": "2AFCA138C4381583915621397", "minzoom": 2, "maxzoom": 8 }, "properties": { "halo": 1.8, "title": "加鲁王国", "fontsize": 12, "tyid": "304000", "oid": "103:1535120173508", "color": "#0056E7" }, "geometry": { "type": "Point", "coordinates": [ 108.105469, -7.013668 ] } }
{"year": "AD980",  "type": "Feature", "tippecanoe": { "layer": "2AFCA138C4381583915621397", "minzoom": 2, "maxzoom": 8 }, "properties": { "halo": 1.8, "title": "马打兰王国", "fontsize": 12, "tyid": "304000", "oid": "103:1535120173510", "color": "#0056E7" }, "geometry": { "type": "Point", "coordinates": [ 111.269531, -7.449624 ] } }
{"year": "AD980",  "type": "Feature", "tippecanoe": { "layer": "2AFCA138C6D81583915621400", "minzoom": 2, "maxzoom": 8 }, "properties": { "tyid": "410000", "centroid": "{\"type\":\"Point\",\"coordinates\":[102.890655519,50.32448578]}", "opacity": 1, "oid": "103:1582721307215", "color": "#A11300", "width": 3 }, "geometry": { "type": "MultiLineString", "coordinates": [ [ [ 108.017578, 21.616579 ], [ 106.611328, 22.024546 ], [ 106.523438, 22.512557 ], [ 106.699219, 22.836946 ], [ 105.820312, 22.998852 ], [ 105.205078, 23.402765 ], [ 103.886719, 22.512557 ], [ 103.535156, 22.836946 ], [ 103.183594, 22.105999 ], [ 102.480469, 22.512557 ], [ 101.777344, 21.861499 ], [ 101.689453, 21.207459 ], [ 101.162109, 21.207459 ], [ 100.986328, 21.779905 ], [ 100.195312, 21.534847 ], [ 99.843750, 22.105999 ], [ 99.140625, 22.187405 ], [ 99.228516, 22.917923 ], [ 98.437500, 23.079732 ], [ 98.701172, 23.402765 ], [ 98.349609, 23.966176 ], [ 98.525391, 24.206890 ], [ 97.294922, 23.805450 ], [ 97.470703, 25.324167 ], [ 98.261719, 26.431228 ], [ 98.701172, 26.667096 ], [ 98.613281, 27.605671 ], [ 98.261719, 27.605671 ], [ 98.085938, 28.226970 ], [ 97.558594, 28.536275 ], [ 97.031250, 27.761330 ], [ 96.240234, 28.304381 ], [ 95.625000, 28.304381 ], [ 94.218750, 27.605671 ], [ 93.691406, 27.059126 ], [ 92.988281, 26.902477 ], [ 92.021484, 26.902477 ], [ 92.109375, 27.371767 ], [ 91.494141, 27.605671 ], [ 91.494141, 27.916767 ], [ 90.791016, 28.071980 ] ], [ [ 130.605469, 42.293564 ], [ 130.166016, 42.940339 ], [ 129.814453, 43.004647 ], [ 129.638672, 42.488302 ], [ 129.287109, 42.423457 ], [ 128.847656, 42.032974 ], [ 127.968750, 42.032974 ], [ 128.232422, 41.574361 ], [ 128.056641, 41.442726 ], [ 127.177734, 41.508577 ], [ 126.826172, 41.836828 ], [ 125.947266, 40.913513 ], [ 124.804688, 40.513799 ], [ 124.277344, 40.044438 ] ], [ [ 135.263672, 54.775346 ], [ 132.978516, 54.162434 ], [ 130.517578, 54.110943 ], [ 131.835938, 54.927142 ], [ 131.044922, 55.677584 ], [ 129.462891, 55.776573 ], [ 128.759766, 55.528631 ], [ 127.705078, 55.727110 ], [ 126.123047, 55.627996 ], [ 125.859375, 55.825973 ], [ 124.804688, 55.924586 ], [ 123.134766, 54.775346 ], [ 121.376953, 54.265224 ], [ 121.025391, 54.521081 ], [ 120.234375, 54.162434 ], [ 119.267578, 54.007769 ], [ 119.003906, 53.383328 ], [ 119.179688, 53.120405 ], [ 120.058594, 53.488046 ], [ 121.201172, 53.540307 ], [ 121.376953, 53.383328 ], [ 120.761719, 53.278353 ], [ 119.970703, 52.802761 ], [ 120.058594, 52.589701 ], [ 120.673828, 52.536273 ], [ 120.673828, 51.998410 ], [ 120.058594, 51.672555 ], [ 119.091797, 50.401515 ], [ 119.355469, 50.401515 ], [ 119.267578, 50.120578 ], [ 118.037109, 49.610710 ], [ 116.191406, 50.064192 ], [ 115.312500, 49.951220 ], [ 114.960938, 50.233152 ], [ 114.257812, 50.289339 ], [ 112.675781, 49.496675 ], [ 110.654297, 49.152970 ], [ 108.457031, 49.382373 ], [ 107.929688, 49.724479 ], [ 107.929688, 49.951220 ], [ 107.050781, 50.064192 ], [ 106.523438, 50.345460 ], [ 105.292969, 50.513427 ], [ 103.974609, 50.176898 ], [ 103.271484, 50.233152 ], [ 102.216797, 50.625073 ], [ 102.041016, 51.399206 ], [ 98.964844, 52.106505 ], [ 98.613281, 52.482780 ], [ 98.876953, 52.908902 ], [ 99.140625, 52.961875 ], [ 98.789062, 53.173119 ], [ 98.173828, 53.120405 ], [ 96.767578, 53.800651 ], [ 96.416016, 53.592505 ], [ 94.658203, 53.435719 ], [ 94.394531, 52.961875 ], [ 94.130859, 52.908902 ], [ 93.515625, 52.214339 ], [ 92.812500, 51.890054 ], [ 91.054688, 51.890054 ], [ 90.175781, 52.696361 ], [ 87.802734, 53.383328 ], [ 86.396484, 53.173119 ], [ 86.132812, 52.908902 ], [ 83.056641, 51.618017 ], [ 82.617188, 51.179343 ], [ 83.056641, 50.958427 ], [ 83.232422, 50.513427 ], [ 82.529297, 49.724479 ], [ 82.529297, 49.325122 ], [ 81.298828, 48.690960 ], [ 81.035156, 48.166085 ], [ 79.628906, 47.694974 ], [ 79.453125, 46.800059 ], [ 78.750000, 46.800059 ], [ 78.750000, 46.619261 ], [ 78.574219, 46.800059 ], [ 78.222656, 46.498392 ], [ 77.783203, 46.679594 ], [ 74.531250, 46.800059 ], [ 73.564453, 46.134170 ], [ 73.388672, 45.706179 ], [ 72.070312, 44.964798 ], [ 70.488281, 44.402392 ], [ 69.521484, 43.452919 ], [ 70.927734, 42.293564 ], [ 73.212891, 42.163403 ], [ 73.916016, 41.836828 ], [ 74.003906, 41.574361 ], [ 73.300781, 41.508577 ], [ 73.828125, 41.046217 ], [ 73.212891, 40.847060 ], [ 72.949219, 40.446947 ], [ 73.125000, 40.044438 ], [ 72.773438, 39.842286 ], [ 72.861328, 39.368279 ], [ 72.421875, 39.436193 ], [ 72.070312, 39.095963 ], [ 72.246094, 38.548165 ], [ 71.894531, 38.272689 ], [ 72.158203, 37.649034 ], [ 71.718750, 36.738884 ], [ 73.476562, 37.509726 ], [ 73.740234, 37.439974 ], [ 73.740234, 37.160317 ], [ 74.531250, 37.090240 ], [ 75.673828, 36.385913 ], [ 75.761719, 36.031332 ], [ 74.882812, 35.817813 ], [ 75.322266, 35.173808 ], [ 75.146484, 34.669359 ], [ 76.113281, 33.578015 ], [ 77.080078, 32.990236 ], [ 77.080078, 32.472695 ], [ 77.871094, 31.802893 ], [ 78.662109, 31.728167 ], [ 79.013672, 31.052934 ], [ 79.892578, 30.826781 ], [ 80.683594, 30.145127 ], [ 82.001953, 30.145127 ], [ 83.583984, 29.228890 ], [ 83.935547, 29.305561 ], [ 84.462891, 28.536275 ], [ 85.605469, 28.226970 ], [ 85.869141, 27.916767 ], [ 87.714844, 27.839076 ], [ 88.681641, 28.071980 ], [ 88.945312, 27.215556 ], [ 89.560547, 28.226970 ], [ 90.791016, 28.071980 ] ] ] } }
{"year": "AD980",  "type": "Feature", "tippecanoe": { "layer": "2AFCA138C6D81583915621400", "minzoom": 2, "maxzoom": 8 }, "properties": { "tyid": "410000", "centroid": "{\"type\":\"Point\",\"coordinates\":[118.9965612163,11.9748626986]}", "opacity": 1, "oid": "103:1582721307213", "color": "#A11300", "width": 3 }, "geometry": { "type": "MultiLineString", "coordinates": [ [ [ 122.695312, 24.447150 ], [ 122.431641, 23.402765 ] ], [ [ 120.849609, 20.550509 ], [ 121.728516, 21.616579 ] ], [ [ 119.355469, 17.727759 ], [ 119.794922, 18.895893 ] ], [ [ 118.916016, 14.689881 ], [ 118.916016, 16.045813 ] ], [ [ 118.476562, 10.833306 ], [ 119.003906, 12.039321 ] ], [ [ 115.312500, 7.013668 ], [ 116.191406, 8.059230 ] ], [ [ 111.708984, 3.425692 ], [ 112.939453, 3.864255 ] ], [ [ 108.281250, 5.965754 ], [ 108.193359, 7.362467 ] ], [ [ 110.039062, 11.264612 ], [ 110.214844, 12.468760 ] ], [ [ 109.775391, 15.029686 ], [ 109.248047, 16.214675 ] ] ] } }
{"year": "AD980",  "type": "Feature", "tippecanoe": { "layer": "2AFCA138C8981583915621403", "minzoom": 2, "maxzoom": 8 }, "properties": { "halo": 0.3, "title": "澎湖", "fontsize": 12, "tyid": "304006", "oid": "103:1543577238067", "color": "#4D4848" }, "geometry": { "type": "Point", "coordinates": [ 119.531250, 23.644524 ] } }
{"year": "AD980",  "type": "Feature", "tippecanoe": { "layer": "2AFCA138C8981583915621403", "minzoom": 2, "maxzoom": 8 }, "properties": { "halo": 0.3, "title": "红头屿", "fontsize": 12, "tyid": "304006", "oid": "103:1543577238069", "color": "#4D4848" }, "geometry": { "type": "Point", "coordinates": [ 121.464844, 22.105999 ] } }
{"year": "AD980",  "type": "Feature", "tippecanoe": { "layer": "2AFCA138C8981583915621403", "minzoom": 2, "maxzoom": 8 }, "properties": { "halo": 0.3, "title": "石", "fontsize": 12, "tyid": "304006", "oid": "103:1535120173538", "color": "#4D4848" }, "geometry": { "type": "Point", "coordinates": [ 115.312500, 14.008696 ] } }
{"year": "AD980",  "type": "Feature", "tippecanoe": { "layer": "2AFCA138C8981583915621403", "minzoom": 2, "maxzoom": 8 }, "properties": { "halo": 0.3, "title": "堂", "fontsize": 12, "tyid": "304006", "oid": "103:1535120173535", "color": "#4D4848" }, "geometry": { "type": "Point", "coordinates": [ 114.257812, 9.795678 ] } }
{"year": "AD980",  "type": "Feature", "tippecanoe": { "layer": "2AFCA13BBDD81583915621388", "minzoom": 2, "maxzoom": 8 }, "properties": { "halo": 0.8, "title": "托尔特克帝国", "fontsize": 12, "tyid": "304000", "oid": "103:1537435999848", "color": "#202020" }, "geometry": { "type": "Point", "coordinates": [ -99.580078, 19.890723 ] } }
{"year": "AD980",  "type": "Feature", "tippecanoe": { "layer": "2AFCA13BBDD81583915621388", "minzoom": 2, "maxzoom": 8 }, "properties": { "halo": 0.8, "title": "科尔多瓦哈里发国", "fontsize": 12, "tyid": "304000", "oid": "103:1576922422897", "color": "#202020" }, "geometry": { "type": "Point", "coordinates": [ -4.394531, 39.639538 ] } }
{"year": "AD980",  "type": "Feature", "tippecanoe": { "layer": "2AFCA13BBDD81583915621388", "minzoom": 2, "maxzoom": 8 }, "properties": { "halo": 0.8, "title": "柏柏尔人诸部", "fontsize": 12, "tyid": "304000", "oid": "103:1537435999712", "color": "#202020" }, "geometry": { "type": "Point", "coordinates": [ -8.789062, 23.160563 ] } }
{"year": "AD980",  "type": "Feature", "tippecanoe": { "layer": "2AFCA13BBDD81583915621388", "minzoom": 2, "maxzoom": 8 }, "properties": { "halo": 0.8, "title": "加纳帝国", "fontsize": 12, "tyid": "304000", "oid": "103:1535120173153", "color": "#202020" }, "geometry": { "type": "Point", "coordinates": [ -7.294922, 15.707663 ] } }
{"year": "AD980",  "type": "Feature", "tippecanoe": { "layer": "2AFCA13BBDD81583915621388", "minzoom": 2, "maxzoom": 8 }, "properties": { "halo": 0.8, "title": "约鲁巴人", "fontsize": 12, "tyid": "304001", "oid": "103:1535120173143", "color": "#262626" }, "geometry": { "type": "Point", "coordinates": [ -3.779297, 8.494105 ] } }
{"year": "AD980",  "type": "Feature", "tippecanoe": { "layer": "2AFCA13BBDD81583915621388", "minzoom": 2, "maxzoom": 8 }, "properties": { "halo": 0.8, "title": "瓦里帝国", "fontsize": 12, "tyid": "304000", "oid": "103:1537435999856", "color": "#202020" }, "geometry": { "type": "Point", "coordinates": [ -75.761719, -11.867351 ] } }
{"year": "AD980",  "type": "Feature", "tippecanoe": { "layer": "2AFCA13BBDD81583915621388", "minzoom": 2, "maxzoom": 8 }, "properties": { "halo": 0.8, "title": "蒂亚瓦纳科帝国", "fontsize": 12, "tyid": "304000", "oid": "103:1537435999854", "color": "#202020" }, "geometry": { "type": "Point", "coordinates": [ -68.027344, -16.214675 ] } }
{"year": "AD980",  "type": "Feature", "tippecanoe": { "layer": "2AFCA13BBDD81583915621388", "minzoom": 2, "maxzoom": 8 }, "properties": { "halo": 0.8, "title": "挪威王国[维京时期]", "fontsize": 12, "tyid": "304000", "oid": "103:1577244877985", "color": "#202020" }, "geometry": { "type": "Point", "coordinates": [ 10.810547, 61.312452 ] } }
{"year": "AD980",  "type": "Feature", "tippecanoe": { "layer": "2AFCA13BBDD81583915621388", "minzoom": 2, "maxzoom": 8 }, "properties": { "halo": 0.8, "title": "西法兰克王国", "fontsize": 12, "tyid": "304000", "oid": "103:1535120173480", "color": "#202020" }, "geometry": { "type": "Point", "coordinates": [ 1.669922, 46.980252 ] } }
{"year": "AD980",  "type": "Feature", "tippecanoe": { "layer": "2AFCA13BBDD81583915621388", "minzoom": 2, "maxzoom": 8 }, "properties": { "halo": 0.8, "title": "神圣罗马帝国", "fontsize": 12, "tyid": "304000", "oid": "103:1535120173475", "color": "#202020" }, "geometry": { "type": "Point", "coordinates": [ 9.843750, 48.806863 ] } }
{"year": "AD980",  "type": "Feature", "tippecanoe": { "layer": "2AFCA13BBDD81583915621388", "minzoom": 2, "maxzoom": 8 }, "properties": { "halo": 0.8, "title": "斯维塔斯希奈斯王国", "fontsize": 12, "tyid": "304000", "oid": "103:1537435999874", "color": "#202020" }, "geometry": { "type": "Point", "coordinates": [ 18.808594, 51.508742 ] } }
{"year": "AD980",  "type": "Feature", "tippecanoe": { "layer": "2AFCA13BBDD81583915621388", "minzoom": 2, "maxzoom": 8 }, "properties": { "halo": 0.8, "title": "马扎尔人", "fontsize": 12, "tyid": "304000", "oid": "103:1537435999877", "color": "#202020" }, "geometry": { "type": "Point", "coordinates": [ 19.687500, 47.398349 ] } }
{"year": "AD980",  "type": "Feature", "tippecanoe": { "layer": "2AFCA13BBDD81583915621388", "minzoom": 2, "maxzoom": 8 }, "properties": { "halo": 0.8, "title": "基辅罗斯", "fontsize": 12, "tyid": "304000", "oid": "103:1535120173434", "color": "#202020" }, "geometry": { "type": "Point", "coordinates": [ 32.958984, 54.521081 ] } }
{"year": "AD980",  "type": "Feature", "tippecanoe": { "layer": "2AFCA13BBDD81583915621388", "minzoom": 2, "maxzoom": 8 }, "properties": { "halo": 0.8, "title": "佩切涅格汗国", "fontsize": 12, "tyid": "304000", "oid": "103:1535120173243", "color": "#202020" }, "geometry": { "type": "Point", "coordinates": [ 43.593750, 48.690960 ] } }
{"year": "AD980",  "type": "Feature", "tippecanoe": { "layer": "2AFCA13BBDD81583915621388", "minzoom": 2, "maxzoom": 8 }, "properties": { "halo": 0.8, "title": "兹里王朝", "fontsize": 12, "tyid": "304000", "oid": "103:1535120173224", "color": "#202020" }, "geometry": { "type": "Point", "coordinates": [ 4.746094, 35.817813 ] } }
{"year": "AD980",  "type": "Feature", "tippecanoe": { "layer": "2AFCA13BBDD81583915621388", "minzoom": 2, "maxzoom": 8 }, "properties": { "halo": 0.8, "title": "北非贝都因人", "fontsize": 12, "tyid": "304001", "oid": "103:1535120173333", "color": "#262626" }, "geometry": { "type": "Point", "coordinates": [ 19.511719, 26.667096 ] } }
{"year": "AD980",  "type": "Feature", "tippecanoe": { "layer": "2AFCA13BBDD81583915621388", "minzoom": 2, "maxzoom": 8 }, "properties": { "halo": 0.8, "title": "加奥帝国", "fontsize": 12, "tyid": "304000", "oid": "103:1535120173159", "color": "#202020" }, "geometry": { "type": "Point", "coordinates": [ 2.021484, 15.368950 ] } }
{"year": "AD980",  "type": "Feature", "tippecanoe": { "layer": "2AFCA13BBDD81583915621388", "minzoom": 2, "maxzoom": 8 }, "properties": { "halo": 0.8, "title": "图阿雷格人", "fontsize": 12, "tyid": "304000", "oid": "103:1535120173149", "color": "#202020" }, "geometry": { "type": "Point", "coordinates": [ 5.976562, 21.779905 ] } }
{"year": "AD980",  "type": "Feature", "tippecanoe": { "layer": "2AFCA13BBDD81583915621388", "minzoom": 2, "maxzoom": 8 }, "properties": { "halo": 0.8, "title": "豪萨人", "fontsize": 12, "tyid": "304001", "oid": "103:1535120173161", "color": "#262626" }, "geometry": { "type": "Point", "coordinates": [ 7.470703, 12.382928 ] } }
{"year": "AD980",  "type": "Feature", "tippecanoe": { "layer": "2AFCA13BBDD81583915621388", "minzoom": 2, "maxzoom": 8 }, "properties": { "halo": 0.8, "title": "加涅姆帝国", "fontsize": 12, "tyid": "304000", "oid": "103:1535120173163", "color": "#202020" }, "geometry": { "type": "Point", "coordinates": [ 16.611328, 15.368950 ] } }
{"year": "AD980",  "type": "Feature", "tippecanoe": { "layer": "2AFCA13BBDD81583915621388", "minzoom": 2, "maxzoom": 8 }, "properties": { "halo": 0.8, "title": "图布人", "fontsize": 12, "tyid": "304001", "oid": "103:1535120173335", "color": "#262626" }, "geometry": { "type": "Point", "coordinates": [ 17.050781, 21.289374 ] } }
{"year": "AD980",  "type": "Feature", "tippecanoe": { "layer": "2AFCA13BBDD81583915621388", "minzoom": 2, "maxzoom": 8 }, "properties": { "halo": 0.8, "title": "贝蒂-帕胡因人", "fontsize": 12, "tyid": "304001", "oid": "103:1535120173345", "color": "#262626" }, "geometry": { "type": "Point", "coordinates": [ 13.798828, 1.230374 ] } }
{"year": "AD980",  "type": "Feature", "tippecanoe": { "layer": "2AFCA13BBDD81583915621388", "minzoom": 2, "maxzoom": 8 }, "properties": { "halo": 0.8, "title": "法蒂玛哈里发国", "fontsize": 12, "tyid": "304000", "oid": "103:1537435999646", "color": "#202020" }, "geometry": { "type": "Point", "coordinates": [ 29.179688, 29.840644 ] } }
{"year": "AD980",  "type": "Feature", "tippecanoe": { "layer": "2AFCA13BBDD81583915621388", "minzoom": 2, "maxzoom": 8 }, "properties": { "halo": 0.8, "title": "东罗马帝国", "fontsize": 12, "tyid": "304000", "oid": "103:1537435999596", "color": "#202020" }, "geometry": { "type": "Point", "coordinates": [ 33.837891, 38.959409 ] } }
{"year": "AD980",  "type": "Feature", "tippecanoe": { "layer": "2AFCA13BBDD81583915621388", "minzoom": 2, "maxzoom": 8 }, "properties": { "halo": 0.8, "title": "伊拉克的布叶王朝", "fontsize": 12, "tyid": "304000", "oid": "103:1576922422864", "color": "#202020" }, "geometry": { "type": "Point", "coordinates": [ 42.011719, 36.102376 ] } }
{"year": "AD980",  "type": "Feature", "tippecanoe": { "layer": "2AFCA13BBDD81583915621388", "minzoom": 2, "maxzoom": 8 }, "properties": { "halo": 0.8, "title": "贝都因人", "fontsize": 12, "tyid": "304001", "oid": "103:1537435999648", "color": "#262626" }, "geometry": { "type": "Point", "coordinates": [ 39.287109, 30.372875 ] } }
{"year": "AD980",  "type": "Feature", "tippecanoe": { "layer": "2AFCA13BBDD81583915621388", "minzoom": 2, "maxzoom": 8 }, "properties": { "halo": 0.8, "title": "阿希多王朝", "fontsize": 12, "tyid": "304000", "oid": "103:1537435999653", "color": "#202020" }, "geometry": { "type": "Point", "coordinates": [ 44.384766, 24.046464 ] } }
{"year": "AD980",  "type": "Feature", "tippecanoe": { "layer": "2AFCA13BBDD81583915621388", "minzoom": 2, "maxzoom": 8 }, "properties": { "halo": 0.8, "title": "马库里亚王国", "fontsize": 12, "tyid": "304000", "oid": "103:1535120173329", "color": "#202020" }, "geometry": { "type": "Point", "coordinates": [ 31.640625, 19.476950 ] } }
{"year": "AD980",  "type": "Feature", "tippecanoe": { "layer": "2AFCA13BBDD81583915621388", "minzoom": 2, "maxzoom": 8 }, "properties": { "halo": 0.8, "title": "阿罗底亚王国", "fontsize": 12, "tyid": "304000", "oid": "103:1576922422874", "color": "#202020" }, "geometry": { "type": "Point", "coordinates": [ 33.310547, 13.752725 ] } }
{"year": "AD980",  "type": "Feature", "tippecanoe": { "layer": "2AFCA13BBDD81583915621388", "minzoom": 2, "maxzoom": 8 }, "properties": { "halo": 0.8, "title": "卢欧诸部", "fontsize": 12, "tyid": "304001", "oid": "103:1537435999558", "color": "#262626" }, "geometry": { "type": "Point", "coordinates": [ 31.640625, 5.878332 ] } }
{"year": "AD980",  "type": "Feature", "tippecanoe": { "layer": "2AFCA13BBDD81583915621388", "minzoom": 2, "maxzoom": 8 }, "properties": { "halo": 0.8, "title": "尼罗特人", "fontsize": 12, "tyid": "304000", "oid": "103:1537435999786", "color": "#202020" }, "geometry": { "type": "Point", "coordinates": [ 30.761719, 1.142502 ] } }
{"year": "AD980",  "type": "Feature", "tippecanoe": { "layer": "2AFCA13BBDD81583915621388", "minzoom": 2, "maxzoom": 8 }, "properties": { "halo": 0.8, "title": "贝扎人", "fontsize": 12, "tyid": "304001", "oid": "103:1535120173326", "color": "#262626" }, "geometry": { "type": "Point", "coordinates": [ 36.474609, 17.811456 ] } }
{"year": "AD980",  "type": "Feature", "tippecanoe": { "layer": "2AFCA13BBDD81583915621388", "minzoom": 2, "maxzoom": 8 }, "properties": { "halo": 0.8, "title": "雅库特人", "fontsize": 12, "tyid": "304000", "oid": "103:1535120173367", "color": "#202020" }, "geometry": { "type": "Point", "coordinates": [ 65.566406, 59.756395 ] } }
{"year": "AD980",  "type": "Feature", "tippecanoe": { "layer": "2AFCA13BBDD81583915621388", "minzoom": 2, "maxzoom": 8 }, "properties": { "halo": 0.8, "title": "乌古斯叶护国", "fontsize": 12, "tyid": "304001", "oid": "103:1537435999668", "color": "#262626" }, "geometry": { "type": "Point", "coordinates": [ 55.810547, 44.402392 ] } }
{"year": "AD980",  "type": "Feature", "tippecanoe": { "layer": "2AFCA13BBDD81583915621388", "minzoom": 2, "maxzoom": 8 }, "properties": { "halo": 0.8, "title": "巴什基尔人", "fontsize": 12, "tyid": "304000", "oid": "103:1535120173363", "color": "#202020" },