{"year": "BC112",  "type": "Feature", "tippecanoe": { "layer": "2AFCA6A460B81583918073943", "minzoom": 2, "maxzoom": 8 }, "properties": { "halo": 0.2, "title": "陶俑陶品窑址", "fontsize": 12, "offset": "[0,2]", "icon": "door", "oid": "103:1537436004264", "color": "#A44900", "tyid": "306002" }, "geometry": { "type": "Point", "coordinates": [ 108.808594, 34.379713 ] } }
{"year": "BC112",  "type": "Feature", "tippecanoe": { "layer": "2AFCA6A460B81583918073943", "minzoom": 2, "maxzoom": 8 }, "properties": { "halo": 0.2, "title": "冶铸遗址", "fontsize": 12, "offset": "[0,2]", "icon": "door", "oid": "103:1537436004266", "color": "#A44900", "tyid": "306002" }, "geometry": { "type": "Point", "coordinates": [ 108.808594, 34.379713 ] } }
{"year": "BC112",  "type": "Feature", "tippecanoe": { "layer": "2AFCA6A460B81583918073943", "minzoom": 2, "maxzoom": 8 }, "properties": { "halo": 0.2, "title": "雍门", "fontsize": 12, "offset": "[0,2]", "icon": "door", "oid": "103:1537436004260", "color": "#A44900", "tyid": "306000" }, "geometry": { "type": "Point", "coordinates": [ 108.808594, 34.379713 ] } }
{"year": "BC112",  "type": "Feature", "tippecanoe": { "layer": "2AFCA6A460B81583918073943", "minzoom": 2, "maxzoom": 8 }, "properties": { "halo": 0.2, "title": "直城门", "fontsize": 12, "offset": "[0,2]", "icon": "door", "oid": "103:1537436004259", "color": "#A44900", "tyid": "306000" }, "geometry": { "type": "Point", "coordinates": [ 108.808594, 34.379713 ] } }
{"year": "BC112",  "type": "Feature", "tippecanoe": { "layer": "2AFCA6A460B81583918073943", "minzoom": 2, "maxzoom": 8 }, "properties": { "halo": 0.2, "title": "南宫门（龙楼门）", "fontsize": 12, "offset": "[0,2]", "icon": "door", "oid": "103:1537436004271", "color": "#A44900", "tyid": "306001" }, "geometry": { "type": "Point", "coordinates": [ 108.808594, 34.379713 ] } }
{"year": "BC112",  "type": "Feature", "tippecanoe": { "layer": "2AFCA6A460B81583918073943", "minzoom": 2, "maxzoom": 8 }, "properties": { "halo": 0.2, "title": "作室门", "fontsize": 12, "offset": "[0,2]", "icon": "door", "oid": "103:1537436004273", "color": "#A44900", "tyid": "306001" }, "geometry": { "type": "Point", "coordinates": [ 108.808594, 34.379713 ] } }
{"year": "BC112",  "type": "Feature", "tippecanoe": { "layer": "2AFCA6A460B81583918073943", "minzoom": 2, "maxzoom": 8 }, "properties": { "halo": 0.2, "title": "厨城门", "fontsize": 12, "offset": "[0,2]", "icon": "door", "oid": "103:1537436004242", "color": "#A44900", "tyid": "306000" }, "geometry": { "type": "Point", "coordinates": [ 108.808594, 34.379713 ] } }
{"year": "BC112",  "type": "Feature", "tippecanoe": { "layer": "2AFCA6A460B81583918073943", "minzoom": 2, "maxzoom": 8 }, "properties": { "halo": 0.2, "title": "洛城门", "fontsize": 12, "offset": "[0,2]", "icon": "door", "oid": "103:1537436004244", "color": "#A44900", "tyid": "306000" }, "geometry": { "type": "Point", "coordinates": [ 108.808594, 34.379713 ] } }
{"year": "BC112",  "type": "Feature", "tippecanoe": { "layer": "2AFCA6A460B81583918073943", "minzoom": 2, "maxzoom": 8 }, "properties": { "halo": 0.2, "title": "横门", "fontsize": 12, "offset": "[0,2]", "icon": "door", "oid": "103:1537436004240", "color": "#A44900", "tyid": "306000" }, "geometry": { "type": "Point", "coordinates": [ 108.808594, 34.379713 ] } }
{"year": "BC112",  "type": "Feature", "tippecanoe": { "layer": "2AFCA6A460B81583918073943", "minzoom": 2, "maxzoom": 8 }, "properties": { "halo": 0.2, "title": "陶俑窑址", "fontsize": 12, "offset": "[0,2]", "icon": "door", "oid": "103:1537436004268", "color": "#A44900", "tyid": "306002" }, "geometry": { "type": "Point", "coordinates": [ 108.808594, 34.379713 ] } }
{"year": "BC112",  "type": "Feature", "tippecanoe": { "layer": "2AFCA6A460B81583918073943", "minzoom": 2, "maxzoom": 8 }, "properties": { "halo": 0.2, "title": "铸币遗址", "fontsize": 12, "offset": "[0,2]", "icon": "door", "oid": "103:1537436004269", "color": "#A44900", "tyid": "306002" }, "geometry": { "type": "Point", "coordinates": [ 108.808594, 34.379713 ] } }
{"year": "BC112",  "type": "Feature", "tippecanoe": { "layer": "2AFCA6A460B81583918073943", "minzoom": 2, "maxzoom": 8 }, "properties": { "halo": 0.2, "title": "北宫门", "fontsize": 12, "offset": "[0,2]", "icon": "door", "oid": "103:1537436004275", "color": "#A44900", "tyid": "306001" }, "geometry": { "type": "Point", "coordinates": [ 108.808594, 34.379713 ] } }
{"year": "BC112",  "type": "Feature", "tippecanoe": { "layer": "2AFCA6A460B81583918073943", "minzoom": 2, "maxzoom": 8 }, "properties": { "halo": 0.2, "title": "官窑", "fontsize": 12, "offset": "[0,2]", "icon": "door", "oid": "103:1537436004262", "color": "#A44900", "tyid": "306002" }, "geometry": { "type": "Point", "coordinates": [ 108.808594, 34.379713 ] } }
{"year": "BC112",  "type": "Feature", "tippecanoe": { "layer": "2AFCA6A460B81583918073943", "minzoom": 2, "maxzoom": 8 }, "properties": { "halo": 0.2, "title": "宣平门", "fontsize": 12, "offset": "[0,2]", "icon": "door", "oid": "103:1537436004246", "color": "#A44900", "tyid": "306000" }, "geometry": { "type": "Point", "coordinates": [ 108.896484, 34.379713 ] } }
{"year": "BC112",  "type": "Feature", "tippecanoe": { "layer": "2AFCA6A460B81583918073943", "minzoom": 2, "maxzoom": 8 }, "properties": { "halo": 0.2, "title": "清明门", "fontsize": 12, "offset": "[0,2]", "icon": "door", "oid": "103:1537436004248", "color": "#A44900", "tyid": "306000" }, "geometry": { "type": "Point", "coordinates": [ 108.896484, 34.379713 ] } }
{"year": "BC112",  "type": "Feature", "tippecanoe": { "layer": "2AFCA6A460B81583918073943", "minzoom": 2, "maxzoom": 8 }, "properties": { "halo": 0.2, "title": "霸城门", "fontsize": 12, "offset": "[0,2]", "icon": "door", "oid": "103:1537436004249", "color": "#A44900", "tyid": "306000" }, "geometry": { "type": "Point", "coordinates": [ 108.896484, 34.379713 ] } }
{"year": "BC112",  "type": "Feature", "tippecanoe": { "layer": "2AFCA6A460B81583918073943", "minzoom": 2, "maxzoom": 8 }, "properties": { "halo": 0.2, "title": "西宫门", "fontsize": 12, "offset": "[0,2]", "icon": "door", "oid": "103:1537436004279", "color": "#A44900", "tyid": "306001" }, "geometry": { "type": "Point", "coordinates": [ 108.808594, 34.307144 ] } }
{"year": "BC112",  "type": "Feature", "tippecanoe": { "layer": "2AFCA6A460B81583918073943", "minzoom": 2, "maxzoom": 8 }, "properties": { "halo": 0.2, "title": "章城门", "fontsize": 12, "offset": "[0,2]", "icon": "door", "oid": "103:1537436004257", "color": "#A44900", "tyid": "306000" }, "geometry": { "type": "Point", "coordinates": [ 108.808594, 34.307144 ] } }
{"year": "BC112",  "type": "Feature", "tippecanoe": { "layer": "2AFCA6A460B81583918073943", "minzoom": 2, "maxzoom": 8 }, "properties": { "halo": 0.2, "title": "南宫门", "fontsize": 12, "offset": "[0,2]", "icon": "door", "oid": "103:1537436004280", "color": "#A44900", "tyid": "306001" }, "geometry": { "type": "Point", "coordinates": [ 108.808594, 34.307144 ] } }
{"year": "BC112",  "type": "Feature", "tippecanoe": { "layer": "2AFCA6A460B81583918073943", "minzoom": 2, "maxzoom": 8 }, "properties": { "halo": 0.2, "title": "西安门", "fontsize": 12, "offset": "[0,2]", "icon": "door", "oid": "103:1537436004255", "color": "#A44900", "tyid": "306000" }, "geometry": { "type": "Point", "coordinates": [ 108.808594, 34.307144 ] } }
{"year": "BC112",  "type": "Feature", "tippecanoe": { "layer": "2AFCA6A460B81583918073943", "minzoom": 2, "maxzoom": 8 }, "properties": { "halo": 0.2, "title": "东宫门", "fontsize": 12, "offset": "[0,2]", "icon": "door", "oid": "103:1537436004277", "color": "#A44900", "tyid": "306001" }, "geometry": { "type": "Point", "coordinates": [ 108.808594, 34.307144 ] } }
{"year": "BC112",  "type": "Feature", "tippecanoe": { "layer": "2AFCA6A460B81583918073943", "minzoom": 2, "maxzoom": 8 }, "properties": { "halo": 0.2, "title": "安门", "fontsize": 12, "offset": "[0,2]", "icon": "door", "oid": "103:1537436004253", "color": "#A44900", "tyid": "306000" }, "geometry": { "type": "Point", "coordinates": [ 108.808594, 34.307144 ] } }
{"year": "BC112",  "type": "Feature", "tippecanoe": { "layer": "2AFCA6A460B81583918073943", "minzoom": 2, "maxzoom": 8 }, "properties": { "halo": 0.2, "title": "复盎门", "fontsize": 12, "offset": "[0,2]", "icon": "door", "oid": "103:1537436004251", "color": "#A44900", "tyid": "306000" }, "geometry": { "type": "Point", "coordinates": [ 108.896484, 34.307144 ] } }
{"year": "BC112",  "type": "Feature", "tippecanoe": { "layer": "2AFCA6A462781583918073946", "minzoom": 2, "maxzoom": 8 }, "properties": { "halo": 1.6, "title": "诺顿文化", "fontsize": 12, "tyid": "304002", "oid": "103:1576575138648", "color": "#0056E7" }, "geometry": { "type": "Point", "coordinates": [ -162.773438, 68.463800 ] } }
{"year": "BC112",  "type": "Feature", "tippecanoe": { "layer": "2AFCA6A462781583918073946", "minzoom": 2, "maxzoom": 8 }, "properties": { "halo": 1.6, "title": "图勒人", "fontsize": 12, "tyid": "304001", "oid": "103:1576575138493", "color": "#0056E7" }, "geometry": { "type": "Point", "coordinates": [ -132.626953, 68.879358 ] } }
{"year": "BC112",  "type": "Feature", "tippecanoe": { "layer": "2AFCA6A462781583918073946", "minzoom": 2, "maxzoom": 8 }, "properties": { "halo": 1.6, "title": "尤皮克人", "fontsize": 12, "tyid": "304001", "oid": "103:1576575138464", "color": "#0056E7" }, "geometry": { "type": "Point", "coordinates": [ -152.841797, 62.714462 ] } }
{"year": "BC112",  "type": "Feature", "tippecanoe": { "layer": "2AFCA6A462781583918073946", "minzoom": 2, "maxzoom": 8 }, "properties": { "halo": 1.6, "title": "因纽皮雅特人", "fontsize": 12, "tyid": "304001", "oid": "103:1576575138613", "color": "#0056E7" }, "geometry": { "type": "Point", "coordinates": [ -150.908203, 65.476508 ] } }
{"year": "BC112",  "type": "Feature", "tippecanoe": { "layer": "2AFCA6A462781583918073946", "minzoom": 2, "maxzoom": 8 }, "properties": { "halo": 1.6, "title": "阿留申人", "fontsize": 12, "tyid": "304001", "oid": "103:1576575138950", "color": "#0056E7" }, "geometry": { "type": "Point", "coordinates": [ -150.292969, 60.413852 ] } }
{"year": "BC112",  "type": "Feature", "tippecanoe": { "layer": "2AFCA6A462781583918073946", "minzoom": 2, "maxzoom": 8 }, "properties": { "halo": 1.6, "title": "因纽特人", "fontsize": 12, "tyid": "304001", "oid": "103:1576575138892", "color": "#0056E7" }, "geometry": { "type": "Point", "coordinates": [ -93.603516, 66.160511 ] } }
{"year": "BC112",  "type": "Feature", "tippecanoe": { "layer": "2AFCA6A462781583918073946", "minzoom": 2, "maxzoom": 8 }, "properties": { "halo": 1.6, "title": "泰萨勒页岩文化", "fontsize": 12, "tyid": "304002", "oid": "103:1576575138871", "color": "#0056E7" }, "geometry": { "type": "Point", "coordinates": [ -101.074219, 56.704506 ] } }
{"year": "BC112",  "type": "Feature", "tippecanoe": { "layer": "2AFCA6A462781583918073946", "minzoom": 2, "maxzoom": 8 }, "properties": { "halo": 1.6, "title": "坎贝尔文化", "fontsize": 12, "tyid": "304002", "oid": "103:1576575138857", "color": "#0056E7" }, "geometry": { "type": "Point", "coordinates": [ -121.289062, 38.685510 ] } }
{"year": "BC112",  "type": "Feature", "tippecanoe": { "layer": "2AFCA6A462781583918073946", "minzoom": 2, "maxzoom": 8 }, "properties": { "halo": 1.6, "title": "圣迪基图文化", "fontsize": 12, "tyid": "304002", "oid": "103:1576575138534", "color": "#0056E7" }, "geometry": { "type": "Point", "coordinates": [ -115.224609, 33.211116 ] } }
{"year": "BC112",  "type": "Feature", "tippecanoe": { "layer": "2AFCA6A462781583918073946", "minzoom": 2, "maxzoom": 8 }, "properties": { "halo": 1.6, "title": "独立二期文化", "fontsize": 12, "tyid": "304002", "oid": "103:1576575138470", "color": "#0056E7" }, "geometry": { "type": "Point", "coordinates": [ -41.484375, 81.984696 ] } }
{"year": "BC112",  "type": "Feature", "tippecanoe": { "layer": "2AFCA6A462781583918073946", "minzoom": 2, "maxzoom": 8 }, "properties": { "halo": 1.6, "title": "波茵特半岛文化", "fontsize": 12, "tyid": "304002", "oid": "103:1576575138933", "color": "#0056E7" }, "geometry": { "type": "Point", "coordinates": [ -76.816406, 45.336702 ] } }
{"year": "BC112",  "type": "Feature", "tippecanoe": { "layer": "2AFCA6A462781583918073946", "minzoom": 2, "maxzoom": 8 }, "properties": { "halo": 1.6, "title": "古海洋文化", "fontsize": 12, "tyid": "304002", "oid": "103:1576575138525", "color": "#0056E7" }, "geometry": { "type": "Point", "coordinates": [ -67.324219, 46.980252 ] } }
{"year": "BC112",  "type": "Feature", "tippecanoe": { "layer": "2AFCA6A462781583918073946", "minzoom": 2, "maxzoom": 8 }, "properties": { "halo": 1.6, "title": "凯尔特布立吞人", "fontsize": 12, "tyid": "304001", "oid": "103:1576575138558", "color": "#0056E7" }, "geometry": { "type": "Point", "coordinates": [ -1.845703, 52.589701 ] } }
{"year": "BC112",  "type": "Feature", "tippecanoe": { "layer": "2AFCA6A462781583918073946", "minzoom": 2, "maxzoom": 8 }, "properties": { "halo": 1.6, "title": "巴富尔人", "fontsize": 12, "tyid": "304001", "oid": "103:1576575138458", "color": "#0056E7" }, "geometry": { "type": "Point", "coordinates": [ -8.261719, 22.755921 ] } }
{"year": "BC112",  "type": "Feature", "tippecanoe": { "layer": "2AFCA6A462781583918073946", "minzoom": 2, "maxzoom": 8 }, "properties": { "halo": 1.6, "title": "索宁克人", "fontsize": 12, "tyid": "304001", "oid": "103:1576575138784", "color": "#0056E7" }, "geometry": { "type": "Point", "coordinates": [ -8.964844, 15.284185 ] } }
{"year": "BC112",  "type": "Feature", "tippecanoe": { "layer": "2AFCA6A462781583918073946", "minzoom": 2, "maxzoom": 8 }, "properties": { "halo": 1.6, "title": "曼德人", "fontsize": 12, "tyid": "304001", "oid": "103:1576575138664", "color": "#0056E7" }, "geometry": { "type": "Point", "coordinates": [ -7.558594, 8.146243 ] } }
{"year": "BC112",  "type": "Feature", "tippecanoe": { "layer": "2AFCA6A462781583918073946", "minzoom": 2, "maxzoom": 8 }, "properties": { "halo": 1.6, "title": "图皮人", "fontsize": 12, "tyid": "304001", "oid": "103:1576575138563", "color": "#0056E7" }, "geometry": { "type": "Point", "coordinates": [ -39.375000, -11.953349 ] } }
{"year": "BC112",  "type": "Feature", "tippecanoe": { "layer": "2AFCA6A462781583918073946", "minzoom": 2, "maxzoom": 8 }, "properties": { "halo": 1.6, "title": "萨米人", "fontsize": 12, "tyid": "304001", "oid": "103:1576575138638", "color": "#0056E7" }, "geometry": { "type": "Point", "coordinates": [ 25.400391, 68.171555 ] } }
{"year": "BC112",  "type": "Feature", "tippecanoe": { "layer": "2AFCA6A462781583918073946", "minzoom": 2, "maxzoom": 8 }, "properties": { "halo": 1.6, "title": "乌斯特波卢伊文化", "fontsize": 12, "tyid": "304002", "oid": "103:1576575138786", "color": "#0056E7" }, "geometry": { "type": "Point", "coordinates": [ 70.048828, 68.784144 ] } }
{"year": "BC112",  "type": "Feature", "tippecanoe": { "layer": "2AFCA6A462781583918073946", "minzoom": 2, "maxzoom": 8 }, "properties": { "halo": 1.6, "title": "原始日耳曼人", "fontsize": 12, "tyid": "304001", "oid": "103:1576575138565", "color": "#0056E7" }, "geometry": { "type": "Point", "coordinates": [ 8.437500, 60.500525 ] } }
{"year": "BC112",  "type": "Feature", "tippecanoe": { "layer": "2AFCA6A462781583918073946", "minzoom": 2, "maxzoom": 8 }, "properties": { "halo": 1.6, "title": "古瑞典人", "fontsize": 12, "tyid": "304001", "oid": "103:1576575138808", "color": "#0056E7" }, "geometry": { "type": "Point", "coordinates": [ 15.820312, 61.312452 ] } }
{"year": "BC112",  "type": "Feature", "tippecanoe": { "layer": "2AFCA6A462781583918073946", "minzoom": 2, "maxzoom": 8 }, "properties": { "halo": 1.6, "title": "贝尔盖人", "fontsize": 12, "tyid": "304001", "oid": "103:1576575138604", "color": "#0056E7" }, "geometry": { "type": "Point", "coordinates": [ 4.833984, 49.724479 ] } }
{"year": "BC112",  "type": "Feature", "tippecanoe": { "layer": "2AFCA6A462781583918073946", "minzoom": 2, "maxzoom": 8 }, "properties": { "halo": 1.6, "title": "山外高卢人", "fontsize": 12, "tyid": "304001", "oid": "103:1576575138595", "color": "#0056E7" }, "geometry": { "type": "Point", "coordinates": [ 1.318359, 46.860191 ] } }
{"year": "BC112",  "type": "Feature", "tippecanoe": { "layer": "2AFCA6A462781583918073946", "minzoom": 2, "maxzoom": 8 }, "properties": { "halo": 1.6, "title": "日耳曼人", "fontsize": 12, "tyid": "304001", "oid": "103:1576575138810", "color": "#0056E7" }, "geometry": { "type": "Point", "coordinates": [ 13.886719, 50.736455 ] } }
{"year": "BC112",  "type": "Feature", "tippecanoe": { "layer": "2AFCA6A462781583918073946", "minzoom": 2, "maxzoom": 8 }, "properties": { "halo": 1.6, "title": "凯尔特人", "fontsize": 12, "tyid": "304001", "oid": "103:1576575138437", "color": "#0056E7" }, "geometry": { "type": "Point", "coordinates": [ 16.787109, 47.576526 ] } }
{"year": "BC112",  "type": "Feature", "tippecanoe": { "layer": "2AFCA6A462781583918073946", "minzoom": 2, "maxzoom": 8 }, "properties": { "halo": 1.8, "title": "罗马共和国", "fontsize": 12, "tyid": "304000", "oid": "103:1576575138598", "color": "#0056E7" }, "geometry": { "type": "Point", "coordinates": [ 14.765625, 41.244772 ] } }
{"year": "BC112",  "type": "Feature", "tippecanoe": { "layer": "2AFCA6A462781583918073946", "minzoom": 2, "maxzoom": 8 }, "properties": { "halo": 1.6, "title": "迪亚科夫文化", "fontsize": 12, "tyid": "304002", "oid": "103:1576575138827", "color": "#0056E7" }, "geometry": { "type": "Point", "coordinates": [ 37.968750, 56.800878 ] } }
{"year": "BC112",  "type": "Feature", "tippecanoe": { "layer": "2AFCA6A462781583918073946", "minzoom": 2, "maxzoom": 8 }, "properties": { "halo": 1.6, "title": "第聂伯河与德维纳河文化", "fontsize": 12, "tyid": "304001", "oid": "103:1576575138566", "color": "#0056E7" }, "geometry": { "type": "Point", "coordinates": [ 31.816406, 55.677584 ] } }
{"year": "BC112",  "type": "Feature", "tippecanoe": { "layer": "2AFCA6A462781583918073946", "minzoom": 2, "maxzoom": 8 }, "properties": { "halo": 1.6, "title": "扎鲁宾西文化", "fontsize": 12, "tyid": "304002", "oid": "103:1576575138481", "color": "#0056E7" }, "geometry": { "type": "Point", "coordinates": [ 29.707031, 51.508742 ] } }
{"year": "BC112",  "type": "Feature", "tippecanoe": { "layer": "2AFCA6A462781583918073946", "minzoom": 2, "maxzoom": 8 }, "properties": { "halo": 1.6, "title": "戈罗杰茨文化", "fontsize": 12, "tyid": "304002", "oid": "103:1576575138903", "color": "#0056E7" }, "geometry": { "type": "Point", "coordinates": [ 44.384766, 54.521081 ] } }
{"year": "BC112",  "type": "Feature", "tippecanoe": { "layer": "2AFCA6A462781583918073946", "minzoom": 2, "maxzoom": 8 }, "properties": { "halo": 1.8, "title": "努米底亚王国", "fontsize": 12, "tyid": "304000", "oid": "103:1576575138710", "color": "#0056E7" }, "geometry": { "type": "Point", "coordinates": [ 6.328125, 36.031332 ] } }
{"year": "BC112",  "type": "Feature", "tippecanoe": { "layer": "2AFCA6A462781583918073946", "minzoom": 2, "maxzoom": 8 }, "properties": { "halo": 1.6, "title": "柏柏尔人诸部", "fontsize": 12, "tyid": "304001", "oid": "103:1576575138936", "color": "#0056E7" }, "geometry": { "type": "Point", "coordinates": [ 2.724609, 25.878994 ] } }
{"year": "BC112",  "type": "Feature", "tippecanoe": { "layer": "2AFCA6A462781583918073946", "minzoom": 2, "maxzoom": 8 }, "properties": { "halo": 1.6, "title": "加拉曼特人", "fontsize": 12, "tyid": "304001", "oid": "103:1576575138672", "color": "#0056E7" }, "geometry": { "type": "Point", "coordinates": [ 18.544922, 27.605671 ] } }
{"year": "BC112",  "type": "Feature", "tippecanoe": { "layer": "2AFCA6A462781583918073946", "minzoom": 2, "maxzoom": 8 }, "properties": { "halo": 1.6, "title": "诺克文化", "fontsize": 12, "tyid": "304002", "oid": "103:1576575138916", "color": "#0056E7" }, "geometry": { "type": "Point", "coordinates": [ 7.119141, 10.574222 ] } }
{"year": "BC112",  "type": "Feature", "tippecanoe": { "layer": "2AFCA6A462781583918073946", "minzoom": 2, "maxzoom": 8 }, "properties": { "halo": 1.6, "title": "萨奥文明", "fontsize": 12, "tyid": "304002", "oid": "103:1576575138880", "color": "#0056E7" }, "geometry": { "type": "Point", "coordinates": [ 14.941406, 13.239945 ] } }
{"year": "BC112",  "type": "Feature", "tippecanoe": { "layer": "2AFCA6A462781583918073946", "minzoom": 2, "maxzoom": 8 }, "properties": { "halo": 1.6, "title": "巴卡人", "fontsize": 12, "tyid": "304001", "oid": "103:1576575138782", "color": "#0056E7" }, "geometry": { "type": "Point", "coordinates": [ 18.105469, 5.441022 ] } }
{"year": "BC112",  "type": "Feature", "tippecanoe": { "layer": "2AFCA6A462781583918073946", "minzoom": 2, "maxzoom": 8 }, "properties": { "halo": 1.8, "title": "托勒密王国", "fontsize": 12, "tyid": "304000", "oid": "103:1576575138747", "color": "#0056E7" }, "geometry": { "type": "Point", "coordinates": [ 29.267578, 28.381735 ] } }
{"year": "BC112",  "type": "Feature", "tippecanoe": { "layer": "2AFCA6A462781583918073946", "minzoom": 2, "maxzoom": 8 }, "properties": { "halo": 1.8, "title": "塞琉古帝国", "fontsize": 12, "tyid": "304000", "oid": "103:1576575138439", "color": "#0056E7" }, "geometry": { "type": "Point", "coordinates": [ 38.232422, 34.957995 ] } }
{"year": "BC112",  "type": "Feature", "tippecanoe": { "layer": "2AFCA6A462781583918073946", "minzoom": 2, "maxzoom": 8 }, "properties": { "halo": 1.8, "title": "利黑延王国", "fontsize": 12, "tyid": "304000", "oid": "103:1576575138923", "color": "#0056E7" }, "geometry": { "type": "Point", "coordinates": [ 38.847656, 25.958045 ] } }
{"year": "BC112",  "type": "Feature", "tippecanoe": { "layer": "2AFCA6A462781583918073946", "minzoom": 2, "maxzoom": 8 }, "properties": { "halo": 1.6, "title": "北非贝都因人", "fontsize": 12, "tyid": "304001", "oid": "103:1576575138673", "color": "#0056E7" }, "geometry": { "type": "Point", "coordinates": [ 22.675781, 20.715015 ] } }
{"year": "BC112",  "type": "Feature", "tippecanoe": { "layer": "2AFCA6A462781583918073946", "minzoom": 2, "maxzoom": 8 }, "properties": { "halo": 1.6, "title": "富尔人", "fontsize": 12, "tyid": "304001", "oid": "103:1576575138676", "color": "#0056E7" }, "geometry": { "type": "Point", "coordinates": [ 26.015625, 12.983148 ] } }
{"year": "BC112",  "type": "Feature", "tippecanoe": { "layer": "2AFCA6A462781583918073946", "minzoom": 2, "maxzoom": 8 }, "properties": { "halo": 1.8, "title": "库施王国", "fontsize": 12, "tyid": "304000", "oid": "103:1576575138666", "color": "#0056E7" }, "geometry": { "type": "Point", "coordinates": [ 32.255859, 18.729502 ] } }
{"year": "BC112",  "type": "Feature", "tippecanoe": { "layer": "2AFCA6A462781583918073946", "minzoom": 2, "maxzoom": 8 }, "properties": { "halo": 1.6, "title": "卢欧诸部", "fontsize": 12, "tyid": "304001", "oid": "103:1576575138668", "color": "#0056E7" }, "geometry": { "type": "Point", "coordinates": [ 33.574219, 9.622414 ] } }
{"year": "BC112",  "type": "Feature", "tippecanoe": { "layer": "2AFCA6A462781583918073946", "minzoom": 2, "maxzoom": 8 }, "properties": { "halo": 1.6, "title": "尼罗特人", "fontsize": 12, "tyid": "304001", "oid": "103:1576575138670", "color": "#0056E7" }, "geometry": { "type": "Point", "coordinates": [ 33.310547, 1.230374 ] } }
{"year": "BC112",  "type": "Feature", "tippecanoe": { "layer": "2AFCA6A462781583918073946", "minzoom": 2, "maxzoom": 8 }, "properties": { "halo": 1.6, "title": "赛莫德人", "fontsize": 12, "tyid": "304001", "oid": "103:1576575138585", "color": "#0056E7" }, "geometry": { "type": "Point", "coordinates": [ 42.626953, 21.779905 ] } }
{"year": "BC112",  "type": "Feature", "tippecanoe": { "layer": "2AFCA6A462781583918073946", "minzoom": 2, "maxzoom": 8 }, "properties": { "halo": 1.6, "title": "库希特人", "fontsize": 12, "tyid": "304001", "oid": "103:1576575138444", "color": "#0056E7" }, "geometry": { "type": "Point", "coordinates": [ 44.121094, 4.477856 ] } }
{"year": "BC112",  "type": "Feature", "tippecanoe": { "layer": "2AFCA6A462781583918073946", "minzoom": 2, "maxzoom": 8 }, "properties": { "halo": 1.6, "title": "彼尔姆人", "fontsize": 12, "tyid": "304001", "oid": "103:1576575138679", "color": "#0056E7" }, "geometry": { "type": "Point", "coordinates": [ 55.371094, 57.844751 ] } }
{"year": "BC112",  "type": "Feature", "tippecanoe": { "layer": "2AFCA6A462781583918073946", "minzoom": 2, "maxzoom": 8 }, "properties": { "halo": 1.6, "title": "东马扎尔人", "fontsize": 12, "tyid": "304001", "oid": "103:1576575138909", "color": "#0056E7" }, "geometry": { "type": "Point", "coordinates": [ 59.238281, 61.396719 ] } }
{"year": "BC112",  "type": "Feature", "tippecanoe": { "layer": "2AFCA6A462781583918073946", "minzoom": 2, "maxzoom": 8 }, "properties": { "halo": 1.6, "title": "萨尔马提亚人", "fontsize": 12, "tyid": "304001", "oid": "103:1576575138833", "color": "#0056E7" }, "geometry": { "type": "Point", "coordinates": [ 45.439453, 50.958427 ] } }
{"year": "BC112",  "type": "Feature", "tippecanoe": { "layer": "2AFCA6A462781583918073946", "minzoom": 2, "maxzoom": 8 }, "properties": { "halo": 1.6, "title": "奥苏伊人", "fontsize": 12, "tyid": "304001", "oid": "103:1576575138799", "color": "#0056E7" }, "geometry": { "type": "Point", "coordinates": [ 45.527344, 45.398450 ] } }
{"year": "BC112",  "type": "Feature", "tippecanoe": { "layer": "2AFCA6A462781583918073946", "minzoom": 2, "maxzoom": 8 }, "properties": { "halo": 1.6, "title": "阿兰人", "fontsize": 12, "tyid": "304001", "oid": "103:1576575138797", "color": "#0056E7" }, "geometry": { "type": "Point", "coordinates": [ 54.580078, 47.457809 ] } }
{"year": "BC112",  "type": "Feature", "tippecanoe": { "layer": "2AFCA6A462781583918073946", "minzoom": 2, "maxzoom": 8 }, "properties": { "halo": 1.6, "title": "大益人", "fontsize": 12, "tyid": "304001", "oid": "103:1576575138657", "color": "#0056E7" }, "geometry": { "type": "Point", "coordinates": [ 54.228516, 42.423457 ] } }
{"year": "BC112",  "type": "Feature", "tippecanoe": { "layer": "2AFCA6A462781583918073946", "minzoom": 2, "maxzoom": 8 }, "properties": { "halo": 1.6, "title": "萨迦蒂安文化", "fontsize": 12, "tyid": "304002", "oid": "103:1576575138878", "color": "#0056E7" }, "geometry": { "type": "Point", "coordinates": [ 67.500000, 55.924586 ] } }
{"year": "BC112",  "type": "Feature", "tippecanoe": { "layer": "2AFCA6A462781583918073946", "minzoom": 2, "maxzoom": 8 }, "properties": { "halo": 1.6, "title": "乌戈尔人", "fontsize": 12, "tyid": "304001", "oid": "103:1576575138921", "color": "#0056E7" }, "geometry": { "type": "Point", "coordinates": [ 76.816406, 57.279043 ] } }
{"year": "BC112",  "type": "Feature", "tippecanoe": { "layer": "2AFCA6A462781583918073946", "minzoom": 2, "maxzoom": 8 }, "properties": { "halo": 1.6, "title": "库莱文化", "fontsize": 12, "tyid": "304002", "oid": "103:1576575138779", "color": "#0056E7" }, "geometry": { "type": "Point", "coordinates": [ 84.023438, 59.085739 ] } }
{"year": "BC112",  "type": "Feature", "tippecanoe": { "layer": "2AFCA6A462781583918073946", "minzoom": 2, "maxzoom": 8 }, "properties": { "halo": 1.6, "title": "康居国", "fontsize": 12, "tyid": "304001", "oid": "103:1576575138776", "color": "#0056E7" }, "geometry": { "type": "Point", "coordinates": [ 67.675781, 44.402392 ] } }
{"year": "BC112",  "type": "Feature", "tippecanoe": { "layer": "2AFCA6A462781583918073946", "minzoom": 2, "maxzoom": 8 }, "properties": { "halo": 1.8, "title": "乌孙国", "fontsize": 12, "tyid": "304000", "oid": "103:1576575138421", "color": "#0056E7" }, "geometry": { "type": "Point", "coordinates": [ 78.222656, 43.516689 ] } }
{"year": "BC112",  "type": "Feature", "tippecanoe": { "layer": "2AFCA6A462781583918073946", "minzoom": 2, "maxzoom": 8 }, "properties": { "halo": 1.8, "title": "帕提亚帝国", "fontsize": 12, "tyid": "304000", "oid": "103:1576575138582", "color": "#0056E7" }, "geometry": { "type": "Point", "coordinates": [ 54.843750, 32.694866 ] } }
{"year": "BC112",  "type": "Feature", "tippecanoe": { "layer": "2AFCA6A462781583918073946", "minzoom": 2, "maxzoom": 8 }, "properties": { "halo": 1.6, "title": "大月氏", "fontsize": 12, "tyid": "304001", "oid": "103:1576575138501", "color": "#0056E7" }, "geometry": { "type": "Point", "coordinates": [ 66.972656, 39.842286 ] } }
{"year": "BC112",  "type": "Feature", "tippecanoe": { "layer": "2AFCA6A462781583918073946", "minzoom": 2, "maxzoom": 8 }, "properties": { "halo": 1.6, "title": "印度-斯基泰王国", "fontsize": 12, "tyid": "304001", "oid": "103:1576575138826", "color": "#0056E7" }, "geometry": { "type": "Point", "coordinates": [ 64.511719, 35.317366 ] } }
{"year": "BC112",  "type": "Feature", "tippecanoe": { "layer": "2AFCA6A462781583918073946", "minzoom": 2, "maxzoom": 8 }, "properties": { "halo": 1.6, "title": "贝都因人", "fontsize": 12, "tyid": "304001", "oid": "103:1576575138578", "color": "#0056E7" }, "geometry": { "type": "Point", "coordinates": [ 48.164062, 21.698265 ] } }
{"year": "BC112",  "type": "Feature", "tippecanoe": { "layer": "2AFCA6A462781583918073946", "minzoom": 2, "maxzoom": 8 }, "properties": { "halo": 1.8, "title": "马克鲁比亚王国", "fontsize": 12, "tyid": "304000", "oid": "103:1576575138875", "color": "#0056E7" }, "geometry": { "type": "Point", "coordinates": [ 49.130859, 9.102097 ] } }
{"year": "BC112",  "type": "Feature", "tippecanoe": { "layer": "2AFCA6A462781583918073946", "minzoom": 2, "maxzoom": 8 }, "properties": { "halo": 1.8, "title": "大夏", "fontsize": 12, "tyid": "304000", "oid": "103:1576575138823", "color": "#0056E7" }, "geometry": { "type": "Point", "coordinates": [ 70.136719, 35.746512 ] } }
{"year": "BC112",  "type": "Feature", "tippecanoe": { "layer": "2AFCA6A462781583918073946", "minzoom": 2, "maxzoom": 8 }, "properties": { "halo": 1.8, "title": "印度-希腊王国", "fontsize": 12, "tyid": "304000", "oid": "103:1576575138822", "color": "#0056E7" }, "geometry": { "type": "Point", "coordinates": [ 72.421875, 27.215556 ] } }
{"year": "BC112",  "type": "Feature", "tippecanoe": { "layer": "2AFCA6A462781583918073946", "minzoom": 2, "maxzoom": 8 }, "properties": { "halo": 1.8, "title": "象雄王国", "fontsize": 12, "tyid": "304000", "oid": "103:1576575138397", "color": "#0056E7" }, "geometry": { "type": "Point", "coordinates": [ 82.177734, 31.428663 ] } }
{"year": "BC112",  "type": "Feature", "tippecanoe": { "layer": "2AFCA6A462781583918073946", "minzoom": 2, "maxzoom": 8 }, "properties": { "halo": 1.8, "title": "巽伽王朝", "fontsize": 12, "tyid": "304000", "oid": "103:1576575138713", "color": "#0056E7" }, "geometry": { "type": "Point", "coordinates": [ 85.253906, 23.966176 ] } }
{"year": "BC112",  "type": "Feature", "tippecanoe": { "layer": "2AFCA6A462781583918073946", "minzoom": 2, "maxzoom": 8 }, "properties": { "halo": 1.8, "title": "百乘王朝", "fontsize": 12, "tyid": "304000", "oid": "103:1576575138652", "color": "#0056E7" }, "geometry": { "type": "Point", "coordinates": [ 77.167969, 17.308688 ] } }
{"year": "BC112",  "type": "Feature", "tippecanoe": { "layer": "2AFCA6A462781583918073946", "minzoom": 2, "maxzoom": 8 }, "properties": { "halo": 1.6, "title": "匈奴", "fontsize": 12, "tyid": "304001", "oid": "103:1576575138569", "color": "#0056E7" }, "geometry": { "type": "Point", "coordinates": [ 98.085938, 48.283193 ] } }
{"year": "BC112",  "type": "Feature", "tippecanoe": { "layer": "2AFCA6A462781583918073946", "minzoom": 2, "maxzoom": 8 }, "properties": { "halo": 1.6, "title": "通古斯人", "fontsize": 12, "tyid": "304001", "oid": "103:1576575138830", "color": "#0056E7" }, "geometry": { "type": "Point", "coordinates": [ 116.718750, 60.759160 ] } }
{"year": "BC112",  "type": "Feature", "tippecanoe": { "layer": "2AFCA6A462781583918073946", "minzoom": 2, "maxzoom": 8 }, "properties": { "halo": 1.6, "title": "鲜卑", "fontsize": 12, "tyid": "304001", "oid": "103:1576575138753", "color": "#0056E7" }, "geometry": { "type": "Point", "coordinates": [ 124.277344, 51.672555 ] } }
{"year": "BC112",  "type": "Feature", "tippecanoe": { "layer": "2AFCA6A462781583918073946", "minzoom": 2, "maxzoom": 8 }, "properties": { "halo": 1.8, "title": "扶余", "fontsize": 12, "tyid": "304000", "oid": "103:1576575138524", "color": "#0056E7" }, "geometry": { "type": "Point", "coordinates": [ 124.892578, 45.274886 ] } }
{"year": "BC112",  "type": "Feature", "tippecanoe": { "layer": "2AFCA6A462781583918073946", "minzoom": 2, "maxzoom": 8 }, "properties": { "halo": 1.6, "title": "肃慎", "fontsize": 12, "tyid": "304001", "oid": "103:1576575138681", "color": "#0056E7" }, "geometry": { "type": "Point", "coordinates": [ 133.242188, 46.980252 ] } }
{"year": "BC112",  "type": "Feature", "tippecanoe": { "layer": "2AFCA6A462781583918073946", "minzoom": 2, "maxzoom": 8 }, "properties": { "halo": 1.6, "title": "苏毗", "fontsize": 12, "tyid": "304001", "oid": "103:1576575138408", "color": "#0056E7" }, "geometry": { "type": "Point", "coordinates": [ 93.603516, 33.137551 ] } }
{"year": "BC112",  "type": "Feature", "tippecanoe": { "layer": "2AFCA6A462781583918073946", "minzoom": 2, "maxzoom": 8 }, "properties": { "halo": 1.6, "title": "古羌人", "fontsize": 12, "tyid": "304001", "oid": "103:1576575138900", "color": "#0056E7" }, "geometry": { "type": "Point", "coordinates": [ 99.931641, 32.249974 ] } }
{"year": "BC112",  "type": "Feature", "tippecanoe": { "layer": "2AFCA6A462781583918073946", "minzoom": 2, "maxzoom": 8 }, "properties": { "halo": 1.8, "title": "哀牢国", "fontsize": 12, "tyid": "304000", "oid": "103:1576575138861", "color": "#0056E7" }, "geometry": { "type": "Point", "coordinates": [ 100.107422, 22.593726 ] } }
{"year": "BC112",  "type": "Feature", "tippecanoe": { "layer": "2AFCA6A462781583918073946", "minzoom": 2, "maxzoom": 8 }, "properties": { "halo": 1.8, "title": "西汉", "fontsize": 12, "tyid": "304000", "oid": "103:1576575138841", "color": "#0056E7" }, "geometry": { "type": "Point", "coordinates": [ 111.181641, 34.307144 ] } }
{"year": "BC112",  "type": "Feature", "tippecanoe": { "layer": "2AFCA6A462781583918073946", "minzoom": 2, "maxzoom": 8 }, "properties": { "halo": 1.6, "title": "南岛人", "fontsize": 12, "tyid": "304001", "oid": "103:1576575138946", "color": "#0056E7" }, "geometry": { "type": "Point", "coordinates": [ 114.169922, 0.878872 ] } }
{"year": "BC112",  "type": "Feature", "tippecanoe": { "layer": "2AFCA6A462781583918073946", "minzoom": 2, "maxzoom": 8 }, "properties": { "halo": 1.6, "title": "尤卡吉尔人", "fontsize": 12, "tyid": "304001", "oid": "103:1576575138659", "color": "#0056E7" }, "geometry": { "type": "Point", "coordinates": [ 155.214844, 64.886265 ] } }
{"year": "BC112",  "type": "Feature", "tippecanoe": { "layer": "2AFCA6A462781583918073946", "minzoom": 2, "maxzoom": 8 }, "properties": { "halo": 1.6, "title": "尼夫赫人", "fontsize": 12, "tyid": "304001", "oid": "103:1576575138553", "color": "#0056E7" }, "geometry": { "type": "Point", "coordinates": [ 138.779297, 51.890054 ] } }
{"year": "BC112",  "type": "Feature", "tippecanoe": { "layer": "2AFCA6A462781583918073946", "minzoom": 2, "maxzoom": 8 }, "properties": { "halo": 1.6, "title": "科里亚克族", "fontsize": 12, "tyid": "304001", "oid": "103:1576575138765", "color": "#0056E7" }, "geometry": { "type": "Point", "coordinates": [ 164.882812, 61.814664 ] } }
{"year": "BC112",  "type": "Feature", "tippecanoe": { "layer": "2AFCA6A462781583918073946", "minzoom": 2, "maxzoom": 8 }, "properties": { "halo": 1.6, "title": "楚科奇人", "fontsize": 12, "tyid": "304001", "oid": "103:1576575138948", "color": "#0056E7" }, "geometry": { "type": "Point", "coordinates": [ 171.035156, 66.443107 ] } }
{"year": "BC112",  "type": "Feature", "tippecanoe": { "layer": "2AFCA6A462781583918073946", "minzoom": 2, "maxzoom": 8 }, "properties": { "halo": 1.6, "title": "弥生人", "fontsize": 12, "tyid": "304001", "oid": "103:1576575138702", "color": "#0056E7" }, "geometry": { "type": "Point", "coordinates": [ 139.218750, 36.668419 ] } }
{"year": "BC112",  "type": "Feature", "tippecanoe": { "layer": "2AFCA6A462781583918073946", "minzoom": 2, "maxzoom": 8 }, "properties": { "halo": 1.6, "title": "西北班图人诸部", "fontsize": 12, "tyid": "304001", "oid": "103:1576575138919", "color": "#0056E7" }, "geometry": { "type": "Point", "coordinates": [ 20.742188, -0.527336 ] } }
{"year": "BC112",  "type": "Feature", "tippecanoe": { "layer": "2AFCA6A462781583918073946", "minzoom": 2, "maxzoom": 8 }, "properties": { "halo": 1.6, "title": "西班图人诸部", "fontsize": 12, "tyid": "304001", "oid": "103:1576575138440", "color": "#0056E7" }, "geometry": { "type": "Point", "coordinates": [ 21.972656, -8.494105 ] } }
{"year": "BC112",  "type": "Feature", "tippecanoe": { "layer": "2AFCA6A462781583918073946", "minzoom": 2, "maxzoom": 8 }, "properties": { "halo": 1.6, "title": "东班图人诸部", "fontsize": 12, "tyid": "304001", "oid": "103:1576575138388", "color": "#0056E7" }, "geometry": { "type": "Point", "coordinates": [ 35.683594, -9.795678 ] } }
{"year": "BC112",  "type": "Feature", "tippecanoe": { "layer": "2AFCA6A462781583918073946", "minzoom": 2, "maxzoom": 8 }, "properties": { "halo": 1.6, "title": "科伊桑人", "fontsize": 12, "tyid": "304001", "oid": "103:1576575138913", "color": "#0056E7" }, "geometry": { "type": "Point", "coordinates": [ 23.466797, -22.350076 ] } }
{"year": "BC112",  "type": "Feature", "tippecanoe": { "layer": "2AFCA6A462781583918073946", "minzoom": 2, "maxzoom": 8 }, "properties": { "halo": 1.6, "title": "澳洲原住民", "fontsize": 12, "tyid": "304001", "oid": "103:1576575138462", "color": "#0056E7" }, "geometry": { "type": "Point", "coordinates": [ 134.296875, -25.562265 ] } }
{"year": "BC112",  "type": "Feature", "tippecanoe": { "layer": "2AFCA6A462781583918073946", "minzoom": 2, "maxzoom": 8 }, "properties": { "halo": 1.6, "title": "巴布亚人", "fontsize": 12, "tyid": "304001", "oid": "103:1576575138396", "color": "#0056E7" }, "geometry": { "type": "Point", "coordinates": [ 140.888672, -5.266008 ] } }
{"year": "BC112",  "type": "Feature", "tippecanoe": { "layer": "2AFCA6A463581583918073947", "minzoom": 2, "maxzoom": 8 }, "properties": { "halo": 0.2, "title": "桂宫鸿宁殿", "fontsize": 12, "tyid": "700000", "centroid": "{\"type\":\"Point\",\"coordinates\":[108.849876765542,34.317520034]}", "icon": "", "oid": "103:1537436858818", "color": "#4B4040" }, "geometry": { "type": "Point", "coordinates": [ 108.808594, 34.379713 ] } }
{"year": "BC112",  "type": "Feature", "tippecanoe": { "layer": "2AFCA6A463581583918073947", "minzoom": 2, "maxzoom": 8 }, "properties": { "halo": 0.2, "title": "中央官署", "fontsize": 12, "tyid": "700001", "centroid": "{\"type\":\"Point\",\"coordinates\":[108.849241141665,34.30735276565]}", "icon": "", "oid": "103:1537436858822", "color": "#4B4040" }, "geometry": { "type": "Point", "coordinates": [ 108.808594, 34.379713 ] } }
{"year": "BC112",  "type": "Feature", "tippecanoe": { "layer": "2AFCA6A463581583918073947", "minzoom": 2, "maxzoom": 8 }, "properties": { "halo": 0.2, "title": "市楼", "fontsize": 12, "tyid": "700001", "centroid": "{\"type\":\"Point\",\"coordinates\":[108.857739061935,34.33834147775]}", "icon": "", "oid": "103:1537436858829", "color": "#4B4040" }, "geometry": { "type": "Point", "coordinates": [ 108.808594, 34.379713 ] } }
{"year": "BC112",  "type": "Feature", "tippecanoe": { "layer": "2AFCA6A463581583918073947", "minzoom": 2, "maxzoom": 8 }, "properties": { "halo": 0.2, "title": "未央宫石渠阁", "fontsize": 12, "tyid": "700000", "centroid": "{\"type\":\"Point\",\"coordinates\":[108.853095885871,34.3113056254]}", "icon": "", "oid": "103:1537436858826", "color": "#4B4040" }, "geometry": { "type": "Point", "coordinates": [ 108.808594, 34.379713 ] } }
{"year": "BC112",  "type": "Feature", "tippecanoe": { "layer": "2AFCA6A463581583918073947", "minzoom": 2, "maxzoom": 8 }, "properties": { "halo": 0.2, "title": "少府", "fontsize": 12, "tyid": "700001", "centroid": "{\"type\":\"Point\",\"coordinates\":[108.854996351157,34.3087250008]}", "icon": "", "oid": "103:1537436858820", "color": "#4B4040" }, "geometry": { "type": "Point", "coordinates": [ 108.808594, 34.379713 ] } }
{"year": "BC112",  "type": "Feature", "tippecanoe": { "layer": "2AFCA6A463581583918073947", "minzoom": 2, "maxzoom": 8 }, "properties": { "halo": 0.2, "title": "未央宫天禄阁", "fontsize": 12, "tyid": "700000", "centroid": "{\"type\":\"Point\",\"coordinates\":[108.8599889573,34.311881217]}", "icon": "", "oid": "103:1537436858828", "color": "#4B4040" }, "geometry": { "type": "Point", "coordinates": [ 108.808594, 34.379713 ] } }
{"year": "BC112",  "type": "Feature", "tippecanoe": { "layer": "2AFCA6A463581583918073947", "minzoom": 2, "maxzoom": 8 }, "properties": { "halo": 0.2, "title": "未央宫北阙", "fontsize": 12, "tyid": "700000", "centroid": "{\"type\":\"Point\",\"coordinates\":[108.861405398769,34.3130421644]}", "icon": "", "oid": "103:1537436858835", "color": "#4B4040" }, "geometry": { "type": "Point", "coordinates": [ 108.808594, 34.379713 ] } }
{"year": "BC112",  "type": "Feature", "tippecanoe": { "layer": "2AFCA6A463581583918073947", "minzoom": 2, "maxzoom": 8 }, "properties": { "halo": 0.2, "title": "未央宫椒房殿", "fontsize": 12, "tyid": "700000", "centroid": "{\"type\":\"Point\",\"coordinates\":[108.859853604369,34.3084095834]}", "icon": "", "oid": "103:1537436858824", "color": "#4B4040" }, "geometry": { "type": "Point", "coordinates": [ 108.808594, 34.379713 ] } }
{"year": "BC112",  "type": "Feature", "tippecanoe": { "layer": "2AFCA6A463581583918073947", "minzoom": 2, "maxzoom": 8 }, "properties": { "halo": 0.2, "title": "武库", "fontsize": 12, "tyid": "700001", "centroid": "{\"type\":\"Point\",\"coordinates\":[108.874223828257,34.31045123035]}", "icon": "", "oid": "103:1537436858815", "color": "#4B4040" }, "geometry": { "type": "Point", "coordinates": [ 108.808594, 34.379713 ] } }
{"year": "BC112",  "type": "Feature", "tippecanoe": { "layer": "2AFCA6A463581583918073947", "minzoom": 2, "maxzoom": 8 }, "properties": { "halo": 0.2, "title": "长乐宫宫殿", "fontsize": 12, "tyid": "700000", "centroid": "{\"type\":\"Point\",\"coordinates\":[108.888325125827,34.3170337217]}", "icon": "", "oid": "103:1537436858813", "color": "#4B4040" }, "geometry": { "type": "Point", "coordinates": [ 108.808594, 34.379713 ] } }
{"year": "BC112",  "type": "Feature", "tippecanoe": { "layer": "2AFCA6A463581583918073947", "minzoom": 2, "maxzoom": 8 }, "properties": { "halo": 0.2, "title": "未央宫渐台", "fontsize": 12, "tyid": "700000", "centroid": "{\"type\":\"Point\",\"coordinates\":[108.857909035289,34.3006176219]}", "icon": "", "oid": "103:1537436858831", "color": "#4B4040" }, "geometry": { "type": "Point", "coordinates": [ 108.808594, 34.307144 ] } }
{"year": "BC112",  "type": "Feature", "tippecanoe": { "layer": "2AFCA6A463581583918073947", "minzoom": 2, "maxzoom": 8 }, "properties": { "halo": 0.2, "title": "未央宫前殿", "fontsize": 12, "tyid": "700000", "centroid": "{\"type\":\"Point\",\"coordinates\":[108.859971115008,34.30463515345]}", "icon": "", "oid": "103:1537436858817", "color": "#4B4040" }, "geometry": { "type": "Point", "coordinates": [ 108.808594, 34.307144 ] } }
{"year": "BC112",  "type": "Feature", "tippecanoe": { "layer": "2AFCA6A463581583918073947", "minzoom": 2, "maxzoom": 8 }, "properties": { "halo": 0.2, "title": "未央宫东阙", "fontsize": 12, "tyid": "700000", "centroid": "{\"type\":\"Point\",\"coordinates\":[108.871330553845,34.3065184755]}", "icon": "", "oid": "103:1537436858833", "color": "#4B4040" }, "geometry": { "type": "Point", "coordinates": [ 108.808594, 34.307144 ] } }
{"year": "BC112",  "type": "Feature", "tippecanoe": { "layer": "2AFCA6A463581583918073947", "minzoom": 2, "maxzoom": 8 }, "properties": { "halo": 0.2, "title": "汉长安城高庙", "fontsize": 12, "tyid": "701000", "centroid": "{\"type\":\"Point\",\"coordinates\":[108.883409543396,34.2983725494]}", "icon": "", "oid": "103:1537436833743", "color": "#4B4040" }, "geometry": { "type": "Point", "coordinates": [ 108.808594, 34.307144 ] } }
{"year": "BC112",  "type": "Feature", "tippecanoe": { "layer": "2AFCA6A463581583918073947", "minzoom": 2, "maxzoom": 8 }, "properties": { "halo": 0.2, "title": "辟雍", "fontsize": 12, "tyid": "700000", "centroid": "{\"type\":\"Point\",\"coordinates\":[108.882314944725,34.27337515805]}", "icon": "", "oid": "103:1537436858837", "color": "#4B4040" }, "geometry": { "type": "Point", "coordinates": [ 108.808594, 34.307144 ] } }
{"year": "BC112",  "type": "Feature", "tippecanoe": { "layer": "2AFCA6A463581583918073947", "minzoom": 2, "maxzoom": 8 }, "properties": { "halo": 0.2, "title": "汉长安城宗庙", "fontsize": 12, "tyid": "701000", "centroid": "{\"type\":\"Point\",\"coordinates\":[108.869084695375,34.2697862898]}", "icon": "", "oid": "103:1537436833745", "color": "#4B4040" }, "geometry": { "type": "Point", "coordinates": [ 108.808594, 34.307144 ] } }
{"year": "BC112",  "type": "Feature", "tippecanoe": { "layer": "2AFCA6A464381583918073948", "minzoom": 2, "maxzoom": 8 }, "properties": { "halo": 1.6, "title": "拉霍亚文化", "fontsize": 12, "tyid": "304002", "oid": "103:1576575138650", "color": "#0056E7" }, "geometry": { "type": "Point", "coordinates": [ -118.916016, 34.597042 ] } }
{"year": "BC112",  "type": "Feature", "tippecanoe": { "layer": "2AFCA6A464381583918073948", "minzoom": 2, "maxzoom": 8 }, "properties": { "halo": 1.6, "title": "古普韦布洛人", "fontsize": 12, "tyid": "304001", "oid": "103:1576575138445", "color": "#0056E7" }, "geometry": { "type": "Point", "coordinates": [ -110.126953, 36.949892 ] } }
{"year": "BC112",  "type": "Feature", "tippecanoe": { "layer": "2AFCA6A464381583918073948", "minzoom": 2, "maxzoom": 8 }, "properties": { "halo": 1.6, "title": "奇瓦瓦文化", "fontsize": 12, "tyid": "304002", "oid": "103:1576575138917", "color": "#0056E7" }, "geometry": { "type": "Point", "coordinates": [ -107.226562, 32.768800 ] } }
{"year": "BC112",  "type": "Feature", "tippecanoe": { "layer": "2AFCA6A464381583918073948", "minzoom": 2, "maxzoom": 8 }, "properties": { "halo": 1.6, "title": "奥沙拉文化", "fontsize": 12, "tyid": "304002", "oid": "103:1576575138499", "color": "#0056E7" }, "geometry": { "type": "Point", "coordinates": [ -106.699219, 37.579413 ] } }
{"year": "BC112",  "type": "Feature", "tippecanoe": { "layer": "2AFCA6A464381583918073948", "minzoom": 2, "maxzoom": 8 }, "properties": { "halo": 1.6, "title": "瓜伊库拉人", "fontsize": 12, "tyid": "304001", "oid": "103:1576575138639", "color": "#0056E7" }, "geometry": { "type": "Point", "coordinates": [ -111.269531, 24.846565 ] } }
{"year": "BC112",  "type": "Feature", "tippecanoe": { "layer": "2AFCA6A464381583918073948", "minzoom": 2, "maxzoom": 8 }, "properties": { "halo": 1.6, "title": "哈瓦那霍普韦尔文化", "fontsize": 12, "tyid": "304002", "oid": "103:1576575138898", "color": "#0056E7" }, "geometry": { "type": "Point", "coordinates": [ -90.966797, 40.580585 ] } }
{"year": "BC112",  "type": "Feature", "tippecanoe": { "layer": "2AFCA6A464381583918073948", "minzoom": 2, "maxzoom": 8 }, "properties": { "halo": 1.6, "title": "喀多语密西西比文化", "fontsize": 12, "tyid": "304002", "oid": "103:1576575138853", "color": "#0056E7" }, "geometry": { "type": "Point", "coordinates": [ -94.482422, 35.960223 ] } }
{"year": "BC112",  "type": "Feature", "tippecanoe": { "layer": "2AFCA6A464381583918073948", "minzoom": 2, "maxzoom": 8 }, "properties": { "halo": 1.6, "title": "福切马里尼文化", "fontsize": 12, "tyid": "304002", "oid": "103:1576575138611", "color": "#0056E7" }, "geometry": { "type": "Point", "coordinates": [ -94.306641, 33.358062 ] } }
{"year": "BC112",  "type": "Feature", "tippecanoe": { "layer": "2AFCA6A464381583918073948", "minzoom": 2, "maxzoom": 8 }, "properties": { "halo": 1.6, "title": "楚拉时期", "fontsize": 12, "tyid": "304002", "oid": "103:1576575138663", "color": "#0056E7" }, "geometry": { "type": "Point", "coordinates": [ -92.021484, 32.472695 ] } }
{"year": "BC112",  "type": "Feature", "tippecanoe": { "layer": "2AFCA6A464381583918073948", "minzoom": 2, "maxzoom": 8 }, "properties": { "halo": 1.6, "title": "华斯塔克文明", "fontsize": 12, "tyid": "304002", "oid": "103:1576575138537", "color": "#0056E7" }, "geometry": { "type": "Point", "coordinates": [ -98.613281, 22.105999 ] } }
{"year": "BC112",  "type": "Feature", "tippecanoe": { "layer": "2AFCA6A464381583918073948", "minzoom": 2, "maxzoom": 8 }, "properties": { "halo": 1.6, "title": "奇蒂玛察人", "fontsize": 12, "tyid": "304001", "oid": "103:1576575138816", "color": "#0056E7" }, "geometry": { "type": "Point", "coordinates": [ -91.054688, 30.372875 ] } }
{"year": "BC112",  "type": "Feature", "tippecanoe": { "layer": "2AFCA6A464381583918073948", "minzoom": 2, "maxzoom": 8 }, "properties": { "halo": 1.6, "title": "特切特兰文化", "fontsize": 12, "tyid": "304002", "oid": "103:1576575138869", "color": "#0056E7" }, "geometry": { "type": "Point", "coordinates": [ -104.326172, 20.468189 ] } }
{"year": "BC112",  "type": "Feature", "tippecanoe": { "layer": "2AFCA6A464381583918073948", "minzoom": 2, "maxzoom": 8 }, "properties": { "halo": 1.6, "title": "萨波特克文明", "fontsize": 12, "tyid": "304002", "oid": "103:1576575138451", "color": "#0056E7" }, "geometry": { "type": "Point", "coordinates": [ -96.064453, 16.636192 ] } }
{"year": "BC112",  "type": "Feature", "tippecanoe": { "layer": "2AFCA6A464381583918073948", "minzoom": 2, "maxzoom": 8 }, "properties": { "halo": 1.6, "title": "古德尔文化", "fontsize": 12, "tyid": "304002", "oid": "103:1576575138838", "color": "#0056E7" }, "geometry": { "type": "Point", "coordinates": [ -85.869141, 43.133061 ] } }
{"year": "BC112",  "type": "Feature", "tippecanoe": { "layer": "2AFCA6A464381583918073948", "minzoom": 2, "maxzoom": 8 }, "properties": { "halo": 1.6, "title": "索根文化", "fontsize": 12, "tyid": "304002", "oid": "103:1576575138839", "color": "#0056E7" }, "geometry": { "type": "Point", "coordinates": [ -81.298828, 43.707594 ] } }
{"year": "BC112",  "type": "Feature", "tippecanoe": { "layer": "2AFCA6A464381583918073948", "minzoom": 2, "maxzoom": 8 }, "properties": { "halo": 1.6, "title": "俄亥俄霍普韦尔文化", "fontsize": 12, "tyid": "304002", "oid": "103:1576575138576", "color": "#0056E7" }, "geometry": { "type": "Point", "coordinates": [ -83.056641, 39.504041 ] } }
{"year": "BC112",  "type": "Feature", "tippecanoe": { "layer": "2AFCA6A464381583918073948", "minzoom": 2, "maxzoom": 8 }, "properties": { "halo": 1.6, "title": "德普特福德文化", "fontsize": 12, "tyid": "304002", "oid": "103:1576575138653", "color": "#0056E7" }, "geometry": { "type": "Point", "coordinates": [ -79.628906, 33.358062 ] } }
{"year": "BC112",  "type": "Feature", "tippecanoe": { "layer": "2AFCA6A464381583918073948", "minzoom": 2, "maxzoom": 8 }, "properties": { "halo": 1.6, "title": "切格文特文化", "fontsize": 12, "tyid": "304002", "oid": "103:1576575138605", "color": "#0056E7" }, "geometry": { "type": "Point", "coordinates": [ -89.208984, 30.600094 ] } }
{"year": "BC112",  "type": "Feature", "tippecanoe": { "layer": "2AFCA6A464381583918073948", "minzoom": 2, "maxzoom": 8 }, "properties": { "halo": 1.6, "title": "玛雅文明[前古典时期]", "fontsize": 12, "tyid": "304002", "oid": "103:1576575138392", "color": "#0056E7" }, "geometry": { "type": "Point", "coordinates": [ -89.296875, 17.056785 ] } }
{"year": "BC112",  "type": "Feature", "tippecanoe": { "layer": "2AFCA6A464381583918073948", "minzoom": 2, "maxzoom": 8 }, "properties": { "halo": 1.6, "title": "兹努文化", "fontsize": 12, "tyid": "304002", "oid": "103:1576575138574", "color": "#0056E7" }, "geometry": { "type": "Point", "coordinates": [ -75.585938, 8.581021 ] } }
{"year": "BC112",  "type": "Feature", "tippecanoe": { "layer": "2AFCA6A464381583918073948", "minzoom": 2, "maxzoom": 8 }, "properties": { "halo": 1.6, "title": "拉托利塔文化", "fontsize": 12, "tyid": "304002", "oid": "103:1576575138737", "color": "#0056E7" }, "geometry": { "type": "Point", "coordinates": [ -78.046875, 1.757537 ] } }
{"year": "BC112",  "type": "Feature", "tippecanoe": { "layer": "2AFCA6A464381583918073948", "minzoom": 2, "maxzoom": 8 }, "properties": { "halo": 1.6, "title": "埃雷拉时期", "fontsize": 12, "tyid": "304002", "oid": "103:1576575138895", "color": "#0056E7" }, "geometry": { "type": "Point", "coordinates": [ -73.476562, 5.441022 ] } }
{"year": "BC112",  "type": "Feature", "tippecanoe": { "layer": "2AFCA6A464381583918073948", "minzoom": 2, "maxzoom": 8 }, "properties": { "halo": 1.6, "title": "伊奈里人", "fontsize": 12, "tyid": "304001", "oid": "103:1576575138774", "color": "#0056E7" }, "geometry": { "type": "Point", "coordinates": [ -61.787109, 8.754795 ] } }
{"year": "BC112",  "type": "Feature", "tippecanoe": { "layer": "2AFCA6A464381583918073948", "minzoom": 2, "maxzoom": 8 }, "properties": { "halo": 1.6, "title": "皮克特人", "fontsize": 12, "tyid": "304001", "oid": "103:1576575138850", "color": "#0056E7" }, "geometry": { "type": "Point", "coordinates": [ -4.042969, 56.704506 ] } }
{"year": "BC112",  "type": "Feature", "tippecanoe": { "layer": "2AFCA6A464381583918073948", "minzoom": 2, "maxzoom": 8 }, "properties": { "halo": 1.6, "title": "盖尔人", "fontsize": 12, "tyid": "304001", "oid": "103:1576575138793", "color": "#0056E7" }, "geometry": { "type": "Point", "coordinates": [ -7.910156, 53.435719 ] } }
{"year": "BC112",  "type": "Feature", "tippecanoe": { "layer": "2AFCA6A464381583918073948", "minzoom": 2, "maxzoom": 8 }, "properties": { "halo": 1.6, "title": "阿奎丹人", "fontsize": 12, "tyid": "304001", "oid": "103:1576575138494", "color": "#0056E7" }, "geometry": { "type": "Point", "coordinates": [ -0.175781, 43.834527 ] } }
{"year": "BC112",  "type": "Feature", "tippecanoe": { "layer": "2AFCA6A464381583918073948", "minzoom": 2, "maxzoom": 8 }, "properties": { "halo": 1.8, "title": "毛里塔尼亚王国", "fontsize": 12, "tyid": "304000", "oid": "103:1576575138459", "color": "#0056E7" }, "geometry": { "type": "Point", "coordinates": [ -5.009766, 34.524661 ] } }
{"year": "BC112",  "type": "Feature", "tippecanoe": { "layer": "2AFCA6A464381583918073948", "minzoom": 2, "maxzoom": 8 }, "properties": { "halo": 1.6, "title": "杰内-杰诺文化一期", "fontsize": 12, "tyid": "304002", "oid": "103:1576575138425", "color": "#0056E7" }, "geometry": { "type": "Point", "coordinates": [ -4.482422, 13.667338 ] } }
{"year": "BC112",  "type": "Feature", "tippecanoe": { "layer": "2AFCA6A464381583918073948", "minzoom": 2, "maxzoom": 8 }, "properties": { "halo": 1.6, "title": "楚真文化", "fontsize": 12, "tyid": "304002", "oid": "103:1576575138642", "color": "#0056E7" }, "geometry": { "type": "Point", "coordinates": [ -70.576172, -16.299051 ] } }
{"year": "BC112",  "type": "Feature", "tippecanoe": { "layer": "2AFCA6A464381583918073948", "minzoom": 2, "maxzoom": 8 }, "properties": { "halo": 1.6, "title": "普卡拉文化", "fontsize": 12, "tyid": "304002", "oid": "103:1576575138832", "color": "#0056E7" }, "geometry": { "type": "Point", "coordinates": [ -69.873047, -14.604847 ] } }
{"year": "BC112",  "type": "Feature", "tippecanoe": { "layer": "2AFCA6A464381583918073948", "minzoom": 2, "maxzoom": 8 }, "properties": { "halo": 1.6, "title": "艾马拉人", "fontsize": 12, "tyid": "304001", "oid": "103:1576575138836", "color": "#0056E7" }, "geometry": { "type": "Point", "coordinates": [ -68.291016, -17.224758 ] } }
{"year": "BC112",  "type": "Feature", "tippecanoe": { "layer": "2AFCA6A464381583918073948", "minzoom": 2, "maxzoom": 8 }, "properties": { "halo": 1.6, "title": "昌戈人", "fontsize": 12, "tyid": "304001", "oid": "103:1576575138523", "color": "#0056E7" }, "geometry": { "type": "Point", "coordinates": [ -69.960938, -23.725012 ] } }
{"year": "BC112",  "type": "Feature", "tippecanoe": { "layer": "2AFCA6A464381583918073948", "minzoom": 2, "maxzoom": 8 }, "properties": { "halo": 1.6, "title": "阿拉米托文化", "fontsize": 12, "tyid": "304002", "oid": "103:1576575138557", "color": "#0056E7" }, "geometry": { "type": "Point", "coordinates": [ -67.851562, -26.588527 ] } }
{"year": "BC112",  "type": "Feature", "tippecanoe": { "layer": "2AFCA6A464381583918073948", "minzoom": 2, "maxzoom": 8 }, "properties": { "halo": 1.6, "title": "埃尔莫尔文化", "fontsize": 12, "tyid": "304002", "oid": "103:1576575138616", "color": "#0056E7" }, "geometry": { "type": "Point", "coordinates": [ -70.927734, -30.675715 ] } }
{"year": "BC112",  "type": "Feature", "tippecanoe": { "layer": "2AFCA6A464381583918073948", "minzoom": 2, "maxzoom": 8 }, "properties": { "halo": 1.6, "title": "安西尔塔文化", "fontsize": 12, "tyid": "304002", "oid": "103:1576575138449", "color": "#0056E7" }, "geometry": { "type": "Point", "coordinates": [ -68.818359, -31.353637 ] } }
{"year": "BC112",  "type": "Feature", "tippecanoe": { "layer": "2AFCA6A464381583918073948", "minzoom": 2, "maxzoom": 8 }, "properties": { "halo": 1.6, "title": "巴托文化", "fontsize": 12, "tyid": "304002", "oid": "103:1576575138873", "color": "#0056E7" }, "geometry": { "type": "Point", "coordinates": [ -70.839844, -33.431441 ] } }
{"year": "BC112",  "type": "Feature", "tippecanoe": { "layer": "2AFCA6A464381583918073948", "minzoom": 2, "maxzoom": 8 }, "properties": { "halo": 1.6, "title": "马普切人", "fontsize": 12, "tyid": "304001", "oid": "103:1576575138814", "color": "#0056E7" }, "geometry": { "type": "Point", "coordinates": [ -71.455078, -38.959409 ] } }
{"year": "BC112",  "type": "Feature", "tippecanoe": { "layer": "2AFCA6A464381583918073948", "minzoom": 2, "maxzoom": 8 }, "properties": { "halo": 1.6, "title": "希德拉里卡文化", "fontsize": 12, "tyid": "304002", "oid": "103:1576575138789", "color": "#0056E7" }, "geometry": { "type": "Point", "coordinates": [ -66.005859, -12.297068 ] } }
{"year": "BC112",  "type": "Feature", "tippecanoe": { "layer": "2AFCA6A464381583918073948", "minzoom": 2, "maxzoom": 8 }, "properties": { "halo": 1.6, "title": "摩克索人", "fontsize": 12, "tyid": "304001", "oid": "103:1576575138645", "color": "#0056E7" }, "geometry": { "type": "Point", "coordinates": [ -65.830078, -13.923404 ] } }
{"year": "BC112",  "type": "Feature", "tippecanoe": { "layer": "2AFCA6A464381583918073948", "minzoom": 2, "maxzoom": 8 }, "properties": { "halo": 1.6, "title": "瓦卡拉尼文化", "fontsize": 12, "tyid": "304002", "oid": "103:1576575138785", "color": "#0056E7" }, "geometry": { "type": "Point", "coordinates": [ -64.951172, -17.811456 ] } }
{"year": "BC112",  "type": "Feature", "tippecanoe": { "layer": "2AFCA6A464381583918073948", "minzoom": 2, "maxzoom": 8 }, "properties": { "halo": 1.6, "title": "康多拉瓦西文化", "fontsize": 12, "tyid": "304002", "oid": "103:1576575138818", "color": "#0056E7" }, "geometry": { "type": "Point", "coordinates": [ -66.708984, -27.293689 ] } }
{"year": "BC112",  "type": "Feature", "tippecanoe": { "layer": "2AFCA6A464381583918073948", "minzoom": 2, "maxzoom": 8 }, "properties": { "halo": 1.6, "title": "拉斯梅塞德斯文化", "fontsize": 12, "tyid": "304002", "oid": "103:1576575138643", "color": "#0056E7" }, "geometry": { "type": "Point", "coordinates": [ -63.808594, -27.605671 ] } }
{"year": "BC112",  "type": "Feature", "tippecanoe": { "layer": "2AFCA6A464381583918073948", "minzoom": 2, "maxzoom": 8 }, "properties": { "halo": 1.6, "title": "查鲁亚人", "fontsize": 12, "tyid": "304001", "oid": "103:1576575138614", "color": "#0056E7" }, "geometry": { "type": "Point", "coordinates": [ -57.128906, -32.398516 ] } }
{"year": "BC112",  "type": "Feature", "tippecanoe": { "layer": "2AFCA6A464381583918073948", "minzoom": 2, "maxzoom": 8 }, "properties": { "halo": 1.6, "title": "特胡尔切人", "fontsize": 12, "tyid": "304001", "oid": "103:1576575138897", "color": "#0056E7" }, "geometry": { "type": "Point", "coordinates": [ -70.751953, -50.176898 ] } }
{"year": "BC112",  "type": "Feature", "tippecanoe": { "layer": "2AFCA6A464381583918073948", "minzoom": 2, "maxzoom": 8 }, "properties": { "halo": 1.6, "title": "塞尔克南人", "fontsize": 12, "tyid": "304001", "oid": "103:1576575138521", "color": "#0056E7" }, "geometry": { "type": "Point", "coordinates": [ -68.378906, -53.696706 ] } }
{"year": "BC112",  "type": "Feature", "tippecanoe": { "layer": "2AFCA6A464381583918073948", "minzoom": 2, "maxzoom": 8 }, "properties": { "halo": 1.6, "title": "雅干人", "fontsize": 12, "tyid": "304001", "oid": "103:1576575138944", "color": "#0056E7" }, "geometry": { "type": "Point", "coordinates": [ -68.730469, -54.572062 ] } }
{"year": "BC112",  "type": "Feature", "tippecanoe": { "layer": "2AFCA6A464381583918073948", "minzoom": 2, "maxzoom": 8 }, "properties": { "halo": 1.6, "title": "朱特人", "fontsize": 12, "tyid": "304001", "oid": "103:1576575138740", "color": "#0056E7" }, "geometry": { "type": "Point", "coordinates": [ 9.316406, 56.267761 ] } }
{"year": "BC112",  "type": "Feature", "tippecanoe": { "layer": "2AFCA6A464381583918073948", "minzoom": 2, "maxzoom": 8 }, "properties": { "halo": 1.6, "title": "耶阿特人", "fontsize": 12, "tyid": "304001", "oid": "103:1576575138433", "color": "#0056E7" }, "geometry": { "type": "Point", "coordinates": [ 13.623047, 57.891497 ] } }
{"year": "BC112",  "type": "Feature", "tippecanoe": { "layer": "2AFCA6A464381583918073948", "minzoom": 2, "maxzoom": 8 }, "properties": { "halo": 1.6, "title": "弗里西人", "fontsize": 12, "tyid": "304001", "oid": "103:1576575138813", "color": "#0056E7" }, "geometry": { "type": "Point", "coordinates": [ 6.503906, 52.696361 ] } }
{"year": "BC112",  "type": "Feature", "tippecanoe": { "layer": "2AFCA6A464381583918073948", "minzoom": 2, "maxzoom": 8 }, "properties": { "halo": 1.6, "title": "乔西人", "fontsize": 12, "tyid": "304001", "oid": "103:1576575138509", "color": "#0056E7" }, "geometry": { "type": "Point", "coordinates": [ 8.701172, 53.067627 ] } }
{"year": "BC112",  "type": "Feature", "tippecanoe": { "layer": "2AFCA6A464381583918073948", "minzoom": 2, "maxzoom": 8 }, "properties": { "halo": 1.6, "title": "萨克森人", "fontsize": 12, "tyid": "304001", "oid": "103:1576575138510", "color": "#0056E7" }, "geometry": { "type": "Point", "coordinates": [ 9.843750, 54.007769 ] } }
{"year": "BC112",  "type": "Feature", "tippecanoe": { "layer": "2AFCA6A464381583918073948", "minzoom": 2, "maxzoom": 8 }, "properties": { "halo": 1.6, "title": "赫尔维蒂人", "fontsize": 12, "tyid": "304001", "oid": "103:1576575138599", "color": "#0056E7" }, "geometry": { "type": "Point", "coordinates": [ 7.207031, 46.920255 ] } }
{"year": "BC112",  "type": "Feature", "tippecanoe": { "layer": "2AFCA6A464381583918073948", "minzoom": 2, "maxzoom": 8 }, "properties": { "halo": 1.6, "title": "蕾蒂人", "fontsize": 12, "tyid": "304001", "oid": "103:1576575138742", "color": "#0056E7" }, "geometry": { "type": "Point", "coordinates": [ 11.074219, 46.860191 ] } }
{"year": "BC112",  "type": "Feature", "tippecanoe": { "layer": "2AFCA6A464381583918073948", "minzoom": 2, "maxzoom": 8 }, "properties": { "halo": 1.6, "title": "利古里亚人", "fontsize": 12, "tyid": "304001", "oid": "103:1576575138711", "color": "#0056E7" }, "geometry": { "type": "Point", "coordinates": [ 6.591797, 43.897892 ] } }
{"year": "BC112",  "type": "Feature", "tippecanoe": { "layer": "2AFCA6A464381583918073948", "minzoom": 2, "maxzoom": 8 }, "properties": { "halo": 1.6, "title": "伦巴第人", "fontsize": 12, "tyid": "304001", "oid": "103:1576575138508", "color": "#0056E7" }, "geometry": { "type": "Point", "coordinates": [ 12.656250, 53.540307 ] } }
{"year": "BC112",  "type": "Feature", "tippecanoe": { "layer": "2AFCA6A464381583918073948", "minzoom": 2, "maxzoom": 8 }, "properties": { "halo": 1.6, "title": "西波罗的海坟文化", "fontsize": 12, "tyid": "304002", "oid": "103:1576575138924", "color": "#0056E7" }, "geometry": { "type": "Point", "coordinates": [ 21.708984, 54.213861 ] } }
{"year": "BC112",  "type": "Feature", "tippecanoe": { "layer": "2AFCA6A464381583918073948", "minzoom": 2, "maxzoom": 8 }, "properties": { "halo": 1.6, "title": "汪达尔人", "fontsize": 12, "tyid": "304001", "oid": "103:1576575138479", "color": "#0056E7" }, "geometry": { "type": "Point", "coordinates": [ 19.423828, 50.625073 ] } }
{"year": "BC112",  "type": "Feature", "tippecanoe": { "layer": "2AFCA6A464381583918073948", "minzoom": 2, "maxzoom": 8 }, "properties": { "halo": 1.6, "title": "伊利里亚人", "fontsize": 12, "tyid": "304001", "oid": "103:1576575138514", "color": "#0056E7" }, "geometry": { "type": "Point", "coordinates": [ 18.017578, 44.339565 ] } }
{"year": "BC112",  "type": "Feature", "tippecanoe": { "layer": "2AFCA6A464381583918073948", "minzoom": 2, "maxzoom": 8 }, "properties": { "halo": 1.6, "title": "潘诺尼亚人", "fontsize": 12, "tyid": "304001", "oid": "103:1576575138486", "color": "#0056E7" }, "geometry": { "type": "Point", "coordinates": [ 19.775391, 44.590467 ] } }
{"year": "BC112",  "type": "Feature", "tippecanoe": { "layer": "2AFCA6A464381583918073948", "minzoom": 2, "maxzoom": 8 }, "properties": { "halo": 1.8, "title": "达尔达尼亚王国", "fontsize": 12, "tyid": "304000", "oid": "103:1576575138527", "color": "#0056E7" }, "geometry": { "type": "Point", "coordinates": [ 21.445312, 42.617791 ] } }
{"year": "BC112",  "type": "Feature", "tippecanoe": { "layer": "2AFCA6A464381583918073948", "minzoom": 2, "maxzoom": 8 }, "properties": { "halo": 1.6, "title": "古爱沙尼亚人", "fontsize": 12, "tyid": "304001", "oid": "103:1576575138768", "color": "#0056E7" }, "geometry": { "type": "Point", "coordinates": [ 25.576172, 58.995311 ] } }
{"year": "BC112",  "type": "Feature", "tippecanoe": { "layer": "2AFCA6A464381583918073948", "minzoom": 2, "maxzoom": 8 }, "properties": { "halo": 1.6, "title": "利沃尼亚人", "fontsize": 12, "tyid": "304001", "oid": "103:1576575138497", "color": "#0056E7" }, "geometry": { "type": "Point", "coordinates": [ 25.839844, 58.170702 ] } }
{"year": "BC112",  "type": "Feature", "tippecanoe": { "layer": "2AFCA6A464381583918073948", "minzoom": 2, "maxzoom": 8 }, "properties": { "halo": 1.6, "title": "古拉脱维亚人", "fontsize": 12, "tyid": "304001", "oid": "103:1576575138561", "color": "#0056E7" }, "geometry": { "type": "Point", "coordinates": [ 26.630859, 56.848972 ] } }
{"year": "BC112",  "type": "Feature", "tippecanoe": { "layer": "2AFCA6A464381583918073948", "minzoom": 2, "maxzoom": 8 }, "properties": { "halo": 1.6, "title": "沃茨人", "fontsize": 12, "tyid": "304001", "oid": "103:1576575138516", "color": "#0056E7" }, "geometry": { "type": "Point", "coordinates": [ 29.794922, 59.040555 ] } }
{"year": "BC112",  "type": "Feature", "tippecanoe": { "layer": "2AFCA6A464381583918073948", "minzoom": 2, "maxzoom": 8 }, "properties": { "halo": 1.6, "title": "阴影陶文化", "fontsize": 12, "tyid": "304002", "oid": "103:1576575138846", "color": "#0056E7" }, "geometry": { "type": "Point", "coordinates": [ 24.785156, 55.627996 ] } }
{"year": "BC112",  "type": "Feature", "tippecanoe": { "layer": "2AFCA6A464381583918073948", "minzoom": 2, "maxzoom": 8 }, "properties": { "halo": 1.6, "title": "米洛格勒文化", "fontsize": 12, "tyid": "304002", "oid": "103:1576575138930", "color": "#0056E7" }, "geometry": { "type": "Point", "coordinates": [ 26.718750, 53.435719 ] } }
{"year": "BC112",  "type": "Feature", "tippecanoe": { "layer": "2AFCA6A464381583918073948", "minzoom": 2, "maxzoom": 8 }, "properties": { "halo": 1.6, "title": "维内德人", "fontsize": 12, "tyid": "304001", "oid": "103:1576575138484", "color": "#0056E7" }, "geometry": { "type": "Point", "coordinates": [ 24.257812, 51.069017 ] } }
{"year": "BC112",  "type": "Feature", "tippecanoe": { "layer": "2AFCA6A464381583918073948", "minzoom": 2, "maxzoom": 8 }, "properties": { "halo": 1.6, "title": "普热沃斯克文化", "fontsize": 12, "tyid": "304002", "oid": "103:1576575138476", "color": "#0056E7" }, "geometry": { "type": "Point", "coordinates": [ 23.203125, 49.152970 ] } }
{"year": "BC112",  "type": "Feature", "tippecanoe": { "layer": "2AFCA6A464381583918073948", "minzoom": 2, "maxzoom": 8 }, "properties": { "halo": 1.8, "title": "达契亚王国", "fontsize": 12, "tyid": "304000", "oid": "103:1576575138427", "color": "#0056E7" }, "geometry": { "type": "Point", "coordinates": [ 23.642578, 46.679594 ] } }
{"year": "BC112",  "type": "Feature", "tippecanoe": { "layer": "2AFCA6A464381583918073948", "minzoom": 2, "maxzoom": 8 }, "properties": { "halo": 1.6, "title": "达契亚人", "fontsize": 12, "tyid": "304001", "oid": "103:1576575138602", "color": "#0056E7" }, "geometry": { "type": "Point", "coordinates": [ 27.070312, 46.437857 ] } }
{"year": "BC112",  "type": "Feature", "tippecanoe": { "layer": "2AFCA6A464381583918073948", "minzoom": 2, "maxzoom": 8 }, "properties": { "halo": 1.8, "title": "奥德里西亚王国", "fontsize": 12, "tyid": "304000", "oid": "103:1576575138488", "color": "#0056E7" }, "geometry": { "type": "Point", "coordinates": [ 25.224609, 42.553080 ] } }
{"year": "BC112",  "type": "Feature", "tippecanoe": { "layer": "2AFCA6A464381583918073948", "minzoom": 2, "maxzoom": 8 }, "properties": { "halo": 1.6, "title": "盖塔人", "fontsize": 12, "tyid": "304001", "oid": "103:1576575138891", "color": "#0056E7" }, "geometry": { "type": "Point", "coordinates": [ 27.246094, 44.213710 ] } }
{"year": "BC112",  "type": "Feature", "tippecanoe": { "layer": "2AFCA6A464381583918073948", "minzoom": 2, "maxzoom": 8 }, "properties": { "halo": 1.6, "title": "巴斯塔奈人", "fontsize": 12, "tyid": "304001", "oid": "103:1576575138890", "color": "#0056E7" }, "geometry": { "type": "Point", "coordinates": [ 29.179688, 47.338823 ] } }
{"year": "BC112",  "type": "Feature", "tippecanoe": { "layer": "2AFCA6A464381583918073948", "minzoom": 2, "maxzoom": 8 }, "properties": { "halo": 1.6, "title": "埃阿热格人", "fontsize": 12, "tyid": "304001", "oid": "103:1576575138842", "color": "#0056E7" }, "geometry": { "type": "Point", "coordinates": [ 31.728516, 48.574790 ] } }
{"year": "BC112",  "type": "Feature", "tippecanoe": { "layer": "2AFCA6A464381583918073948", "minzoom": 2, "maxzoom": 8 }, "properties": { "halo": 1.6, "title": "上奥卡文化", "fontsize": 12, "tyid": "304002", "oid": "103:1576575138572", "color": "#0056E7" }, "geometry": { "type": "Point", "coordinates": [ 37.353516, 53.540307 ] } }
{"year": "BC112",  "type": "Feature", "tippecanoe": { "layer": "2AFCA6A464381583918073948", "minzoom": 2, "maxzoom": 8 }, "properties": { "halo": 1.6, "title": "尤赫诺夫文化", "fontsize": 12, "tyid": "304002", "oid": "103:1576575138467", "color": "#0056E7" }, "geometry": { "type": "Point", "coordinates": [ 34.716797, 52.214339 ] } }
{"year": "BC112",  "type": "Feature", "tippecanoe": { "layer": "2AFCA6A464381583918073948", "minzoom": 2, "maxzoom": 8 }, "properties": { "halo": 1.6, "title": "斯基泰人", "fontsize": 12, "tyid": "304001", "oid": "103:1576575138517", "color": "#0056E7" }, "geometry": { "type": "Point", "coordinates": [ 34.013672, 46.255847 ] } }
{"year": "BC112",  "type": "Feature", "tippecanoe": { "layer": "2AFCA6A464381583918073948", "minzoom": 2, "maxzoom": 8 }, "properties": { "halo": 1.6, "title": "梅田人", "fontsize": 12, "tyid": "304001", "oid": "103:1576575138807", "color": "#0056E7" }, "geometry": { "type": "Point", "coordinates": [ 38.144531, 45.644768 ] } }
{"year": "BC112",  "type": "Feature", "tippecanoe": { "layer": "2AFCA6A464381583918073948", "minzoom": 2, "maxzoom": 8 }, "properties": { "halo": 1.6, "title": "西雷斯人", "fontsize": 12, "tyid": "304001", "oid": "103:1576575138911", "color": "#0056E7" }, "geometry": { "type": "Point", "coordinates": [ 41.396484, 45.644768 ] } }
{"year": "BC112",  "type": "Feature", "tippecanoe": { "layer": "2AFCA6A464381583918073948", "minzoom": 2, "maxzoom": 8 }, "properties": { "halo": 1.6, "title": "切尔克斯人", "fontsize": 12, "tyid": "304001", "oid": "103:1576575138804", "color": "#0056E7" }, "geometry": { "type": "Point", "coordinates": [ 42.011719, 43.707594 ] } }
{"year": "BC112",  "type": "Feature", "tippecanoe": { "layer": "2AFCA6A464381583918073948", "minzoom": 2, "maxzoom": 8 }, "properties": { "halo": 1.8, "title": "科尔基斯王国", "fontsize": 12, "tyid": "304000", "oid": "103:1576575138999", "color": "#0056E7" }, "geometry": { "type": "Point", "coordinates": [ 42.451172, 42.617791 ] } }
{"year": "BC112",  "type": "Feature", "tippecanoe": { "layer": "2AFCA6A464381583918073948", "minzoom": 2, "maxzoom": 8 }, "properties": { "halo": 1.8, "title": "高加索伊比利亚王国", "fontsize": 12, "tyid": "304000", "oid": "103:1576575138492", "color": "#0056E7" }, "geometry": { "type": "Point", "coordinates": [ 43.769531, 41.574361 ] } }
{"year": "BC112",  "type": "Feature", "tippecanoe": { "layer": "2AFCA6A464381583918073948", "minzoom": 2, "maxzoom": 8 }, "properties": { "halo": 1.8, "title": "加拉曼特王国", "fontsize": 12, "tyid": "304000", "oid": "103:1576575138889", "color": "#0056E7" }, "geometry": { "type": "Point", "coordinates": [ 13.886719, 26.902477 ] } }
{"year": "BC112",  "type": "Feature", "tippecanoe": { "layer": "2AFCA6A464381583918073948", "minzoom": 2, "maxzoom": 8 }, "properties": { "halo": 1.6, "title": "约鲁巴人", "fontsize": 12, "tyid": "304001", "oid": "103:1576575138882", "color": "#0056E7" }, "geometry": { "type": "Point", "coordinates": [ 3.427734, 7.536764 ] } }
{"year": "BC112",  "type": "Feature", "tippecanoe": { "layer": "2AFCA6A464381583918073948", "minzoom": 2, "maxzoom": 8 }, "properties": { "halo": 1.6, "title": "伊博人", "fontsize": 12, "tyid": "304001", "oid": "103:1576575138662", "color": "#0056E7" }, "geometry": { "type": "Point", "coordinates": [ 7.998047, 5.965754 ] } }
{"year": "BC112",  "type": "Feature", "tippecanoe": { "layer": "2AFCA6A464381583918073948", "minzoom": 2, "maxzoom": 8 }, "properties": { "halo": 1.8, "title": "比提尼亚王国", "fontsize": 12, "tyid": "304000", "oid": "103:1576575138490", "color": "#0056E7" }, "geometry": { "type": "Point", "coordinates": [ 30.410156, 40.713956 ] } }
{"year": "BC112",  "type": "Feature", "tippecanoe": { "layer": "2AFCA6A464381583918073948", "minzoom": 2, "maxzoom": 8 }, "properties": { "halo": 1.6, "title": "加拉提亚高卢人", "fontsize": 12, "tyid": "304001", "oid": "103:1576575138447", "color": "#0056E7" }, "geometry": { "type": "Point", "coordinates": [ 32.871094, 39.977120 ] } }
{"year": "BC112",  "type": "Feature", "tippecanoe": { "layer": "2AFCA6A464381583918073948", "minzoom": 2, "maxzoom": 8 }, "properties": { "halo": 1.8, "title": "卡帕多西亚王国", "fontsize": 12, "tyid": "304000", "oid": "103:1576575138450", "color": "#0056E7" }, "geometry": { "type": "Point", "coordinates": [ 35.332031, 38.548165 ] } }
{"year": "BC112",  "type": "Feature", "tippecanoe": { "layer": "2AFCA6A464381583918073948", "minzoom": 2, "maxzoom": 8 }, "properties": { "halo": 1.8, "title": "本都王国", "fontsize": 12, "tyid": "304000", "oid": "103:1576575138940", "color": "#0056E7" }, "geometry": { "type": "Point", "coordinates": [ 37.880859, 40.111689 ] } }
{"year": "BC112",  "type": "Feature", "tippecanoe": { "layer": "2AFCA6A464381583918073948", "minzoom": 2, "maxzoom": 8 }, "properties": { "halo": 1.6, "title": "塔努联盟", "fontsize": 12, "tyid": "304002", "oid": "103:1576575138675", "color": "#0056E7" }, "geometry": { "type": "Point", "coordinates": [ 39.199219, 32.694866 ] } }
{"year": "BC112",  "type": "Feature", "tippecanoe": { "layer": "2AFCA6A464381583918073948", "minzoom": 2, "maxzoom": 8 }, "properties": { "halo": 1.8, "title": "索芬尼王国", "fontsize": 12, "tyid": "304000", "oid": "103:1576575138474", "color": "#0056E7" }, "geometry": { "type": "Point", "coordinates": [ 39.902344, 38.203655 ] } }
{"year": "BC112",  "type": "Feature", "tippecanoe": { "layer": "2AFCA6A464381583918073948", "minzoom": 2, "maxzoom": 8 }, "properties": { "halo": 1.8, "title": "亚美尼亚阿泰克西德王朝", "fontsize": 12, "tyid": "304000", "oid": "103:1576575138505", "color": "#0056E7" }, "geometry": { "type": "Point", "coordinates": [ 43.769531, 39.436193 ] } }
{"year": "BC112",  "type": "Feature", "tippecanoe": { "layer": "2AFCA6A464381583918073948", "minzoom": 2, "maxzoom": 8 }, "properties": { "halo": 1.8, "title": "科杜内王国", "fontsize": 12, "tyid": "304000", "oid": "103:1576575138518", "color": "#0056E7" }, "geometry": { "type": "Point", "coordinates": [ 42.802734, 37.230328 ] } }
{"year": "BC112",  "type": "Feature", "tippecanoe": { "layer": "2AFCA6A464381583918073948", "minzoom": 2, "maxzoom": 8 }, "properties": { "halo": 1.8, "title": "奥斯若恩王国", "fontsize": 12, "tyid": "304000", "oid": "103:1576575138820", "color": "#0056E7" }, "geometry": { "type": "Point", "coordinates": [ 40.341797, 36.244273 ] } }
{"year": "BC112",  "type": "Feature", "tippecanoe": { "layer": "2AFCA6A464381583918073948", "minzoom": 2, "maxzoom": 8 }, "properties": { "halo": 1.8, "title": "纳巴泰王国", "fontsize": 12, "tyid": "304000", "oid": "103:1576575138636", "color": "#0056E7" }, "geometry": { "type": "Point", "coordinates": [ 35.595703, 29.840644 ] } }
{"year": "BC112",  "type": "Feature", "tippecanoe": { "layer": "2AFCA6A464381583918073948", "minzoom": 2, "maxzoom": 8 }, "properties": { "halo": 1.6, "title": "布雷米耶国", "fontsize": 12, "tyid": "304001", "oid": "103:1576575138935", "color": "#0056E7" }, "geometry": { "type": "Point", "coordinates": [ 34.980469, 21.453069 ] } }
{"year": "BC112",  "type": "Feature", "tippecanoe": { "layer": "2AFCA6A464381583918073948", "minzoom": 2, "maxzoom": 8 }, "properties": { "halo": 1.6, "title": "贝扎人", "fontsize": 12, "tyid": "304001", "oid": "103:1576575138748", "color": "#0056E7" }, "geometry": { "type": "Point", "coordinates": [ 35.771484, 16.383391 ] } }
{"year": "BC112",  "type": "Feature", "tippecanoe": { "layer": "2AFCA6A464381583918073948", "minzoom": 2, "maxzoom": 8 }, "properties": { "halo": 1.6, "title": "原始-阿克苏姆铁器时代", "fontsize": 12, "tyid": "304002", "oid": "103:1576575138876", "color": "#0056E7" }, "geometry": { "type": "Point", "coordinates": [ 39.111328, 13.923404 ] } }
{"year": "BC112",  "type": "Feature", "tippecanoe": { "layer": "2AFCA6A464381583918073948", "minzoom": 2, "maxzoom": 8 }, "properties": { "halo": 1.6, "title": "肯德部落", "fontsize": 12, "tyid": "304001", "oid": "103:1576575138584", "color": "#0056E7" }, "geometry": { "type": "Point", "coordinates": [ 44.912109, 19.642588 ] } }
{"year": "BC112",  "type": "Feature", "tippecanoe": { "layer": "2AFCA6A464381583918073948", "minzoom": 2, "maxzoom": 8 }, "properties": { "halo": 1.6, "title": "高原诸小王国", "fontsize": 12, "tyid": "304002", "oid": "103:1576575138677", "color": "#0056E7" }, "geometry": { "type": "Point", "coordinates": [ 40.781250, 14.179186 ] } }
{"year": "BC112",  "type": "Feature", "tippecanoe": { "layer": "2AFCA6A464381583918073948", "minzoom": 2, "maxzoom": 8 }, "properties": { "halo": 1.8, "title": "迈因王国", "fontsize": 12, "tyid": "304000", "oid": "103:1576575138794", "color": "#0056E7" }, "geometry": { "type": "Point", "coordinates": [ 44.824219, 16.299051 ] } }
{"year": "BC112",  "type": "Feature", "tippecanoe": { "layer": "2AFCA6A464381583918073948", "minzoom": 2, "maxzoom": 8 }, "properties": { "halo": 1.8, "title": "塞巴王国", "fontsize": 12, "tyid": "304000", "oid": "103:1576575138887", "color": "#0056E7" }, "geometry": { "type": "Point", "coordinates": [ 43.857422, 14.604847 ] } }
{"year": "BC112",  "type": "Feature", "tippecanoe": { "layer": "2AFCA6A464381583918073948", "minzoom": 2, "maxzoom": 8 }, "properties": { "halo": 1.6, "title": "派诺博尔斯基文化", "fontsize": 12, "tyid": "304002", "oid": "103:1576575138723", "color": "#0056E7" }, "geometry": { "type": "Point", "coordinates": [ 50.449219, 56.897004 ] } }
{"year": "BC112",  "type": "Feature", "tippecanoe": { "layer": "2AFCA6A464381583918073948", "minzoom": 2, "maxzoom": 8 }, "properties": { "halo": 1.6, "title": "塞迦人", "fontsize": 12, "tyid": "304001", "oid": "103:1576575138655", "color": "#0056E7" }, "geometry": { "type": "Point", "coordinates": [ 57.656250, 42.553080 ] } }
{"year": "BC112",  "type": "Feature", "tippecanoe": { "layer": "2AFCA6A464381583918073948", "minzoom": 2, "maxzoom": 8 }, "properties": { "halo": 1.8, "title": "驩潜国", "fontsize": 12, "tyid": "304000", "oid": "103:1576575138718", "color": "#0056E7" }, "geometry": { "type": "Point", "coordinates": [ 59.765625, 42.488302 ] } }
{"year": "BC112",  "type": "Feature", "tippecanoe": { "layer": "2AFCA6A464381583918073948", "minzoom": 2, "maxzoom": 8 }, "properties": { "halo": 1.8, "title": "龟兹国", "fontsize": 12, "tyid": "304000", "oid": "103:1576575138975", "color": "#0056E7" }, "geometry": { "type": "Point", "coordinates": [ 82.792969, 41.442726 ] } }
{"year": "BC112",  "type": "Feature", "tippecanoe": { "layer": "2AFCA6A464381583918073948", "minzoom": 2, "maxzoom": 8 }, "properties": { "halo": 1.8, "title": "车师国", "fontsize": 12, "tyid": "304000", "oid": "103:1576575138956", "color": "#0056E7" }, "geometry": { "type": "Point", "coordinates": [ 89.560547, 43.197167 ] } }
{"year": "BC112",  "type": "Feature", "tippecanoe": { "layer": "2AFCA6A464381583918073948", "minzoom": 2, "maxzoom": 8 }, "properties": { "halo": 1.8, "title": "危须国", "fontsize": 12, "tyid": "304000", "oid": "103:1576575138974", "color": "#0056E7" }, "geometry": { "type": "Point", "coordinates": [ 87.363281, 42.423457 ] } }
{"year": "BC112",  "type": "Feature", "tippecanoe": { "layer": "2AFCA6A464381583918073948", "minzoom": 2, "maxzoom": 8 }, "properties": { "halo": 1.8, "title": "墨山国", "fontsize": 12, "tyid": "304000", "oid": "103:1576575138986", "color": "#0056E7" }, "geometry": { "type": "Point", "coordinates": [ 88.593750, 41.310824 ] } }
{"year": "BC112",  "type": "Feature", "tippecanoe": { "layer": "2AFCA6A464381583918073948", "minzoom": 2, "maxzoom": 8 }, "properties": { "halo": 1.8, "title": "阿特罗帕特尼王国", "fontsize": 12, "tyid": "304000", "oid": "103:1576575138825", "color": "#0056E7" }, "geometry": { "type": "Point", "coordinates": [ 47.724609, 38.203655 ] } }
{"year": "BC112",  "type": "Feature", "tippecanoe": { "layer": "2AFCA6A464381583918073948", "minzoom": 2, "maxzoom": 8 }, "properties": { "halo": 1.6, "title": "高加索阿尔巴尼亚人", "fontsize": 12, "tyid": "304001", "oid": "103:1576575138555", "color": "#0056E7" }, "geometry": { "type": "Point", "coordinates": [ 48.164062, 40.647304 ] } }
{"year": "BC112",  "type": "Feature", "tippecanoe": { "layer": "2AFCA6A464381583918073948", "minzoom": 2, "maxzoom": 8 }, "properties": { "halo": 1.8, "title": "查拉塞尼王国", "fontsize": 12, "tyid": "304000", "oid": "103:1576575138962", "color": "#0056E7" }, "geometry": { "type": "Point", "coordinates": [ 46.933594, 31.428663 ] } }
{"year": "BC112",  "type": "Feature", "tippecanoe": { "layer": "2AFCA6A464381583918073948", "minzoom": 2, "maxzoom": 8 }, "properties": { "halo": 1.8, "title": "埃利迈斯王国", "fontsize": 12, "tyid": "304000", "oid": "103:1576575138958", "color": "#0056E7" }, "geometry": { "type": "Point", "coordinates": [ 49.130859, 31.653381 ] } }
{"year": "BC112",  "type": "Feature", "tippecanoe": { "layer": "2AFCA6A464381583918073948", "minzoom": 2, "maxzoom": 8 }, "properties": { "halo": 1.6, "title": "格拉", "fontsize": 12, "tyid": "304002", "oid": "103:1576575138587", "color": "#0056E7" }, "geometry": { "type": "Point", "coordinates": [ 49.218750, 26.902477 ] } }
{"year": "BC112",  "type": "Feature", "tippecanoe": { "layer": "2AFCA6A464381583918073948", "minzoom": 2, "maxzoom": 8 }, "properties": { "halo": 1.8, "title": "波西斯", "fontsize": 12, "tyid": "304000", "oid": "103:1576575138963", "color": "#0056E7" }, "geometry": { "type": "Point", "coordinates": [ 53.173828, 28.998532 ] } }
{"year": "BC112",  "type": "Feature", "tippecanoe": { "layer": "2AFCA6A464381583918073948", "minzoom": 2, "maxzoom": 8 }, "properties": { "halo": 1.8, "title": "奥桑王国", "fontsize": 12, "tyid": "304000", "oid": "103:1576575139006", "color": "#0056E7" }, "geometry": { "type": "Point", "coordinates": [ 45.966797, 13.923404 ] } }
{"year": "BC112",  "type": "Feature", "tippecanoe": { "layer": "2AFCA6A464381583918073948", "minzoom": 2, "maxzoom": 8 }, "properties": { "halo": 1.8, "title": "阿德王国", "fontsize": 12, "tyid": "304000", "oid": "103:1576575138580", "color": "#0056E7" }, "geometry": { "type": "Point", "coordinates": [ 52.382812, 18.646245 ] } }
{"year": "BC112",  "type": "Feature", "tippecanoe": { "layer": "2AFCA6A464381583918073948", "minzoom": 2, "maxzoom": 8 }, "properties": { "halo": 1.8, "title": "哈德拉毛王国", "fontsize": 12, "tyid": "304000", "oid": "103:1576575138586", "color": "#0056E7" }, "geometry": { "type": "Point", "coordinates": [ 50.976562, 16.299051 ] } }
{"year": "BC112",  "type": "Feature", "tippecanoe": { "layer": "2AFCA6A464381583918073948", "minzoom": 2, "maxzoom": 8 }, "properties": { "halo": 1.8, "title": "大宛国", "fontsize": 12, "tyid": "304000", "oid": "103:1576575138872", "color": "#0056E7" }, "geometry": { "type": "Point", "coordinates": [ 71.982422, 40.446947 ] } }
{"year": "BC112",  "type": "Feature", "tippecanoe": { "layer": "2AFCA6A464381583918073948", "minzoom": 2, "maxzoom": 8 }, "properties": { "halo": 1.8, "title": "莎车国", "fontsize": 12, "tyid": "304000", "oid": "103:1576575138976", "color": "#0056E7" }, "geometry": { "type": "Point", "coordinates": [ 77.431641, 38.822591 ] } }
{"year": "BC112",  "type": "Feature", "tippecanoe": { "layer": "2AFCA6A464381583918073948", "minzoom": 2, "maxzoom": 8 }, "properties": { "halo": 1.8, "title": "西夜国", "fontsize": 12, "tyid": "304000", "oid": "103:1576575138971", "color": "#0056E7" }, "geometry": { "type": "Point", "coordinates": [ 78.046875, 36.949892 ] } }
{"year": "BC112",  "type": "Feature", "tippecanoe": { "layer": "2AFCA6A464381583918073948", "minzoom": 2, "maxzoom": 8 }, "properties": { "halo": 1.8, "title": "乌秅国", "fontsize": 12, "tyid": "304000", "oid": "103:1576575138981", "color": "#0056E7" }, "geometry": { "type": "Point", "coordinates": [ 76.728516, 36.385913 ] } }
{"year": "BC112",  "type": "Feature", "tippecanoe": { "layer": "2AFCA6A464381583918073948", "minzoom": 2, "maxzoom": 8 }, "properties": { "halo": 1.8, "title": "古宁陀王国", "fontsize": 12, "tyid": "304000", "oid": "103:1576575138469", "color": "#0056E7" }, "geometry": { "type": "Point", "coordinates": [ 76.992188, 31.728167 ] } }
{"year": "BC112",  "type": "Feature", "tippecanoe": { "layer": "2AFCA6A464381583918073948", "minzoom": 2, "maxzoom": 8 }, "properties": { "halo": 1.8, "title": "姑墨国", "fontsize": 12, "tyid": "304000", "oid": "103:1576575138957", "color": "#0056E7" }, "geometry": { "type": "Point", "coordinates": [ 80.683594, 40.847060 ] } }
{"year": "BC112",  "type": "Feature", "tippecanoe": { "layer": "2AFCA6A464381583918073948", "minzoom": 2, "maxzoom": 8 }, "properties": { "halo": 1.8, "title": "于阗国", "fontsize": 12, "tyid": "304000", "oid": "103:1576575138416", "color": "#0056E7" }, "geometry": { "type": "Point", "coordinates": [ 80.156250, 38.272689 ] } }
{"year": "BC112",  "type": "Feature", "tippecanoe": { "layer": "2AFCA6A464381583918073948", "minzoom": 2, "maxzoom": 8 }, "properties": { "halo": 1.8, "title": "扜弥国", "fontsize": 12, "tyid": "304000", "oid": "103:1576575138420", "color": "#0056E7" }, "geometry": { "type": "Point", "coordinates": [ 81.914062, 38.616870 ] } }
{"year": "BC112",  "type": "Feature", "tippecanoe": { "layer": "2AFCA6A464381583918073948", "minzoom": 2, "maxzoom": 8 }, "properties": { "halo": 1.8, "title": "精绝国", "fontsize": 12, "tyid": "304000", "oid": "103:1576575138952", "color": "#0056E7" }, "geometry": { "type": "Point", "coordinates": [ 82.880859, 37.509726 ] } }
{"year": "BC112",  "type": "Feature", "tippecanoe": { "layer": "2AFCA6A464381583918073948", "minzoom": 2, "maxzoom": 8 }, "properties": { "halo": 1.8, "title": "尉犁国", "fontsize": 12, "tyid": "304000", "oid": "103:1576575138993", "color": "#0056E7" }, "geometry": { "type": "Point", "coordinates": [ 86.923828, 40.979898 ] } }
{"year": "BC112",  "type": "Feature", "tippecanoe": { "layer": "2AFCA6A464381583918073948", "minzoom": 2, "maxzoom": 8 }, "properties": { "halo": 1.8, "title": "且末国", "fontsize": 12, "tyid": "304000", "oid": "103:1576575138990", "color": "#0056E7" }, "geometry": { "type": "Point", "coordinates": [ 86.044922, 38.341656 ] } }
{"year": "BC112",  "type": "Feature", "tippecanoe": { "layer": "2AFCA6A464381583918073948", "minzoom": 2, "maxzoom": 8 }, "properties": { "halo": 1.8, "title": "楼兰国", "fontsize": 12, "tyid": "304000", "oid": "103:1576575138413", "color": "#0056E7" }, "geometry": { "type": "Point", "coordinates": [ 89.824219, 40.044438 ] } }
{"year": "BC112",  "type": "Feature", "tippecanoe": { "layer": "2AFCA6A464381583918073948", "minzoom": 2, "maxzoom": 8 }, "properties": { "halo": 1.8, "title": "婼羌国", "fontsize": 12, "tyid": "304000", "oid": "103:1576575138411", "color": "#0056E7" }, "geometry": { "type": "Point", "coordinates": [ 89.912109, 38.134557 ] } }
{"year": "BC112",  "type": "Feature", "tippecanoe": { "layer": "2AFCA6A464381583918073948", "minzoom": 2, "maxzoom": 8 }, "properties": { "halo": 1.8, "title": "般遮罗国", "fontsize": 12, "tyid": "304000", "oid": "103:1576575138402", "color": "#0056E7" }, "geometry": { "type": "Point", "coordinates": [ 79.541016, 28.690588 ] } }
{"year": "BC112",  "type": "Feature", "tippecanoe": { "layer": "2AFCA6A464381583918073948", "minzoom": 2, "maxzoom": 8 }, "properties": { "halo": 1.8, "title": "克拉底王国", "fontsize": 12, "tyid": "304000", "oid": "103:1576575138390", "color": "#0056E7" }, "geometry": { "type": "Point", "coordinates": [ 84.199219, 28.071980 ] } }
{"year": "BC112",  "type": "Feature", "tippecanoe": { "layer": "2AFCA6A464381583918073948", "minzoom": 2, "maxzoom": 8 }, "properties": { "halo": 1.8, "title": "德瓦王朝", "fontsize": 12, "tyid": "304000", "oid": "103:1576575138406", "color": "#0056E7" }, "geometry": { "type": "Point", "coordinates": [ 82.001953, 26.902477 ] } }
{"year": "BC112",  "type": "Feature", "tippecanoe": { "layer": "2AFCA6A464381583918073948", "minzoom": 2, "maxzoom": 8 }, "properties": { "halo": 1.8, "title": "阿西亚曼王国", "fontsize": 12, "tyid": "304000", "oid": "103:1576575138692", "color": "#0056E7" }, "geometry": { "type": "Point", "coordinates": [ 77.519531, 11.781325 ] } }
{"year": "BC112",  "type": "Feature", "tippecanoe": { "layer": "2AFCA6A464381583918073948", "minzoom": 2, "maxzoom": 8 }, "properties": { "halo": 1.8, "title": "哲罗国", "fontsize": 12, "tyid": "304000", "oid": "103:1576575138689", "color": "#0056E7" }, "geometry": { "type": "Point", "coordinates": [ 76.464844, 10.314919 ] } }
{"year": "BC112",  "type": "Feature", "tippecanoe": { "layer": "2AFCA6A464381583918073948", "minzoom": 2, "maxzoom": 8 }, "properties": { "halo": 1.8, "title": "潘地亚王国", "fontsize": 12, "tyid": "304000", "oid": "103:1576575138395", "color": "#0056E7" }, "geometry": { "type": "Point", "coordinates": [ 77.958984, 9.535749 ] } }
{"year": "BC112",  "type": "Feature", "tippecanoe": { "layer": "2AFCA6A464381583918073948", "minzoom": 2, "maxzoom": 8 }, "properties": { "halo": 1.8, "title": "质多王朝", "fontsize": 12, "tyid": "304000", "oid": "103:1576575138867", "color": "#0056E7" }, "geometry": { "type": "Point", "coordinates": [ 84.375000, 20.385825 ] } }
{"year": "BC112",  "type": "Feature", "tippecanoe": { "layer": "2AFCA6A464381583918073948", "minzoom": 2, "maxzoom": 8 }, "properties": { "halo": 1.8, "title": "朱罗国", "fontsize": 12, "tyid": "304000", "oid": "103:1576575138734", "color": "#0056E7" }, "geometry": { "type": "Point", "coordinates": [ 78.750000, 11.178402 ] } }
{"year": "BC112",  "type": "Feature", "tippecanoe": { "layer": "2AFCA6A464381583918073948", "minzoom": 2, "maxzoom": 8 }, "properties": { "halo": 1.8, "title": "阿努拉德普勒王国", "fontsize": 12, "tyid": "304000", "oid": "103:1576575138704", "color": "#0056E7" }, "geometry": { "type": "Point", "coordinates": [ 80.683594, 7.623887 ] } }
{"year": "BC112",  "type": "Feature", "tippecanoe": { "layer": "2AFCA6A464381583918073948", "minzoom": 2, "maxzoom": 8 }, "properties": { "halo": 1.8, "title": "蒲类国", "fontsize": 12, "tyid": "304000", "oid": "103:1576575138418", "color": "#0056E7" }, "geometry": { "type": "Point", "coordinates": [ 92.109375, 44.087585 ] } }
{"year": "BC112",  "type": "Feature", "tippecanoe": { "layer": "2AFCA6A464381583918073948", "minzoom": 2, "maxzoom": 8 }, "properties": { "halo": 1.6, "title": "乌桓", "fontsize": 12, "tyid": "304001", "oid": "103:1576575138983", "color": "#0056E7" }, "geometry": { "type": "Point", "coordinates": [ 121.113281, 43.707594 ] } }
{"year": "BC112",  "type": "Feature", "tippecanoe": { "layer": "2AFCA6A464381583918073948", "minzoom": 2, "maxzoom": 8 }, "properties": { "halo": 1.6, "title": "北沃沮", "fontsize": 12, "tyid": "304001", "oid": "103:1576575138778", "color": "#0056E7" }, "geometry": { "type": "Point", "coordinates": [ 128.935547, 42.032974 ] } }
{"year": "BC112",  "type": "Feature", "tippecanoe": { "layer": "2AFCA6A464381583918073948", "minzoom": 2, "maxzoom": 8 }, "properties": { "halo": 1.8, "title": "三摩呾吒国", "fontsize": 12, "tyid": "304000", "oid": "103:1576575138465", "color": "#0056E7" }, "geometry": { "type": "Point", "coordinates": [ 91.054688, 23.725012 ] } }
{"year": "BC112",  "type": "Feature", "tippecanoe": { "layer": "2AFCA6A464381583918073948", "minzoom": 2, "maxzoom": 8 }, "properties": { "halo": 1.6, "title": "巂", "fontsize": 12, "tyid": "304001", "oid": "103:1576575138772", "color": "#0056E7" }, "geometry": { "type": "Point", "coordinates": [ 98.261719, 25.799891 ] } }
{"year": "BC112",  "type": "Feature", "tippecanoe": { "layer": "2AFCA6A464381583918073948", "minzoom": 2, "maxzoom": 8 }, "properties": { "halo": 1.6, "title": "昆明", "fontsize": 12, "tyid": "304001", "oid": "103:1576575138945", "color": "#0056E7" }, "geometry": { "type": "Point", "coordinates": [ 100.283203, 25.720735 ] } }
{"year": "BC112",  "type": "Feature", "tippecanoe": { "layer": "2AFCA6A464381583918073948", "minzoom": 2, "maxzoom": 8 }, "properties": { "halo": 1.6, "title": "氐人", "fontsize": 12, "tyid": "304001", "oid": "103:1576575138687", "color": "#0056E7" }, "geometry": { "type": "Point", "coordinates": [ 104.150391, 33.211116 ] } }
{"year": "BC112",  "type": "Feature", "tippecanoe": { "layer": "2AFCA6A464381583918073948", "minzoom": 2, "maxzoom": 8 }, "properties": { "halo": 1.6, "title": "邛都", "fontsize": 12, "tyid": "304001", "oid": "103:1576575138661", "color": "#0056E7" }, "geometry": { "type": "Point", "coordinates": [ 102.128906, 27.449790 ] } }
{"year": "BC112",  "type": "Feature", "tippecanoe": { "layer": "2AFCA6A464381583918073948", "minzoom": 2, "maxzoom": 8 }, "properties": { "halo": 1.8, "title": "滇国", "fontsize": 12, "tyid": "304000", "oid": "103:1576575138739", "color": "#0056E7" }, "geometry": { "type": "Point", "coordinates": [ 102.128906, 25.244696 ] } }
{"year": "BC112",  "type": "Feature", "tippecanoe": { "layer": "2AFCA6A464381583918073948", "minzoom": 2, "maxzoom": 8 }, "properties": { "halo": 1.8, "title": "钩町", "fontsize": 12, "tyid": "304000", "oid": "103:1576575138699", "color": "#0056E7" }, "geometry": { "type": "Point", "coordinates": [ 104.238281, 23.644524 ] } }
{"year": "BC112",  "type": "Feature", "tippecanoe": { "layer": "2AFCA6A464381583918073948", "minzoom": 2, "maxzoom": 8 }, "properties": { "halo": 1.8, "title": "达雅瓦底王国", "fontsize": 12, "tyid": "304000", "oid": "103:1576575138942", "color": "#0056E7" }, "geometry": { "type": "Point", "coordinates": [ 93.339844, 20.550509 ] } }
{"year": "BC112",  "type": "Feature", "tippecanoe": { "layer": "2AFCA6A464381583918073948", "minzoom": 2, "maxzoom": 8 }, "properties": { "halo": 1.8, "title": "室利差呾罗王国", "fontsize": 12, "tyid": "304000", "oid": "103:1576575138709", "color": "#0056E7" }, "geometry": { "type": "Point", "coordinates": [ 95.537109, 19.228177 ] } }
{"year": "BC112",  "type": "Feature", "tippecanoe": { "layer": "2AFCA6A464381583918073948", "minzoom": 2, "maxzoom": 8 }, "properties": { "halo": 1.8, "title": "骠国", "fontsize": 12, "tyid": "304000", "oid": "103:1576575139007", "color": "#0056E7" }, "geometry": { "type": "Point", "coordinates": [ 95.712891, 21.125498 ] } }
{"year": "BC112",  "type": "Feature", "tippecanoe": { "layer": "2AFCA6A464381583918073948", "minzoom": 2, "maxzoom": 8 }, "properties": { "halo": 1.8, "title": "直通王国", "fontsize": 12, "tyid": "304000", "oid": "103:1576575138868", "color": "#0056E7" }, "geometry": { "type": "Point", "coordinates": [ 96.152344, 17.392579 ] } }
{"year": "BC112",  "type": "Feature", "tippecanoe": { "layer": "2AFCA6A464381583918073948", "minzoom": 2, "maxzoom": 8 }, "properties": { "halo": 1.6, "title": "班清文化", "fontsize": 12, "tyid": "304002", "oid": "103:1576575138735", "color": "#0056E7" }, "geometry": { "type": "Point", "coordinates": [ 103.271484, 17.560247 ] } }
{"year": "BC112",  "type": "Feature", "tippecanoe": { "layer": "2AFCA6A464381583918073948", "minzoom": 2, "maxzoom": 8 }, "properties": { "halo": 1.6, "title": "蓬斯尼文化", "fontsize": 12, "tyid": "304002", "oid": "103:1576575138698", "color": "#0056E7" }, "geometry": { "type": "Point", "coordinates": [ 103.535156, 13.410994 ] } }
{"year": "BC112",  "type": "Feature", "tippecanoe": { "layer": "2AFCA6A464381583918073948", "minzoom": 2, "maxzoom": 8 }, "properties": { "halo": 1.6, "title": "同奈文化", "fontsize": 12, "tyid": "304002", "oid": "103:1576575138694", "color": "#0056E7" }, "geometry": { "type": "Point", "coordinates": [ 106.171875, 10.660608 ] } }
{"year": "BC112",  "type": "Feature", "tippecanoe": { "layer": "2AFCA6A464381583918073948", "minzoom": 2, "maxzoom": 8 }, "properties": { "halo": 1.6, "title": "尼格利陀人", "fontsize": 12, "tyid": "304001", "oid": "103:1576575138688", "color": "#0056E7" }, "geometry": { "type": "Point", "coordinates": [ 101.953125, 4.740675 ] } }
{"year": "BC112",  "type": "Feature", "tippecanoe": { "layer": "2AFCA6A464381583918073948", "minzoom": 2, "maxzoom": 8 }, "properties": { "halo": 1.6, "title": "闽越国", "fontsize": 12, "tyid": "304001", "oid": "103:1576575138407", "color": "#0056E7" }, "geometry": { "type": "Point", "coordinates": [ 117.949219, 26.194877 ] } }
{"year": "BC112",  "type": "Feature", "tippecanoe": { "layer": "2AFCA6A464381583918073948", "minzoom": 2, "maxzoom": 8 }, "properties": { "halo": 1.8, "title": "卫满朝鲜", "fontsize": 12, "tyid": "304000", "oid": "103:1576575138905", "color": "#0056E7" }, "geometry": { "type": "Point", "coordinates": [ 125.771484, 40.245992 ] } }
{"year": "BC112",  "type": "Feature", "tippecanoe": { "layer": "2AFCA6A464381583918073948", "minzoom": 2, "maxzoom": 8 }, "properties": { "halo": 1.8, "title": "辰国", "fontsize": 12, "tyid": "304000", "oid": "103:1576575138755", "color": "#0056E7" }, "geometry": { "type": "Point", "coordinates": [ 127.792969, 35.960223 ] } }
{"year": "BC112",  "type": "Feature", "tippecanoe": { "layer": "2AFCA6A464381583918073948", "minzoom": 2, "maxzoom": 8 }, "properties": { "halo": 1.6, "title": "倭人诸邦", "fontsize": 12, "tyid": "304002", "oid": "103:1576575138466", "color": "#0056E7" }, "geometry": { "type": "Point", "coordinates": [ 130.869141, 32.694866 ] } }
{"year": "BC112",  "type": "Feature", "tippecanoe": { "layer": "2AFCA6A464381583918073948", "minzoom": 2, "maxzoom": 8 }, "properties": { "halo": 1.6, "title": "绳文人", "fontsize": 12, "tyid": "304001", "oid": "103:1576575138700", "color": "#0056E7" }, "geometry": { "type": "Point", "coordinates": [ 142.558594, 43.389082 ] } }
{"year": "BC112",  "type": "Feature", "tippecanoe": { "layer": "2AFCA6A464381583918073948", "minzoom": 2, "maxzoom": 8 }, "properties": { "halo": 1.6, "title": "乌莱维文明", "fontsize": 12, "tyid": "304002", "oid": "103:1576575138885", "color": "#0056E7" }, "geometry": { "type": "Point", "coordinates": [ 29.882812, -2.547988 ] } }
{"year": "BC112",  "type": "Feature", "tippecanoe": { "layer": "2AFCA6A464381583918073948", "minzoom": 2, "maxzoom": 8 }, "properties": { "halo": 1.6, "title": "艾布兰文化五期", "fontsize": 12, "tyid": "304002", "oid": "103:1576575138894", "color": "#0056E7" }, "geometry": { "type": "Point", "coordinates": [ 36.474609, -0.175781 ] } }
{"year": "BC112",  "type": "Feature", "tippecanoe": { "layer": "2AFCA6A464381583918073948", "minzoom": 2, "maxzoom": 8 }, "properties": { "halo": 1.6, "title": "布尼文化", "fontsize": 12, "tyid": "304002", "oid": "103:1576575138683", "color": "#0056E7" }, "geometry": { "type": "Point", "coordinates": [ 107.226562, -6.751896 ] } }
{"year": "BC112",  "type": "Feature", "tippecanoe": { "layer": "2AFCA6A464381583918073948", "minzoom": 2, "maxzoom": 8 }, "properties": { "halo": 1.6, "title": "巴拉瓦人", "fontsize": 12, "tyid": "304001", "oid": "103:1576575138401", "color": "#0056E7" }, "geometry": { "type": "Point", "coordinates": [ 146.513672, -41.967659 ] } }
{"year": "BC112",  "type": "Feature", "tippecanoe": { "layer": "2AFCA6A466D81583918073952", "minzoom": 2, "maxzoom": 8 }, "properties": { "tyid": "410000", "centroid": "{\"type\":\"Point\",\"coordinates\":[102.890655519,50.32448578]}", "opacity": 1, "oid": "103:1582721307215", "color": "#A11300", "width": 3 },