{ "type": "Feature", "tippecanoe": { "layer": "2AFCA06D63201583918093344", "minzoom": 2, "maxzoom": 8 }, "properties": { "halo": 0.2, "title": "桂宫鸿宁殿", "fontsize": 12, "tyid": "700000", "centroid": "{\"type\":\"Point\",\"coordinates\":[108.849876765542,34.317520034]}", "icon": "", "oid": "103:1537436858818", "color": "#4B4040" }, "geometry": { "type": "Point", "coordinates": [ 108.808594, 34.379713 ] } }
{ "type": "Feature", "tippecanoe": { "layer": "2AFCA06D63201583918093344", "minzoom": 2, "maxzoom": 8 }, "properties": { "halo": 0.2, "title": "中央官署", "fontsize": 12, "tyid": "700001", "centroid": "{\"type\":\"Point\",\"coordinates\":[108.849241141665,34.30735276565]}", "icon": "", "oid": "103:1537436858822", "color": "#4B4040" }, "geometry": { "type": "Point", "coordinates": [ 108.808594, 34.379713 ] } }
{ "type": "Feature", "tippecanoe": { "layer": "2AFCA06D63201583918093344", "minzoom": 2, "maxzoom": 8 }, "properties": { "halo": 0.2, "title": "市楼", "fontsize": 12, "tyid": "700001", "centroid": "{\"type\":\"Point\",\"coordinates\":[108.857739061935,34.33834147775]}", "icon": "", "oid": "103:1537436858829", "color": "#4B4040" }, "geometry": { "type": "Point", "coordinates": [ 108.808594, 34.379713 ] } }
{ "type": "Feature", "tippecanoe": { "layer": "2AFCA06D63201583918093344", "minzoom": 2, "maxzoom": 8 }, "properties": { "halo": 0.2, "title": "未央宫石渠阁", "fontsize": 12, "tyid": "700000", "centroid": "{\"type\":\"Point\",\"coordinates\":[108.853095885871,34.3113056254]}", "icon": "", "oid": "103:1537436858826", "color": "#4B4040" }, "geometry": { "type": "Point", "coordinates": [ 108.808594, 34.379713 ] } }
{ "type": "Feature", "tippecanoe": { "layer": "2AFCA06D63201583918093344", "minzoom": 2, "maxzoom": 8 }, "properties": { "halo": 0.2, "title": "少府", "fontsize": 12, "tyid": "700001", "centroid": "{\"type\":\"Point\",\"coordinates\":[108.854996351157,34.3087250008]}", "icon": "", "oid": "103:1537436858820", "color": "#4B4040" }, "geometry": { "type": "Point", "coordinates": [ 108.808594, 34.379713 ] } }
{ "type": "Feature", "tippecanoe": { "layer": "2AFCA06D63201583918093344", "minzoom": 2, "maxzoom": 8 }, "properties": { "halo": 0.2, "title": "未央宫天禄阁", "fontsize": 12, "tyid": "700000", "centroid": "{\"type\":\"Point\",\"coordinates\":[108.8599889573,34.311881217]}", "icon": "", "oid": "103:1537436858828", "color": "#4B4040" }, "geometry": { "type": "Point", "coordinates": [ 108.808594, 34.379713 ] } }
{ "type": "Feature", "tippecanoe": { "layer": "2AFCA06D63201583918093344", "minzoom": 2, "maxzoom": 8 }, "properties": { "halo": 0.2, "title": "未央宫北阙", "fontsize": 12, "tyid": "700000", "centroid": "{\"type\":\"Point\",\"coordinates\":[108.861405398769,34.3130421644]}", "icon": "", "oid": "103:1537436858835", "color": "#4B4040" }, "geometry": { "type": "Point", "coordinates": [ 108.808594, 34.379713 ] } }
{ "type": "Feature", "tippecanoe": { "layer": "2AFCA06D63201583918093344", "minzoom": 2, "maxzoom": 8 }, "properties": { "halo": 0.2, "title": "未央宫椒房殿", "fontsize": 12, "tyid": "700000", "centroid": "{\"type\":\"Point\",\"coordinates\":[108.859853604369,34.3084095834]}", "icon": "", "oid": "103:1537436858824", "color": "#4B4040" }, "geometry": { "type": "Point", "coordinates": [ 108.808594, 34.379713 ] } }
{ "type": "Feature", "tippecanoe": { "layer": "2AFCA06D63201583918093344", "minzoom": 2, "maxzoom": 8 }, "properties": { "halo": 0.2, "title": "武库", "fontsize": 12, "tyid": "700001", "centroid": "{\"type\":\"Point\",\"coordinates\":[108.874223828257,34.31045123035]}", "icon": "", "oid": "103:1537436858815", "color": "#4B4040" }, "geometry": { "type": "Point", "coordinates": [ 108.808594, 34.379713 ] } }
{ "type": "Feature", "tippecanoe": { "layer": "2AFCA06D63201583918093344", "minzoom": 2, "maxzoom": 8 }, "properties": { "halo": 0.2, "title": "长乐宫宫殿", "fontsize": 12, "tyid": "700000", "centroid": "{\"type\":\"Point\",\"coordinates\":[108.888325125827,34.3170337217]}", "icon": "", "oid": "103:1537436858813", "color": "#4B4040" }, "geometry": { "type": "Point", "coordinates": [ 108.808594, 34.379713 ] } }
{ "type": "Feature", "tippecanoe": { "layer": "2AFCA06D63201583918093344", "minzoom": 2, "maxzoom": 8 }, "properties": { "halo": 0.2, "title": "未央宫渐台", "fontsize": 12, "tyid": "700000", "centroid": "{\"type\":\"Point\",\"coordinates\":[108.857909035289,34.3006176219]}", "icon": "", "oid": "103:1537436858831", "color": "#4B4040" }, "geometry": { "type": "Point", "coordinates": [ 108.808594, 34.307144 ] } }
{ "type": "Feature", "tippecanoe": { "layer": "2AFCA06D63201583918093344", "minzoom": 2, "maxzoom": 8 }, "properties": { "halo": 0.2, "title": "未央宫前殿", "fontsize": 12, "tyid": "700000", "centroid": "{\"type\":\"Point\",\"coordinates\":[108.859971115008,34.30463515345]}", "icon": "", "oid": "103:1537436858817", "color": "#4B4040" }, "geometry": { "type": "Point", "coordinates": [ 108.808594, 34.307144 ] } }
{ "type": "Feature", "tippecanoe": { "layer": "2AFCA06D63201583918093344", "minzoom": 2, "maxzoom": 8 }, "properties": { "halo": 0.2, "title": "未央宫东阙", "fontsize": 12, "tyid": "700000", "centroid": "{\"type\":\"Point\",\"coordinates\":[108.871330553845,34.3065184755]}", "icon": "", "oid": "103:1537436858833", "color": "#4B4040" }, "geometry": { "type": "Point", "coordinates": [ 108.808594, 34.307144 ] } }
{ "type": "Feature", "tippecanoe": { "layer": "2AFCA06D63201583918093344", "minzoom": 2, "maxzoom": 8 }, "properties": { "halo": 0.2, "title": "汉长安城高庙", "fontsize": 12, "tyid": "701000", "centroid": "{\"type\":\"Point\",\"coordinates\":[108.883409543396,34.2983725494]}", "icon": "", "oid": "103:1537436833743", "color": "#4B4040" }, "geometry": { "type": "Point", "coordinates": [ 108.808594, 34.307144 ] } }
{ "type": "Feature", "tippecanoe": { "layer": "2AFCA06D63201583918093344", "minzoom": 2, "maxzoom": 8 }, "properties": { "halo": 0.2, "title": "辟雍", "fontsize": 12, "tyid": "700000", "centroid": "{\"type\":\"Point\",\"coordinates\":[108.882314944725,34.27337515805]}", "icon": "", "oid": "103:1537436858837", "color": "#4B4040" }, "geometry": { "type": "Point", "coordinates": [ 108.808594, 34.307144 ] } }
{ "type": "Feature", "tippecanoe": { "layer": "2AFCA06D63201583918093344", "minzoom": 2, "maxzoom": 8 }, "properties": { "halo": 0.2, "title": "汉长安城宗庙", "fontsize": 12, "tyid": "701000", "centroid": "{\"type\":\"Point\",\"coordinates\":[108.869084695375,34.2697862898]}", "icon": "", "oid": "103:1537436833745", "color": "#4B4040" }, "geometry": { "type": "Point", "coordinates": [ 108.808594, 34.307144 ] } }
{ "type": "Feature", "tippecanoe": { "layer": "2AFCA06D65C01583918093343", "minzoom": 2, "maxzoom": 8 }, "properties": { "halo": 1.6, "title": "诺顿文化", "fontsize": 12, "tyid": "304002", "oid": "103:1562760084533", "color": "#0056E7" }, "geometry": { "type": "Point", "coordinates": [ -162.773438, 68.463800 ] } }
{ "type": "Feature", "tippecanoe": { "layer": "2AFCA06D65C01583918093343", "minzoom": 2, "maxzoom": 8 }, "properties": { "halo": 1.6, "title": "图勒人", "fontsize": 12, "tyid": "304001", "oid": "103:1562760084287", "color": "#0056E7" }, "geometry": { "type": "Point", "coordinates": [ -132.626953, 68.879358 ] } }
{ "type": "Feature", "tippecanoe": { "layer": "2AFCA06D65C01583918093343", "minzoom": 2, "maxzoom": 8 }, "properties": { "halo": 1.6, "title": "尤皮克人", "fontsize": 12, "tyid": "304001", "oid": "103:1562760084235", "color": "#0056E7" }, "geometry": { "type": "Point", "coordinates": [ -152.841797, 62.714462 ] } }
{ "type": "Feature", "tippecanoe": { "layer": "2AFCA06D65C01583918093343", "minzoom": 2, "maxzoom": 8 }, "properties": { "halo": 1.6, "title": "因纽皮雅特人", "fontsize": 12, "tyid": "304001", "oid": "103:1562760084475", "color": "#0056E7" }, "geometry": { "type": "Point", "coordinates": [ -150.908203, 65.476508 ] } }
{ "type": "Feature", "tippecanoe": { "layer": "2AFCA06D65C01583918093343", "minzoom": 2, "maxzoom": 8 }, "properties": { "halo": 1.6, "title": "阿留申人", "fontsize": 12, "tyid": "304001", "oid": "103:1562760085026", "color": "#0056E7" }, "geometry": { "type": "Point", "coordinates": [ -150.292969, 60.413852 ] } }
{ "type": "Feature", "tippecanoe": { "layer": "2AFCA06D65C01583918093343", "minzoom": 2, "maxzoom": 8 }, "properties": { "halo": 1.6, "title": "因纽特人", "fontsize": 12, "tyid": "304001", "oid": "103:1562760084933", "color": "#0056E7" }, "geometry": { "type": "Point", "coordinates": [ -93.603516, 66.160511 ] } }
{ "type": "Feature", "tippecanoe": { "layer": "2AFCA06D65C01583918093343", "minzoom": 2, "maxzoom": 8 }, "properties": { "halo": 1.6, "title": "泰萨勒页岩文化", "fontsize": 12, "tyid": "304002", "oid": "103:1562760084900", "color": "#0056E7" }, "geometry": { "type": "Point", "coordinates": [ -101.074219, 56.704506 ] } }
{ "type": "Feature", "tippecanoe": { "layer": "2AFCA06D65C01583918093343", "minzoom": 2, "maxzoom": 8 }, "properties": { "halo": 1.6, "title": "坎贝尔文化", "fontsize": 12, "tyid": "304002", "oid": "103:1562760084878", "color": "#0056E7" }, "geometry": { "type": "Point", "coordinates": [ -121.289062, 38.685510 ] } }
{ "type": "Feature", "tippecanoe": { "layer": "2AFCA06D65C01583918093343", "minzoom": 2, "maxzoom": 8 }, "properties": { "halo": 1.6, "title": "圣迪基图文化", "fontsize": 12, "tyid": "304002", "oid": "103:1562760084354", "color": "#0056E7" }, "geometry": { "type": "Point", "coordinates": [ -115.224609, 33.211116 ] } }
{ "type": "Feature", "tippecanoe": { "layer": "2AFCA06D65C01583918093343", "minzoom": 2, "maxzoom": 8 }, "properties": { "halo": 1.6, "title": "独立二期文化", "fontsize": 12, "tyid": "304002", "oid": "103:1562760084247", "color": "#0056E7" }, "geometry": { "type": "Point", "coordinates": [ -41.484375, 81.984696 ] } }
{ "type": "Feature", "tippecanoe": { "layer": "2AFCA06D65C01583918093343", "minzoom": 2, "maxzoom": 8 }, "properties": { "halo": 1.6, "title": "波茵特半岛文化", "fontsize": 12, "tyid": "304002", "oid": "103:1562760084998", "color": "#0056E7" }, "geometry": { "type": "Point", "coordinates": [ -76.816406, 45.336702 ] } }
{ "type": "Feature", "tippecanoe": { "layer": "2AFCA06D65C01583918093343", "minzoom": 2, "maxzoom": 8 }, "properties": { "halo": 1.6, "title": "古海洋文化", "fontsize": 12, "tyid": "304002", "oid": "103:1562760084339", "color": "#0056E7" }, "geometry": { "type": "Point", "coordinates": [ -67.324219, 46.980252 ] } }
{ "type": "Feature", "tippecanoe": { "layer": "2AFCA06D65C01583918093343", "minzoom": 2, "maxzoom": 8 }, "properties": { "halo": 1.6, "title": "凯尔特布立吞人", "fontsize": 12, "tyid": "304001", "oid": "103:1562760084389", "color": "#0056E7" }, "geometry": { "type": "Point", "coordinates": [ -1.845703, 52.589701 ] } }
{ "type": "Feature", "tippecanoe": { "layer": "2AFCA06D65C01583918093343", "minzoom": 2, "maxzoom": 8 }, "properties": { "halo": 1.6, "title": "巴富尔人", "fontsize": 12, "tyid": "304001", "oid": "103:1562760084227", "color": "#0056E7" }, "geometry": { "type": "Point", "coordinates": [ -8.261719, 22.755921 ] } }
{ "type": "Feature", "tippecanoe": { "layer": "2AFCA06D65C01583918093343", "minzoom": 2, "maxzoom": 8 }, "properties": { "halo": 1.6, "title": "索宁克人", "fontsize": 12, "tyid": "304001", "oid": "103:1562760084756", "color": "#0056E7" }, "geometry": { "type": "Point", "coordinates": [ -8.964844, 15.284185 ] } }
{ "type": "Feature", "tippecanoe": { "layer": "2AFCA06D65C01583918093343", "minzoom": 2, "maxzoom": 8 }, "properties": { "halo": 1.6, "title": "曼德人", "fontsize": 12, "tyid": "304001", "oid": "103:1562760084558", "color": "#0056E7" }, "geometry": { "type": "Point", "coordinates": [ -7.558594, 8.146243 ] } }
{ "type": "Feature", "tippecanoe": { "layer": "2AFCA06D65C01583918093343", "minzoom": 2, "maxzoom": 8 }, "properties": { "halo": 1.6, "title": "图皮人", "fontsize": 12, "tyid": "304001", "oid": "103:1562760084396", "color": "#0056E7" }, "geometry": { "type": "Point", "coordinates": [ -39.375000, -11.953349 ] } }
{ "type": "Feature", "tippecanoe": { "layer": "2AFCA06D65C01583918093343", "minzoom": 2, "maxzoom": 8 }, "properties": { "halo": 1.6, "title": "萨米人", "fontsize": 12, "tyid": "304001", "oid": "103:1562760084515", "color": "#0056E7" }, "geometry": { "type": "Point", "coordinates": [ 25.400391, 68.171555 ] } }
{ "type": "Feature", "tippecanoe": { "layer": "2AFCA06D65C01583918093343", "minzoom": 2, "maxzoom": 8 }, "properties": { "halo": 1.6, "title": "乌斯特波卢伊文化", "fontsize": 12, "tyid": "304002", "oid": "103:1562760084760", "color": "#0056E7" }, "geometry": { "type": "Point", "coordinates": [ 70.048828, 68.784144 ] } }
{ "type": "Feature", "tippecanoe": { "layer": "2AFCA06D65C01583918093343", "minzoom": 2, "maxzoom": 8 }, "properties": { "halo": 1.6, "title": "原始日耳曼人", "fontsize": 12, "tyid": "304001", "oid": "103:1562760084399", "color": "#0056E7" }, "geometry": { "type": "Point", "coordinates": [ 8.437500, 60.500525 ] } }
{ "type": "Feature", "tippecanoe": { "layer": "2AFCA06D65C01583918093343", "minzoom": 2, "maxzoom": 8 }, "properties": { "halo": 1.6, "title": "古瑞典人", "fontsize": 12, "tyid": "304001", "oid": "103:1562760084792", "color": "#0056E7" }, "geometry": { "type": "Point", "coordinates": [ 15.820312, 61.312452 ] } }
{ "type": "Feature", "tippecanoe": { "layer": "2AFCA06D65C01583918093343", "minzoom": 2, "maxzoom": 8 }, "properties": { "halo": 1.6, "title": "贝尔盖人", "fontsize": 12, "tyid": "304001", "oid": "103:1562760084459", "color": "#0056E7" }, "geometry": { "type": "Point", "coordinates": [ 4.833984, 49.724479 ] } }
{ "type": "Feature", "tippecanoe": { "layer": "2AFCA06D65C01583918093343", "minzoom": 2, "maxzoom": 8 }, "properties": { "halo": 1.6, "title": "山外高卢人", "fontsize": 12, "tyid": "304001", "oid": "103:1562760084447", "color": "#0056E7" }, "geometry": { "type": "Point", "coordinates": [ 1.318359, 46.860191 ] } }
{ "type": "Feature", "tippecanoe": { "layer": "2AFCA06D65C01583918093343", "minzoom": 2, "maxzoom": 8 }, "properties": { "halo": 1.6, "title": "日耳曼人", "fontsize": 12, "tyid": "304001", "oid": "103:1562760084794", "color": "#0056E7" }, "geometry": { "type": "Point", "coordinates": [ 13.886719, 50.736455 ] } }
{ "type": "Feature", "tippecanoe": { "layer": "2AFCA06D65C01583918093343", "minzoom": 2, "maxzoom": 8 }, "properties": { "halo": 1.6, "title": "凯尔特人", "fontsize": 12, "tyid": "304001", "oid": "103:1562760084183", "color": "#0056E7" }, "geometry": { "type": "Point", "coordinates": [ 16.787109, 47.576526 ] } }
{ "type": "Feature", "tippecanoe": { "layer": "2AFCA06D65C01583918093343", "minzoom": 2, "maxzoom": 8 }, "properties": { "halo": 1.8, "title": "罗马共和国", "fontsize": 12, "tyid": "304000", "oid": "103:1562760084451", "color": "#0056E7" }, "geometry": { "type": "Point", "coordinates": [ 14.765625, 41.244772 ] } }
{ "type": "Feature", "tippecanoe": { "layer": "2AFCA06D65C01583918093343", "minzoom": 2, "maxzoom": 8 }, "properties": { "halo": 1.6, "title": "迪亚科夫文化", "fontsize": 12, "tyid": "304002", "oid": "103:1562760084824", "color": "#0056E7" }, "geometry": { "type": "Point", "coordinates": [ 37.968750, 56.800878 ] } }
{ "type": "Feature", "tippecanoe": { "layer": "2AFCA06D65C01583918093343", "minzoom": 2, "maxzoom": 8 }, "properties": { "halo": 1.6, "title": "第聂伯河与德维纳河文化", "fontsize": 12, "tyid": "304001", "oid": "103:1562760084402", "color": "#0056E7" }, "geometry": { "type": "Point", "coordinates": [ 31.816406, 55.677584 ] } }
{ "type": "Feature", "tippecanoe": { "layer": "2AFCA06D65C01583918093343", "minzoom": 2, "maxzoom": 8 }, "properties": { "halo": 1.6, "title": "扎鲁宾西文化", "fontsize": 12, "tyid": "304002", "oid": "103:1562760084269", "color": "#0056E7" }, "geometry": { "type": "Point", "coordinates": [ 29.707031, 51.508742 ] } }
{ "type": "Feature", "tippecanoe": { "layer": "2AFCA06D65C01583918093343", "minzoom": 2, "maxzoom": 8 }, "properties": { "halo": 1.6, "title": "戈罗杰茨文化", "fontsize": 12, "tyid": "304002", "oid": "103:1562760084952", "color": "#0056E7" }, "geometry": { "type": "Point", "coordinates": [ 44.384766, 54.521081 ] } }
{ "type": "Feature", "tippecanoe": { "layer": "2AFCA06D65C01583918093343", "minzoom": 2, "maxzoom": 8 }, "properties": { "halo": 1.8, "title": "努米底亚王国", "fontsize": 12, "tyid": "304000", "oid": "103:1562760084638", "color": "#0056E7" }, "geometry": { "type": "Point", "coordinates": [ 6.328125, 36.031332 ] } }
{ "type": "Feature", "tippecanoe": { "layer": "2AFCA06D65C01583918093343", "minzoom": 2, "maxzoom": 8 }, "properties": { "halo": 1.6, "title": "柏柏尔人诸部", "fontsize": 12, "tyid": "304001", "oid": "103:1562760085003", "color": "#0056E7" }, "geometry": { "type": "Point", "coordinates": [ 2.724609, 25.878994 ] } }
{ "type": "Feature", "tippecanoe": { "layer": "2AFCA06D65C01583918093343", "minzoom": 2, "maxzoom": 8 }, "properties": { "halo": 1.6, "title": "加拉曼特人", "fontsize": 12, "tyid": "304001", "oid": "103:1562760084569", "color": "#0056E7" }, "geometry": { "type": "Point", "coordinates": [ 18.544922, 27.605671 ] } }
{ "type": "Feature", "tippecanoe": { "layer": "2AFCA06D65C01583918093343", "minzoom": 2, "maxzoom": 8 }, "properties": { "halo": 1.6, "title": "诺克文化", "fontsize": 12, "tyid": "304002", "oid": "103:1562760084971", "color": "#0056E7" }, "geometry": { "type": "Point", "coordinates": [ 7.119141, 10.574222 ] } }
{ "type": "Feature", "tippecanoe": { "layer": "2AFCA06D65C01583918093343", "minzoom": 2, "maxzoom": 8 }, "properties": { "halo": 1.6, "title": "萨奥文明", "fontsize": 12, "tyid": "304002", "oid": "103:1562760084915", "color": "#0056E7" }, "geometry": { "type": "Point", "coordinates": [ 14.941406, 13.239945 ] } }
{ "type": "Feature", "tippecanoe": { "layer": "2AFCA06D65C01583918093343", "minzoom": 2, "maxzoom": 8 }, "properties": { "halo": 1.6, "title": "巴卡人", "fontsize": 12, "tyid": "304001", "oid": "103:1562760084753", "color": "#0056E7" }, "geometry": { "type": "Point", "coordinates": [ 18.105469, 5.441022 ] } }
{ "type": "Feature", "tippecanoe": { "layer": "2AFCA06D65C01583918093343", "minzoom": 2, "maxzoom": 8 }, "properties": { "halo": 1.8, "title": "托勒密王国", "fontsize": 12, "tyid": "304000", "oid": "103:1562760084696", "color": "#0056E7" }, "geometry": { "type": "Point", "coordinates": [ 29.267578, 28.381735 ] } }
{ "type": "Feature", "tippecanoe": { "layer": "2AFCA06D65C01583918093343", "minzoom": 2, "maxzoom": 8 }, "properties": { "halo": 1.8, "title": "塞琉古帝国", "fontsize": 12, "tyid": "304000", "oid": "103:1562760084186", "color": "#0056E7" }, "geometry": { "type": "Point", "coordinates": [ 38.232422, 34.957995 ] } }
{ "type": "Feature", "tippecanoe": { "layer": "2AFCA06D65C01583918093343", "minzoom": 2, "maxzoom": 8 }, "properties": { "halo": 1.8, "title": "利黑延王国", "fontsize": 12, "tyid": "304000", "oid": "103:1562760084984", "color": "#0056E7" }, "geometry": { "type": "Point", "coordinates": [ 38.847656, 25.958045 ] } }
{ "type": "Feature", "tippecanoe": { "layer": "2AFCA06D65C01583918093343", "minzoom": 2, "maxzoom": 8 }, "properties": { "halo": 1.6, "title": "北非贝都因人", "fontsize": 12, "tyid": "304001", "oid": "103:1562760084571", "color": "#0056E7" }, "geometry": { "type": "Point", "coordinates": [ 22.675781, 20.715015 ] } }
{ "type": "Feature", "tippecanoe": { "layer": "2AFCA06D65C01583918093343", "minzoom": 2, "maxzoom": 8 }, "properties": { "halo": 1.6, "title": "富尔人", "fontsize": 12, "tyid": "304001", "oid": "103:1562760084576", "color": "#0056E7" }, "geometry": { "type": "Point", "coordinates": [ 26.015625, 12.983148 ] } }
{ "type": "Feature", "tippecanoe": { "layer": "2AFCA06D65C01583918093343", "minzoom": 2, "maxzoom": 8 }, "properties": { "halo": 1.8, "title": "库施王国", "fontsize": 12, "tyid": "304000", "oid": "103:1562760084561", "color": "#0056E7" }, "geometry": { "type": "Point", "coordinates": [ 32.255859, 18.729502 ] } }
{ "type": "Feature", "tippecanoe": { "layer": "2AFCA06D65C01583918093343", "minzoom": 2, "maxzoom": 8 }, "properties": { "halo": 1.6, "title": "卢欧诸部", "fontsize": 12, "tyid": "304001", "oid": "103:1562760084563", "color": "#0056E7" }, "geometry": { "type": "Point", "coordinates": [ 33.574219, 9.622414 ] } }
{ "type": "Feature", "tippecanoe": { "layer": "2AFCA06D65C01583918093343", "minzoom": 2, "maxzoom": 8 }, "properties": { "halo": 1.6, "title": "尼罗特人", "fontsize": 12, "tyid": "304001", "oid": "103:1562760084566", "color": "#0056E7" }, "geometry": { "type": "Point", "coordinates": [ 33.310547, 1.230374 ] } }
{ "type": "Feature", "tippecanoe": { "layer": "2AFCA06D65C01583918093343", "minzoom": 2, "maxzoom": 8 }, "properties": { "halo": 1.6, "title": "赛莫德人", "fontsize": 12, "tyid": "304001", "oid": "103:1562760084431", "color": "#0056E7" }, "geometry": { "type": "Point", "coordinates": [ 42.626953, 21.779905 ] } }
{ "type": "Feature", "tippecanoe": { "layer": "2AFCA06D65C01583918093343", "minzoom": 2, "maxzoom": 8 }, "properties": { "halo": 1.6, "title": "库希特人", "fontsize": 12, "tyid": "304001", "oid": "103:1562760084200", "color": "#0056E7" }, "geometry": { "type": "Point", "coordinates": [ 44.121094, 4.477856 ] } }
{ "type": "Feature", "tippecanoe": { "layer": "2AFCA06D65C01583918093343", "minzoom": 2, "maxzoom": 8 }, "properties": { "halo": 1.6, "title": "彼尔姆人", "fontsize": 12, "tyid": "304001", "oid": "103:1562760084581", "color": "#0056E7" }, "geometry": { "type": "Point", "coordinates": [ 55.371094, 57.844751 ] } }
{ "type": "Feature", "tippecanoe": { "layer": "2AFCA06D65C01583918093343", "minzoom": 2, "maxzoom": 8 }, "properties": { "halo": 1.6, "title": "东马扎尔人", "fontsize": 12, "tyid": "304001", "oid": "103:1562760084961", "color": "#0056E7" }, "geometry": { "type": "Point", "coordinates": [ 59.238281, 61.396719 ] } }
{ "type": "Feature", "tippecanoe": { "layer": "2AFCA06D65C01583918093343", "minzoom": 2, "maxzoom": 8 }, "properties": { "halo": 1.6, "title": "萨尔马提亚人", "fontsize": 12, "tyid": "304001", "oid": "103:1562760084833", "color": "#0056E7" }, "geometry": { "type": "Point", "coordinates": [ 45.439453, 50.958427 ] } }
{ "type": "Feature", "tippecanoe": { "layer": "2AFCA06D65C01583918093343", "minzoom": 2, "maxzoom": 8 }, "properties": { "halo": 1.6, "title": "奥苏伊人", "fontsize": 12, "tyid": "304001", "oid": "103:1562760084779", "color": "#0056E7" }, "geometry": { "type": "Point", "coordinates": [ 45.527344, 45.398450 ] } }
{ "type": "Feature", "tippecanoe": { "layer": "2AFCA06D65C01583918093343", "minzoom": 2, "maxzoom": 8 }, "properties": { "halo": 1.6, "title": "阿兰人", "fontsize": 12, "tyid": "304001", "oid": "103:1562760084776", "color": "#0056E7" }, "geometry": { "type": "Point", "coordinates": [ 54.580078, 47.457809 ] } }
{ "type": "Feature", "tippecanoe": { "layer": "2AFCA06D65C01583918093343", "minzoom": 2, "maxzoom": 8 }, "properties": { "halo": 1.6, "title": "大益人", "fontsize": 12, "tyid": "304001", "oid": "103:1562760084546", "color": "#0056E7" }, "geometry": { "type": "Point", "coordinates": [ 54.228516, 42.423457 ] } }
{ "type": "Feature", "tippecanoe": { "layer": "2AFCA06D65C01583918093343", "minzoom": 2, "maxzoom": 8 }, "properties": { "halo": 1.6, "title": "萨迦蒂安文化", "fontsize": 12, "tyid": "304002", "oid": "103:1562760084912", "color": "#0056E7" }, "geometry": { "type": "Point", "coordinates": [ 67.500000, 55.924586 ] } }
{ "type": "Feature", "tippecanoe": { "layer": "2AFCA06D65C01583918093343", "minzoom": 2, "maxzoom": 8 }, "properties": { "halo": 1.6, "title": "乌戈尔人", "fontsize": 12, "tyid": "304001", "oid": "103:1562760084980", "color": "#0056E7" }, "geometry": { "type": "Point", "coordinates": [ 76.816406, 57.279043 ] } }
{ "type": "Feature", "tippecanoe": { "layer": "2AFCA06D65C01583918093343", "minzoom": 2, "maxzoom": 8 }, "properties": { "halo": 1.6, "title": "库莱文化", "fontsize": 12, "tyid": "304002", "oid": "103:1562760084750", "color": "#0056E7" }, "geometry": { "type": "Point", "coordinates": [ 84.023438, 59.085739 ] } }
{ "type": "Feature", "tippecanoe": { "layer": "2AFCA06D65C01583918093343", "minzoom": 2, "maxzoom": 8 }, "properties": { "halo": 1.6, "title": "康居国", "fontsize": 12, "tyid": "304001", "oid": "103:1562760084745", "color": "#0056E7" }, "geometry": { "type": "Point", "coordinates": [ 67.675781, 44.402392 ] } }
{ "type": "Feature", "tippecanoe": { "layer": "2AFCA06D65C01583918093343", "minzoom": 2, "maxzoom": 8 }, "properties": { "halo": 1.8, "title": "乌孙国", "fontsize": 12, "tyid": "304000", "oid": "103:1562760085112", "color": "#0056E7" }, "geometry": { "type": "Point", "coordinates": [ 78.222656, 43.516689 ] } }
{ "type": "Feature", "tippecanoe": { "layer": "2AFCA06D65C01583918093343", "minzoom": 2, "maxzoom": 8 }, "properties": { "halo": 1.8, "title": "帕提亚帝国", "fontsize": 12, "tyid": "304000", "oid": "103:1562760084426", "color": "#0056E7" }, "geometry": { "type": "Point", "coordinates": [ 54.843750, 32.694866 ] } }
{ "type": "Feature", "tippecanoe": { "layer": "2AFCA06D65C01583918093343", "minzoom": 2, "maxzoom": 8 }, "properties": { "halo": 1.6, "title": "大月氏", "fontsize": 12, "tyid": "304001", "oid": "103:1562760084298", "color": "#0056E7" }, "geometry": { "type": "Point", "coordinates": [ 66.972656, 39.842286 ] } }
{ "type": "Feature", "tippecanoe": { "layer": "2AFCA06D65C01583918093343", "minzoom": 2, "maxzoom": 8 }, "properties": { "halo": 1.6, "title": "印度-斯基泰王国", "fontsize": 12, "tyid": "304001", "oid": "103:1562760084822", "color": "#0056E7" }, "geometry": { "type": "Point", "coordinates": [ 64.511719, 35.317366 ] } }
{ "type": "Feature", "tippecanoe": { "layer": "2AFCA06D65C01583918093343", "minzoom": 2, "maxzoom": 8 }, "properties": { "halo": 1.6, "title": "贝都因人", "fontsize": 12, "tyid": "304001", "oid": "103:1562760084421", "color": "#0056E7" }, "geometry": { "type": "Point", "coordinates": [ 48.164062, 21.698265 ] } }
{ "type": "Feature", "tippecanoe": { "layer": "2AFCA06D65C01583918093343", "minzoom": 2, "maxzoom": 8 }, "properties": { "halo": 1.8, "title": "马克鲁比亚王国", "fontsize": 12, "tyid": "304000", "oid": "103:1562760084907", "color": "#0056E7" }, "geometry": { "type": "Point", "coordinates": [ 49.130859, 9.102097 ] } }
{ "type": "Feature", "tippecanoe": { "layer": "2AFCA06D65C01583918093343", "minzoom": 2, "maxzoom": 8 }, "properties": { "halo": 1.8, "title": "大夏", "fontsize": 12, "tyid": "304000", "oid": "103:1562760084817", "color": "#0056E7" }, "geometry": { "type": "Point", "coordinates": [ 70.136719, 35.746512 ] } }
{ "type": "Feature", "tippecanoe": { "layer": "2AFCA06D65C01583918093343", "minzoom": 2, "maxzoom": 8 }, "properties": { "halo": 1.8, "title": "印度-希腊王国", "fontsize": 12, "tyid": "304000", "oid": "103:1562760084815", "color": "#0056E7" }, "geometry": { "type": "Point", "coordinates": [ 72.421875, 27.215556 ] } }
{ "type": "Feature", "tippecanoe": { "layer": "2AFCA06D65C01583918093343", "minzoom": 2, "maxzoom": 8 }, "properties": { "halo": 1.8, "title": "象雄王国", "fontsize": 12, "tyid": "304000", "oid": "103:1562760084473", "color": "#0056E7" }, "geometry": { "type": "Point", "coordinates": [ 82.177734, 31.428663 ] } }
{ "type": "Feature", "tippecanoe": { "layer": "2AFCA06D65C01583918093343", "minzoom": 2, "maxzoom": 8 }, "properties": { "halo": 1.8, "title": "巽伽王朝", "fontsize": 12, "tyid": "304000", "oid": "103:1562760084642", "color": "#0056E7" }, "geometry": { "type": "Point", "coordinates": [ 85.253906, 23.966176 ] } }
{ "type": "Feature", "tippecanoe": { "layer": "2AFCA06D65C01583918093343", "minzoom": 2, "maxzoom": 8 }, "properties": { "halo": 1.8, "title": "百乘王朝", "fontsize": 12, "tyid": "304000", "oid": "103:1562760084538", "color": "#0056E7" }, "geometry": { "type": "Point", "coordinates": [ 77.167969, 17.308688 ] } }
{ "type": "Feature", "tippecanoe": { "layer": "2AFCA06D65C01583918093343", "minzoom": 2, "maxzoom": 8 }, "properties": { "halo": 1.6, "title": "匈奴", "fontsize": 12, "tyid": "304001", "oid": "103:1562760084405", "color": "#0056E7" }, "geometry": { "type": "Point", "coordinates": [ 98.085938, 48.283193 ] } }
{ "type": "Feature", "tippecanoe": { "layer": "2AFCA06D65C01583918093343", "minzoom": 2, "maxzoom": 8 }, "properties": { "halo": 1.6, "title": "通古斯人", "fontsize": 12, "tyid": "304001", "oid": "103:1562760084828", "color": "#0056E7" }, "geometry": { "type": "Point", "coordinates": [ 116.718750, 60.759160 ] } }
{ "type": "Feature", "tippecanoe": { "layer": "2AFCA06D65C01583918093343", "minzoom": 2, "maxzoom": 8 }, "properties": { "halo": 1.6, "title": "鲜卑", "fontsize": 12, "tyid": "304001", "oid": "103:1562760084707", "color": "#0056E7" }, "geometry": { "type": "Point", "coordinates": [ 124.277344, 51.672555 ] } }
{ "type": "Feature", "tippecanoe": { "layer": "2AFCA06D65C01583918093343", "minzoom": 2, "maxzoom": 8 }, "properties": { "halo": 1.8, "title": "扶余", "fontsize": 12, "tyid": "304000", "oid": "103:1562760084337", "color": "#0056E7" }, "geometry": { "type": "Point", "coordinates": [ 124.892578, 45.274886 ] } }
{ "type": "Feature", "tippecanoe": { "layer": "2AFCA06D65C01583918093343", "minzoom": 2, "maxzoom": 8 }, "properties": { "halo": 1.6, "title": "肃慎", "fontsize": 12, "tyid": "304001", "oid": "103:1562760084584", "color": "#0056E7" }, "geometry": { "type": "Point", "coordinates": [ 133.242188, 46.980252 ] } }
{ "type": "Feature", "tippecanoe": { "layer": "2AFCA06D65C01583918093343", "minzoom": 2, "maxzoom": 8 }, "properties": { "halo": 1.6, "title": "苏毗", "fontsize": 12, "tyid": "304001", "oid": "103:1562760084943", "color": "#0056E7" }, "geometry": { "type": "Point", "coordinates": [ 93.603516, 33.137551 ] } }
{ "type": "Feature", "tippecanoe": { "layer": "2AFCA06D65C01583918093343", "minzoom": 2, "maxzoom": 8 }, "properties": { "halo": 1.6, "title": "古羌人", "fontsize": 12, "tyid": "304001", "oid": "103:1562760084947", "color": "#0056E7" }, "geometry": { "type": "Point", "coordinates": [ 99.931641, 32.249974 ] } }
{ "type": "Feature", "tippecanoe": { "layer": "2AFCA06D65C01583918093343", "minzoom": 2, "maxzoom": 8 }, "properties": { "halo": 1.8, "title": "哀牢国", "fontsize": 12, "tyid": "304000", "oid": "103:1562760084885", "color": "#0056E7" }, "geometry": { "type": "Point", "coordinates": [ 100.107422, 22.593726 ] } }
{ "type": "Feature", "tippecanoe": { "layer": "2AFCA06D65C01583918093343", "minzoom": 2, "maxzoom": 8 }, "properties": { "halo": 1.8, "title": "西汉", "fontsize": 12, "tyid": "304000", "oid": "103:1562760084846", "color": "#0056E7" }, "geometry": { "type": "Point", "coordinates": [ 111.181641, 34.307144 ] } }
{ "type": "Feature", "tippecanoe": { "layer": "2AFCA06D65C01583918093343", "minzoom": 2, "maxzoom": 8 }, "properties": { "halo": 1.8, "title": "南越国", "fontsize": 12, "tyid": "304000", "oid": "103:1562760084837", "color": "#0056E7" }, "geometry": { "type": "Point", "coordinates": [ 110.830078, 23.563987 ] } }
{ "type": "Feature", "tippecanoe": { "layer": "2AFCA06D65C01583918093343", "minzoom": 2, "maxzoom": 8 }, "properties": { "halo": 1.6, "title": "南岛人", "fontsize": 12, "tyid": "304001", "oid": "103:1562760085020", "color": "#0056E7" }, "geometry": { "type": "Point", "coordinates": [ 114.169922, 0.878872 ] } }
{ "type": "Feature", "tippecanoe": { "layer": "2AFCA06D65C01583918093343", "minzoom": 2, "maxzoom": 8 }, "properties": { "halo": 1.6, "title": "尤卡吉尔人", "fontsize": 12, "tyid": "304001", "oid": "103:1562760084549", "color": "#0056E7" }, "geometry": { "type": "Point", "coordinates": [ 155.214844, 64.886265 ] } }
{ "type": "Feature", "tippecanoe": { "layer": "2AFCA06D65C01583918093343", "minzoom": 2, "maxzoom": 8 }, "properties": { "halo": 1.6, "title": "尼夫赫人", "fontsize": 12, "tyid": "304001", "oid": "103:1562760084380", "color": "#0056E7" }, "geometry": { "type": "Point", "coordinates": [ 138.779297, 51.890054 ] } }
{ "type": "Feature", "tippecanoe": { "layer": "2AFCA06D65C01583918093343", "minzoom": 2, "maxzoom": 8 }, "properties": { "halo": 1.6, "title": "科里亚克族", "fontsize": 12, "tyid": "304001", "oid": "103:1562760084727", "color": "#0056E7" }, "geometry": { "type": "Point", "coordinates": [ 164.882812, 61.814664 ] } }
{ "type": "Feature", "tippecanoe": { "layer": "2AFCA06D65C01583918093343", "minzoom": 2, "maxzoom": 8 }, "properties": { "halo": 1.6, "title": "楚科奇人", "fontsize": 12, "tyid": "304001", "oid": "103:1562760085022", "color": "#0056E7" }, "geometry": { "type": "Point", "coordinates": [ 171.035156, 66.443107 ] } }
{ "type": "Feature", "tippecanoe": { "layer": "2AFCA06D65C01583918093343", "minzoom": 2, "maxzoom": 8 }, "properties": { "halo": 1.6, "title": "弥生人", "fontsize": 12, "tyid": "304001", "oid": "103:1562760084620", "color": "#0056E7" }, "geometry": { "type": "Point", "coordinates": [ 139.218750, 36.668419 ] } }
{ "type": "Feature", "tippecanoe": { "layer": "2AFCA06D65C01583918093343", "minzoom": 2, "maxzoom": 8 }, "properties": { "halo": 1.6, "title": "西北班图人诸部", "fontsize": 12, "tyid": "304001", "oid": "103:1562760084977", "color": "#0056E7" }, "geometry": { "type": "Point", "coordinates": [ 20.742188, -0.527336 ] } }
{ "type": "Feature", "tippecanoe": { "layer": "2AFCA06D65C01583918093343", "minzoom": 2, "maxzoom": 8 }, "properties": { "halo": 1.6, "title": "西班图人诸部", "fontsize": 12, "tyid": "304001", "oid": "103:1562760084191", "color": "#0056E7" }, "geometry": { "type": "Point", "coordinates": [ 21.972656, -8.494105 ] } }
{ "type": "Feature", "tippecanoe": { "layer": "2AFCA06D65C01583918093343", "minzoom": 2, "maxzoom": 8 }, "properties": { "halo": 1.6, "title": "东班图人诸部", "fontsize": 12, "tyid": "304001", "oid": "103:1562760084188", "color": "#0056E7" }, "geometry": { "type": "Point", "coordinates": [ 35.683594, -9.795678 ] } }
{ "type": "Feature", "tippecanoe": { "layer": "2AFCA06D65C01583918093343", "minzoom": 2, "maxzoom": 8 }, "properties": { "halo": 1.6, "title": "科伊桑人", "fontsize": 12, "tyid": "304001", "oid": "103:1562760084967", "color": "#0056E7" }, "geometry": { "type": "Point", "coordinates": [ 23.466797, -22.350076 ] } }
{ "type": "Feature", "tippecanoe": { "layer": "2AFCA06D65C01583918093343", "minzoom": 2, "maxzoom": 8 }, "properties": { "halo": 1.6, "title": "澳洲原住民", "fontsize": 12, "tyid": "304001", "oid": "103:1562760084232", "color": "#0056E7" }, "geometry": { "type": "Point", "coordinates": [ 134.296875, -25.562265 ] } }
{ "type": "Feature", "tippecanoe": { "layer": "2AFCA06D65C01583918093343", "minzoom": 2, "maxzoom": 8 }, "properties": { "halo": 1.6, "title": "巴布亚人", "fontsize": 12, "tyid": "304001", "oid": "103:1562760084254", "color": "#0056E7" }, "geometry": { "type": "Point", "coordinates": [ 140.888672, -5.266008 ] } }
{ "type": "Feature", "tippecanoe": { "layer": "2AFCA06D6BE01583918093349", "minzoom": 2, "maxzoom": 8 }, "properties": { "tyid": "410000", "centroid": "{\"type\":\"Point\",\"coordinates\":[102.890655519,50.32448578]}", "opacity": 1, "oid": "103:1582721307215", "color": "#A11300", "width": 3 }, "geometry": { "type": "MultiLineString", "coordinates": [ [ [ 108.017578, 21.616579 ], [ 106.611328, 22.024546 ], [ 106.523438, 22.512557 ], [ 106.699219, 22.836946 ], [ 105.820312, 22.998852 ], [ 105.205078, 23.402765 ], [ 103.886719, 22.512557 ], [ 103.535156, 22.836946 ], [ 103.183594, 22.105999 ], [ 102.480469, 22.512557 ], [ 101.777344, 21.861499 ], [ 101.689453, 21.207459 ], [ 101.162109, 21.207459 ], [ 100.986328, 21.779905 ], [ 100.195312, 21.534847 ], [ 99.843750, 22.105999 ], [ 99.140625, 22.187405 ], [ 99.228516, 22.917923 ], [ 98.437500, 23.079732 ], [ 98.701172, 23.402765 ], [ 98.349609, 23.966176 ], [ 98.525391, 24.206890 ], [ 97.294922, 23.805450 ], [ 97.470703, 25.324167 ], [ 98.261719, 26.431228 ], [ 98.701172, 26.667096 ], [ 98.613281, 27.605671 ], [ 98.261719, 27.605671 ], [ 98.085938, 28.226970 ], [ 97.558594, 28.536275 ], [ 97.031250, 27.761330 ], [ 96.240234, 28.304381 ], [ 95.625000, 28.304381 ], [ 94.218750, 27.605671 ], [ 93.691406, 27.059126 ], [ 92.988281, 26.902477 ], [ 92.021484, 26.902477 ], [ 92.109375, 27.371767 ], [ 91.494141, 27.605671 ], [ 91.494141, 27.916767 ], [ 90.791016, 28.071980 ] ], [ [ 130.605469, 42.293564 ], [ 130.166016, 42.940339 ], [ 129.814453, 43.004647 ], [ 129.638672, 42.488302 ], [ 129.287109, 42.423457 ], [ 128.847656, 42.032974 ], [ 127.968750, 42.032974 ], [ 128.232422, 41.574361 ], [ 128.056641, 41.442726 ], [ 127.177734, 41.508577 ], [ 126.826172, 41.836828 ], [ 125.947266, 40.913513 ], [ 124.804688, 40.513799 ], [ 124.277344, 40.044438 ] ], [ [ 135.263672, 54.775346 ], [ 132.978516, 54.162434 ], [ 130.517578, 54.110943 ], [ 131.835938, 54.927142 ], [ 131.044922, 55.677584 ], [ 129.462891, 55.776573 ], [ 128.759766, 55.528631 ], [ 127.705078, 55.727110 ], [ 126.123047, 55.627996 ], [ 125.859375, 55.825973 ], [ 124.804688, 55.924586 ], [ 123.134766, 54.775346 ], [ 121.376953, 54.265224 ], [ 121.025391, 54.521081 ], [ 120.234375, 54.162434 ], [ 119.267578, 54.007769 ], [ 119.003906, 53.383328 ], [ 119.179688, 53.120405 ], [ 120.058594, 53.488046 ], [ 121.201172, 53.540307 ], [ 121.376953, 53.383328 ], [ 120.761719, 53.278353 ], [ 119.970703, 52.802761 ], [ 120.058594, 52.589701 ], [ 120.673828, 52.536273 ], [ 120.673828, 51.998410 ], [ 120.058594, 51.672555 ], [ 119.091797, 50.401515 ], [ 119.355469, 50.401515 ], [ 119.267578, 50.120578 ], [ 118.037109, 49.610710 ], [ 116.191406, 50.064192 ], [ 115.312500, 49.951220 ], [ 114.960938, 50.233152 ], [ 114.257812, 50.289339 ], [ 112.675781, 49.496675 ], [ 110.654297, 49.152970 ], [ 108.457031, 49.382373 ], [ 107.929688, 49.724479 ], [ 107.929688, 49.951220 ], [ 107.050781, 50.064192 ], [ 106.523438, 50.345460 ], [ 105.292969, 50.513427 ], [ 103.974609, 50.176898 ], [ 103.271484, 50.233152 ], [ 102.216797, 50.625073 ], [ 102.041016, 51.399206 ], [ 98.964844, 52.106505 ], [ 98.613281, 52.482780 ], [ 98.876953, 52.908902 ], [ 99.140625, 52.961875 ], [ 98.789062, 53.173119 ], [ 98.173828, 53.120405 ], [ 96.767578, 53.800651 ], [ 96.416016, 53.592505 ], [ 94.658203, 53.435719 ], [ 94.394531, 52.961875 ], [ 94.130859, 52.908902 ], [ 93.515625, 52.214339 ], [ 92.812500, 51.890054 ], [ 91.054688, 51.890054 ], [ 90.175781, 52.696361 ], [ 87.802734, 53.383328 ], [ 86.396484, 53.173119 ], [ 86.132812, 52.908902 ], [ 83.056641, 51.618017 ], [ 82.617188, 51.179343 ], [ 83.056641, 50.958427 ], [ 83.232422, 50.513427 ], [ 82.529297, 49.724479 ], [ 82.529297, 49.325122 ], [ 81.298828, 48.690960 ], [ 81.035156, 48.166085 ], [ 79.628906, 47.694974 ], [ 79.453125, 46.800059 ], [ 78.750000, 46.800059 ], [ 78.750000, 46.619261 ], [ 78.574219, 46.800059 ], [ 78.222656, 46.498392 ], [ 77.783203, 46.679594 ], [ 74.531250, 46.800059 ], [ 73.564453, 46.134170 ], [ 73.388672, 45.706179 ], [ 72.070312, 44.964798 ], [ 70.488281, 44.402392 ], [ 69.521484, 43.452919 ], [ 70.927734, 42.293564 ], [ 73.212891, 42.163403 ], [ 73.916016, 41.836828 ], [ 74.003906, 41.574361 ], [ 73.300781, 41.508577 ], [ 73.828125, 41.046217 ], [ 73.212891, 40.847060 ], [ 72.949219, 40.446947 ], [ 73.125000, 40.044438 ], [ 72.773438, 39.842286 ], [ 72.861328, 39.368279 ], [ 72.421875, 39.436193 ], [ 72.070312, 39.095963 ], [ 72.246094, 38.548165 ], [ 71.894531, 38.272689 ], [ 72.158203, 37.649034 ], [ 71.718750, 36.738884 ], [ 73.476562, 37.509726 ], [ 73.740234, 37.439974 ], [ 73.740234, 37.160317 ], [ 74.531250, 37.090240 ], [ 75.673828, 36.385913 ], [ 75.761719, 36.031332 ], [ 74.882812, 35.817813 ], [ 75.322266, 35.173808 ], [ 75.146484, 34.669359 ], [ 76.113281, 33.578015 ], [ 77.080078, 32.990236 ], [ 77.080078, 32.472695 ], [ 77.871094, 31.802893 ], [ 78.662109, 31.728167 ], [ 79.013672, 31.052934 ], [ 79.892578, 30.826781 ], [ 80.683594, 30.145127 ], [ 82.001953, 30.145127 ], [ 83.583984, 29.228890 ], [ 83.935547, 29.305561 ], [ 84.462891, 28.536275 ], [ 85.605469, 28.226970 ], [ 85.869141, 27.916767 ], [ 87.714844, 27.839076 ], [ 88.681641, 28.071980 ], [ 88.945312, 27.215556 ], [ 89.560547, 28.226970 ], [ 90.791016, 28.071980 ] ] ] } }
{ "type": "Feature", "tippecanoe": { "layer": "2AFCA06D6BE01583918093349", "minzoom": 2, "maxzoom": 8 }, "properties": { "tyid": "410000", "centroid": "{\"type\":\"Point\",\"coordinates\":[118.9965612163,11.9748626986]}", "opacity": 1, "oid": "103:1582721307213", "color": "#A11300", "width": 3 }, "geometry": { "type": "MultiLineString", "coordinates": [ [ [ 122.695312, 24.447150 ], [ 122.431641, 23.402765 ] ], [ [ 120.849609, 20.550509 ], [ 121.728516, 21.616579 ] ], [ [ 119.355469, 17.727759 ], [ 119.794922, 18.895893 ] ], [ [ 118.916016, 14.689881 ], [ 118.916016, 16.045813 ] ], [ [ 118.476562, 10.833306 ], [ 119.003906, 12.039321 ] ], [ [ 115.312500, 7.013668 ], [ 116.191406, 8.059230 ] ], [ [ 111.708984, 3.425692 ], [ 112.939453, 3.864255 ] ], [ [ 108.281250, 5.965754 ], [ 108.193359, 7.362467 ] ], [ [ 110.039062, 11.264612 ], [ 110.214844, 12.468760 ] ], [ [ 109.775391, 15.029686 ], [ 109.248047, 16.214675 ] ] ] } }
{ "type": "Feature", "tippecanoe": { "layer": "2AFCA06D6E481583918093345", "minzoom": 2, "maxzoom": 8 }, "properties": { "halo": 1.6, "title": "拉霍亚文化", "fontsize": 12, "tyid": "304002", "oid": "103:1562760084535", "color": "#0056E7" }, "geometry": { "type": "Point", "coordinates": [ -118.916016, 34.597042 ] } }
{ "type": "Feature", "tippecanoe": { "layer": "2AFCA06D6E481583918093345", "minzoom": 2, "maxzoom": 8 }, "properties": { "halo": 1.6, "title": "古普韦布洛人", "fontsize": 12, "tyid": "304001", "oid": "103:1562760084203", "color": "#0056E7" }, "geometry": { "type": "Point", "coordinates": [ -110.126953, 36.949892 ] } }
{ "type": "Feature", "tippecanoe": { "layer": "2AFCA06D6E481583918093345", "minzoom": 2, "maxzoom": 8 }, "properties": { "halo": 1.6, "title": "奇瓦瓦文化", "fontsize": 12, "tyid": "304002", "oid": "103:1562760084973", "color": "#0056E7" }, "geometry": { "type": "Point", "coordinates": [ -107.226562, 32.768800 ] } }
{ "type": "Feature", "tippecanoe": { "layer": "2AFCA06D6E481583918093345", "minzoom": 2, "maxzoom": 8 }, "properties": { "halo": 1.6, "title": "奥沙拉文化", "fontsize": 12, "tyid": "304002", "oid": "103:1562760084295", "color": "#0056E7" }, "geometry": { "type": "Point", "coordinates": [ -106.699219, 37.579413 ] } }
{ "type": "Feature", "tippecanoe": { "layer": "2AFCA06D6E481583918093345", "minzoom": 2, "maxzoom": 8 }, "properties": { "halo": 1.6, "title": "瓜伊库拉人", "fontsize": 12, "tyid": "304001", "oid": "103:1562760084517", "color": "#0056E7" }, "geometry": { "type": "Point", "coordinates": [ -111.269531, 24.846565 ] } }
{ "type": "Feature", "tippecanoe": { "layer": "2AFCA06D6E481583918093345", "minzoom": 2, "maxzoom": 8 }, "properties": { "halo": 1.6, "title": "哈瓦那霍普韦尔文化", "fontsize": 12, "tyid": "304002", "oid": "103:1562760084944", "color": "#0056E7" }, "geometry": { "type": "Point", "coordinates": [ -90.966797, 40.580585 ] } }
{ "type": "Feature", "tippecanoe": { "layer": "2AFCA06D6E481583918093345", "minzoom": 2, "maxzoom": 8 }, "properties": { "halo": 1.6, "title": "喀多语密西西比文化", "fontsize": 12, "tyid": "304002", "oid": "103:1562760084872", "color": "#0056E7" }, "geometry": { "type": "Point", "coordinates": [ -94.482422, 35.960223 ] } }
{ "type": "Feature", "tippecanoe": { "layer": "2AFCA06D6E481583918093345", "minzoom": 2, "maxzoom": 8 }, "properties": { "halo": 1.6, "title": "福切马里尼文化", "fontsize": 12, "tyid": "304002", "oid": "103:1562760084470", "color": "#0056E7" }, "geometry": { "type": "Point", "coordinates": [ -94.306641, 33.358062 ] } }
{ "type": "Feature", "tippecanoe": { "layer": "2AFCA06D6E481583918093345", "minzoom": 2, "maxzoom": 8 }, "properties": { "halo": 1.6, "title": "楚拉时期", "fontsize": 12, "tyid": "304002", "oid": "103:1562760084555", "color": "#0056E7" }, "geometry": { "type": "Point", "coordinates": [ -92.021484, 32.472695 ] } }
{ "type": "Feature", "tippecanoe": { "layer": "2AFCA06D6E481583918093345", "minzoom": 2, "maxzoom": 8 }, "properties": { "halo": 1.6, "title": "华斯塔克文明", "fontsize": 12, "tyid": "304002", "oid": "103:1562760084357", "color": "#0056E7" }, "geometry": { "type": "Point", "coordinates": [ -98.613281, 22.105999 ] } }
{ "type": "Feature", "tippecanoe": { "layer": "2AFCA06D6E481583918093345", "minzoom": 2, "maxzoom": 8 }, "properties": { "halo": 1.6, "title": "奇蒂玛察人", "fontsize": 12, "tyid": "304001", "oid": "103:1562760084807", "color": "#0056E7" }, "geometry": { "type": "Point", "coordinates": [ -91.054688, 30.372875 ] } }
{ "type": "Feature", "tippecanoe": { "layer": "2AFCA06D6E481583918093345", "minzoom": 2, "maxzoom": 8 }, "properties": { "halo": 1.6, "title": "特切特兰文化", "fontsize": 12, "tyid": "304002", "oid": "103:1562760084898", "color": "#0056E7" }, "geometry": { "type": "Point", "coordinates": [ -104.326172, 20.468189 ] } }
{ "type": "Feature", "tippecanoe": { "layer": "2AFCA06D6E481583918093345", "minzoom": 2, "maxzoom": 8 }, "properties": { "halo": 1.6, "title": "萨波特克文明", "fontsize": 12, "tyid": "304002", "oid": "103:1562760084216", "color": "#0056E7" }, "geometry": { "type": "Point", "coordinates": [ -96.064453, 16.636192 ] } }
{ "type": "Feature", "tippecanoe": { "layer": "2AFCA06D6E481583918093345", "minzoom": 2, "maxzoom": 8 }, "properties": { "halo": 1.6, "title": "古德尔文化", "fontsize": 12, "tyid": "304002", "oid": "103:1562760084842", "color": "#0056E7" }, "geometry": { "type": "Point", "coordinates": [ -85.869141, 43.133061 ] } }
{ "type": "Feature", "tippecanoe": { "layer": "2AFCA06D6E481583918093345", "minzoom": 2, "maxzoom": 8 }, "properties": { "halo": 1.6, "title": "索根文化", "fontsize": 12, "tyid": "304002", "oid": "103:1562760084844", "color": "#0056E7" }, "geometry": { "type": "Point", "coordinates": [ -81.298828, 43.707594 ] } }
{ "type": "Feature", "tippecanoe": { "layer": "2AFCA06D6E481583918093345", "minzoom": 2, "maxzoom": 8 }, "properties": { "halo": 1.6, "title": "俄亥俄霍普韦尔文化", "fontsize": 12, "tyid": "304002", "oid": "103:1562760084416", "color": "#0056E7" }, "geometry": { "type": "Point", "coordinates": [ -83.056641, 39.504041 ] } }
{ "type": "Feature", "tippecanoe": { "layer": "2AFCA06D6E481583918093345", "minzoom": 2, "maxzoom": 8 }, "properties": { "halo": 1.6, "title": "德普特福德文化", "fontsize": 12, "tyid": "304002", "oid": "103:1562760084540", "color": "#0056E7" }, "geometry": { "type": "Point", "coordinates": [ -79.628906, 33.358062 ] } }
{ "type": "Feature", "tippecanoe": { "layer": "2AFCA06D6E481583918093345", "minzoom": 2, "maxzoom": 8 }, "properties": { "halo": 1.6, "title": "切格文特文化", "fontsize": 12, "tyid": "304002", "oid": "103:1562760084461", "color": "#0056E7" }, "geometry": { "type": "Point", "coordinates": [ -89.208984, 30.600094 ] } }
{ "type": "Feature", "tippecanoe": { "layer": "2AFCA06D6E481583918093345", "minzoom": 2, "maxzoom": 8 }, "properties": { "halo": 1.6, "title": "玛雅文明[前古典时期]", "fontsize": 12, "tyid": "304002", "oid": "103:1576922421694", "color": "#0056E7" }, "geometry": { "type": "Point", "coordinates": [ -89.296875, 17.056785 ] } }
{ "type": "Feature", "tippecanoe": { "layer": "2AFCA06D6E481583918093345", "minzoom": 2, "maxzoom": 8 }, "properties": { "halo": 1.6, "title": "兹努文化", "fontsize": 12, "tyid": "304002", "oid": "103:1562760084413", "color": "#0056E7" }, "geometry": { "type": "Point", "coordinates": [ -75.585938, 8.581021 ] } }
{ "type": "Feature", "tippecanoe": { "layer": "2AFCA06D6E481583918093345", "minzoom": 2, "maxzoom": 8 }, "properties": { "halo": 1.6, "title": "拉托利塔文化", "fontsize": 12, "tyid": "304002", "oid": "103:1562760084682", "color": "#0056E7" }, "geometry": { "type": "Point", "coordinates": [ -78.046875, 1.757537 ] } }
{ "type": "Feature", "tippecanoe": { "layer": "2AFCA06D6E481583918093345", "minzoom": 2, "maxzoom": 8 }, "properties": { "halo": 1.6, "title": "埃雷拉时期", "fontsize": 12, "tyid": "304002", "oid": "103:1562760084938", "color": "#0056E7" }, "geometry": { "type": "Point", "coordinates": [ -73.476562, 5.441022 ] } }
{ "type": "Feature", "tippecanoe": { "layer": "2AFCA06D6E481583918093345", "minzoom": 2, "maxzoom": 8 }, "properties": { "halo": 1.6, "title": "伊奈里人", "fontsize": 12, "tyid": "304001", "oid": "103:1562760084740", "color": "#0056E7" }, "geometry": { "type": "Point", "coordinates": [ -61.787109, 8.754795 ] } }
{ "type": "Feature", "tippecanoe": { "layer": "2AFCA06D6E481583918093345", "minzoom": 2, "maxzoom": 8 }, "properties": { "halo": 1.6, "title": "皮克特人", "fontsize": 12, "tyid": "304001", "oid": "103:1562760084864", "color": "#0056E7" }, "geometry": { "type": "Point", "coordinates": [ -4.042969, 56.704506 ] } }
{ "type": "Feature", "tippecanoe": { "layer": "2AFCA06D6E481583918093345", "minzoom": 2, "maxzoom": 8 }, "properties": { "halo": 1.6, "title": "盖尔人", "fontsize": 12, "tyid": "304001", "oid": "103:1562760084770", "color": "#0056E7" }, "geometry": { "type": "Point", "coordinates": [ -7.910156, 53.435719 ] } }
{ "type": "Feature", "tippecanoe": { "layer": "2AFCA06D6E481583918093345", "minzoom": 2, "maxzoom": 8 }, "properties": { "halo": 1.6, "title": "阿奎丹人", "fontsize": 12, "tyid": "304001", "oid": "103:1562760084289", "color": "#0056E7" }, "geometry": { "type": "Point", "coordinates": [ -0.175781, 43.834527 ] } }
{ "type": "Feature", "tippecanoe": { "layer": "2AFCA06D6E481583918093345", "minzoom": 2, "maxzoom": 8 }, "properties": { "halo": 1.8, "title": "毛里塔尼亚王国", "fontsize": 12, "tyid": "304000", "oid": "103:1562760084229", "color": "#0056E7" }, "geometry": { "type": "Point", "coordinates": [ -5.009766, 34.524661 ] } }
{ "type": "Feature", "tippecanoe": { "layer": "2AFCA06D6E481583918093345", "minzoom": 2, "maxzoom": 8 }, "properties": { "halo": 1.6, "title": "杰内-杰诺文化一期", "fontsize": 12, "tyid": "304002", "oid": "103:1562760084164", "color": "#0056E7" }, "geometry": { "type": "Point", "coordinates": [ -4.482422, 13.667338 ] } }
{ "type": "Feature", "tippecanoe": { "layer": "2AFCA06D6E481583918093345", "minzoom": 2, "maxzoom": 8 }, "properties": { "halo": 1.6, "title": "楚真文化", "fontsize": 12, "tyid": "304002", "oid": "103:1562760084523", "color": "#0056E7" }, "geometry": { "type": "Point", "coordinates": [ -70.576172, -16.299051 ] } }
{ "type": "Feature", "tippecanoe": { "layer": "2AFCA06D6E481583918093345", "minzoom": 2, "maxzoom": 8 }, "properties": { "halo": 1.6, "title": "普卡拉文化", "fontsize": 12, "tyid": "304002", "oid": "103:1562760084830", "color": "#0056E7" }, "geometry": { "type": "Point", "coordinates": [ -69.873047, -14.604847 ] } }
{ "type": "Feature", "tippecanoe": { "layer": "2AFCA06D6E481583918093345", "minzoom": 2, "maxzoom": 8 }, "properties": { "halo": 1.6, "title": "艾马拉人", "fontsize": 12, "tyid": "304001", "oid": "103:1562760084839", "color": "#0056E7" }, "geometry": { "type": "Point", "coordinates": [ -68.291016, -17.224758 ] } }
{ "type": "Feature", "tippecanoe": { "layer": "2AFCA06D6E481583918093345", "minzoom": 2, "maxzoom": 8 }, "properties": { "halo": 1.6, "title": "昌戈人", "fontsize": 12, "tyid": "304001", "oid": "103:1562760084335", "color": "#0056E7" }, "geometry": { "type": "Point", "coordinates": [ -69.960938, -23.725012 ] } }
{ "type": "Feature", "tippecanoe": { "layer": "2AFCA06D6E481583918093345", "minzoom": 2, "maxzoom": 8 }, "properties": { "halo": 1.6, "title": "阿拉米托文化", "fontsize": 12, "tyid": "304002", "oid": "103:1562760084386", "color": "#0056E7" }, "geometry": { "type": "Point", "coordinates": [ -67.851562, -26.588527 ] } }
{ "type": "Feature", "tippecanoe": { "layer": "2AFCA06D6E481583918093345", "minzoom": 2, "maxzoom": 8 }, "properties": { "halo": 1.6, "title": "埃尔莫尔文化", "fontsize": 12, "tyid": "304002", "oid": "103:1562760084481", "color": "#0056E7" }, "geometry": { "type": "Point", "coordinates": [ -70.927734, -30.675715 ] } }
{ "type": "Feature", "tippecanoe": { "layer": "2AFCA06D6E481583918093345", "minzoom": 2, "maxzoom": 8 }, "properties": { "halo": 1.6, "title": "安西尔塔文化", "fontsize": 12, "tyid": "304002", "oid": "103:1562760084208", "color": "#0056E7" }, "geometry": { "type": "Point", "coordinates": [ -68.818359, -31.353637 ] } }
{ "type": "Feature", "tippecanoe": { "layer": "2AFCA06D6E481583918093345", "minzoom": 2, "maxzoom": 8 }, "properties": { "halo": 1.6, "title": "巴托文化", "fontsize": 12, "tyid": "304002", "oid": "103:1562760084905", "color": "#0056E7" }, "geometry": { "type": "Point", "coordinates": [ -70.839844, -33.431441 ] } }
{ "type": "Feature", "tippecanoe": { "layer": "2AFCA06D6E481583918093345", "minzoom": 2, "maxzoom": 8 }, "properties": { "halo": 1.6, "title": "马普切人", "fontsize": 12, "tyid": "304001", "oid": "103:1562760084800", "color": "#0056E7" }, "geometry": { "type": "Point", "coordinates": [ -71.455078, -38.959409 ] } }
{ "type": "Feature", "tippecanoe": { "layer": "2AFCA06D6E481583918093345", "minzoom": 2, "maxzoom": 8 }, "properties": { "halo": 1.6, "title": "希德拉里卡文化", "fontsize": 12, "tyid": "304002", "oid": "103:1562760084764", "color": "#0056E7" }, "geometry": { "type": "Point", "coordinates": [ -66.005859, -12.297068 ] } }
{ "type": "Feature", "tippecanoe": { "layer": "2AFCA06D6E481583918093345", "minzoom": 2, "maxzoom": 8 }, "properties": { "halo": 1.6, "title": "摩克索人", "fontsize": 12, "tyid": "304001", "oid": "103:1562760084527", "color": "#0056E7" }, "geometry": { "type": "Point", "coordinates": [ -65.830078, -13.923404 ] } }
{ "type": "Feature", "tippecanoe": { "layer": "2AFCA06D6E481583918093345", "minzoom": 2, "maxzoom": 8 }, "properties": { "halo": 1.6, "title": "瓦卡拉尼文化", "fontsize": 12, "tyid": "304002", "oid": "103:1562760084758", "color": "#0056E7" }, "geometry": { "type": "Point", "coordinates": [ -64.951172, -17.811456 ] } }
{ "type": "Feature", "tippecanoe": { "layer": "2AFCA06D6E481583918093345", "minzoom": 2, "maxzoom": 8 }, "properties": { "halo": 1.6, "title": "康多拉瓦西文化", "fontsize": 12, "tyid": "304002", "oid": "103:1562760084810", "color": "#0056E7" }, "geometry": { "type": "Point", "coordinates": [ -66.708984, -27.293689 ] } }
{ "type": "Feature", "tippecanoe": { "layer": "2AFCA06D6E481583918093345", "minzoom": 2, "maxzoom": 8 }, "properties": { "halo": 1.6, "title": "拉斯梅塞德斯文化", "fontsize": 12, "tyid": "304002", "oid": "103:1562760084525", "color": "#0056E7" }, "geometry": { "type": "Point", "coordinates": [ -63.808594, -27.605671 ] } }
{ "type": "Feature", "tippecanoe": { "layer": "2AFCA06D6E481583918093345", "minzoom": 2, "maxzoom": 8 }, "properties": { "halo": 1.6, "title": "查鲁亚人", "fontsize": 12, "tyid": "304001", "oid": "103:1562760084478", "color": "#0056E7" }, "geometry": { "type": "Point", "coordinates": [ -57.128906, -32.398516 ] } }
{ "type": "Feature", "tippecanoe": { "layer": "2AFCA06D6E481583918093345", "minzoom": 2, "maxzoom": 8 }, "properties": { "halo": 1.6, "title": "特胡尔切人", "fontsize": 12, "tyid": "304001", "oid": "103:1562760084940", "color": "#0056E7" }, "geometry": { "type": "Point", "coordinates": [ -70.751953, -50.176898 ] } }
{ "type": "Feature", "tippecanoe": { "layer": "2AFCA06D6E481583918093345", "minzoom": 2, "maxzoom": 8 }, "properties": { "halo": 1.6, "title": "塞尔克南人", "fontsize": 12, "tyid": "304001", "oid": "103:1562760084332", "color": "#0056E7" }, "geometry": { "type": "Point", "coordinates": [ -68.378906, -53.696706 ] } }
{ "type": "Feature", "tippecanoe": { "layer": "2AFCA06D6E481583918093345", "minzoom": 2, "maxzoom": 8 }, "properties": { "halo": 1.6, "title": "雅干人", "fontsize": 12, "tyid": "304001", "oid": "103:1562760085015", "color": "#0056E7" }, "geometry": { "type": "Point", "coordinates": [ -68.730469, -54.572062 ] } }
{ "type": "Feature", "tippecanoe": { "layer": "2AFCA06D6E481583918093345", "minzoom": 2, "maxzoom": 8 }, "properties": { "halo": 1.6, "title": "朱特人", "fontsize": 12, "tyid": "304001", "oid": "103:1562760084687", "color": "#0056E7" }, "geometry": { "type": "Point", "coordinates": [ 9.316406, 56.267761 ] } }
{ "type": "Feature", "tippecanoe": { "layer": "2AFCA06D6E481583918093345", "minzoom": 2, "maxzoom": 8 }, "properties": { "halo": 1.6, "title": "耶阿特人", "fontsize": 12, "tyid": "304001", "oid": "103:1562760084178", "color": "#0056E7" }, "geometry": { "type": "Point", "coordinates": [ 13.623047, 57.891497 ] } }
{ "type": "Feature", "tippecanoe": { "layer": "2AFCA06D6E481583918093345", "minzoom": 2, "maxzoom": 8 }, "properties": { "halo": 1.6, "title": "弗里西人", "fontsize": 12, "tyid": "304001", "oid": "103:1562760084798", "color": "#0056E7" }, "geometry": { "type": "Point", "coordinates": [ 6.503906, 52.696361 ] } }
{ "type": "Feature", "tippecanoe": { "layer": "2AFCA06D6E481583918093345", "minzoom": 2, "maxzoom": 8 }, "properties": { "halo": 1.6, "title": "乔西人", "fontsize": 12, "tyid": "304001", "oid": "103:1562760084311", "color": "#0056E7" }, "geometry": { "type": "Point", "coordinates": [ 8.701172, 53.067627 ] } }
{ "type": "Feature", "tippecanoe": { "layer": "2AFCA06D6E481583918093345", "minzoom": 2, "maxzoom": 8 }, "properties": { "halo": 1.6, "title": "萨克森人", "fontsize": 12, "tyid": "304001", "oid": "103:1562760084313", "color": "#0056E7" }, "geometry": { "type": "Point", "coordinates": [ 9.843750, 54.007769 ] } }
{ "type": "Feature", "tippecanoe": { "layer": "2AFCA06D6E481583918093345", "minzoom": 2, "maxzoom": 8 }, "properties": { "halo": 1.6, "title": "赫尔维蒂人", "fontsize": 12, "tyid": "304001", "oid": "103:1562760084453", "color": "#0056E7" }, "geometry": { "type": "Point", "coordinates": [ 7.207031, 46.920255 ] } }
{ "type": "Feature", "tippecanoe": { "layer": "2AFCA06D6E481583918093345", "minzoom": 2, "maxzoom": 8 }, "properties": { "halo": 1.6, "title": "蕾蒂人", "fontsize": 12, "tyid": "304001", "oid": "103:1562760084689", "color": "#0056E7" }, "geometry": { "type": "Point", "coordinates": [ 11.074219, 46.860191 ] } }
{ "type": "Feature", "tippecanoe": { "layer": "2AFCA06D6E481583918093345", "minzoom": 2, "maxzoom": 8 }, "properties": { "halo": 1.6, "title": "利古里亚人", "fontsize": 12, "tyid": "304001", "oid": "103:1562760084640", "color": "#0056E7" }, "geometry": { "type": "Point", "coordinates": [ 6.591797, 43.897892 ] } }
{ "type": "Feature", "tippecanoe": { "layer": "2AFCA06D6E481583918093345", "minzoom": 2, "maxzoom": 8 }, "properties": { "halo": 1.6, "title": "伦巴第人", "fontsize": 12, "tyid": "304001", "oid": "103:1562760084309", "color": "#0056E7" }, "geometry": { "type": "Point", "coordinates": [ 12.656250, 53.540307 ] } }
{ "type": "Feature", "tippecanoe": { "layer": "2AFCA06D6E481583918093345", "minzoom": 2, "maxzoom": 8 }, "properties": { "halo": 1.6, "title": "西波罗的海坟文化", "fontsize": 12, "tyid": "304002", "oid": "103:1562760084986", "color": "#0056E7" }, "geometry": { "type": "Point", "coordinates": [ 21.708984, 54.213861 ] } }
{ "type": "Feature", "tippecanoe": { "layer": "2AFCA06D6E481583918093345", "minzoom": 2, "maxzoom": 8 }, "properties": { "halo": 1.6, "title": "汪达尔人", "fontsize": 12, "tyid": "304001", "oid": "103:1562760084265", "color": "#0056E7" }, "geometry": { "type": "Point", "coordinates": [ 19.423828, 50.625073 ] } }
{ "type": "Feature", "tippecanoe": { "layer": "2AFCA06D6E481583918093345", "minzoom": 2, "maxzoom": 8 }, "properties": { "halo": 1.6, "title": "伊利里亚人", "fontsize": 12, "tyid": "304001", "oid": "103:1562760084320", "color": "#0056E7" }, "geometry": { "type": "Point", "coordinates": [ 18.017578, 44.339565 ] } }
{ "type": "Feature", "tippecanoe": { "layer": "2AFCA06D6E481583918093345", "minzoom": 2, "maxzoom": 8 }, "properties": { "halo": 1.6, "title": "潘诺尼亚人", "fontsize": 12, "tyid": "304001", "oid": "103:1562760084276", "color": "#0056E7" }, "geometry": { "type": "Point", "coordinates": [ 19.775391, 44.590467 ] } }
{ "type": "Feature", "tippecanoe": { "layer": "2AFCA06D6E481583918093345", "minzoom": 2, "maxzoom": 8 }, "properties": { "halo": 1.8, "title": "达尔达尼亚王国", "fontsize": 12, "tyid": "304000", "oid": "103:1562760084342", "color": "#0056E7" }, "geometry": { "type": "Point", "coordinates": [ 21.445312, 42.617791 ] } }
{ "type": "Feature", "tippecanoe": { "layer": "2AFCA06D6E481583918093345", "minzoom": 2, "maxzoom": 8 }, "properties": { "halo": 1.6, "title": "古爱沙尼亚人", "fontsize": 12, "tyid": "304001", "oid": "103:1562760084732", "color": "#0056E7" }, "geometry": { "type": "Point", "coordinates": [ 25.576172, 58.995311 ] } }
{ "type": "Feature", "tippecanoe": { "layer": "2AFCA06D6E481583918093345", "minzoom": 2, "maxzoom": 8 }, "properties": { "halo": 1.6, "title": "利沃尼亚人", "fontsize": 12, "tyid": "304001", "oid": "103:1562760084292", "color": "#0056E7" }, "geometry": { "type": "Point", "coordinates": [ 25.839844, 58.170702 ] } }
{ "type": "Feature", "tippecanoe": { "layer": "2AFCA06D6E481583918093345", "minzoom": 2, "maxzoom": 8 }, "properties": { "halo": 1.6, "title": "古拉脱维亚人", "fontsize": 12, "tyid": "304001", "oid": "103:1562760084393", "color": "#0056E7" }, "geometry": { "type": "Point", "coordinates": [ 26.630859, 56.848972 ] } }
{ "type": "Feature", "tippecanoe": { "layer": "2AFCA06D6E481583918093345", "minzoom": 2, "maxzoom": 8 }, "properties": { "halo": 1.6, "title": "沃茨人", "fontsize": 12, "tyid": "304001", "oid": "103:1562760084323", "color": "#0056E7" }, "geometry": { "type": "Point", "coordinates": [ 29.794922, 59.040555 ] } }
{ "type": "Feature", "tippecanoe": { "layer": "2AFCA06D6E481583918093345", "minzoom": 2, "maxzoom": 8 }, "properties": { "halo": 1.6, "title": "阴影陶文化", "fontsize": 12, "tyid": "304002", "oid": "103:1562760084858", "color": "#0056E7" }, "geometry": { "type": "Point", "coordinates": [ 24.785156, 55.627996 ] } }
{ "type": "Feature", "tippecanoe": { "layer": "2AFCA06D6E481583918093345", "minzoom": 2, "maxzoom": 8 }, "properties": { "halo": 1.6, "title": "米洛格勒文化", "fontsize": 12, "tyid": "304002", "oid": "103:1562760084994", "color": "#0056E7" }, "geometry": { "type": "Point", "coordinates": [ 26.718750, 53.435719 ] } }
{ "type": "Feature", "tippecanoe": { "layer": "2AFCA06D6E481583918093345", "minzoom": 2, "maxzoom": 8 }, "properties": { "halo": 1.6, "title": "维内德人", "fontsize": 12, "tyid": "304001", "oid": "103:1562760084273", "color": "#0056E7" }, "geometry": { "type": "Point", "coordinates": [ 24.257812, 51.069017 ] } }
{ "type": "Feature", "tippecanoe": { "layer": "2AFCA06D6E481583918093345", "minzoom": 2, "maxzoom": 8 }, "properties": { "halo": 1.6, "title": "普热沃斯克文化", "fontsize": 12, "tyid": "304002", "oid": "103:1562760084262", "color": "#0056E7" }, "geometry": { "type": "Point", "coordinates": [ 23.203125, 49.152970 ] } }
{ "type": "Feature", "tippecanoe": { "layer": "2AFCA06D6E481583918093345", "minzoom": 2, "maxzoom": 8 }, "properties": { "halo": 1.8, "title": "达契亚王国", "fontsize": 12, "tyid": "304000", "oid": "103:1562760084167", "color": "#0056E7" }, "geometry": { "type": "Point", "coordinates": [ 23.642578, 46.679594 ] } }
{ "type": "Feature", "tippecanoe": { "layer": "2AFCA06D6E481583918093345", "minzoom": 2, "maxzoom": 8 }, "properties": { "halo": 1.6, "title": "达契亚人", "fontsize": 12, "tyid": "304001", "oid": "103:1562760084457", "color": "#0056E7" }, "geometry": { "type": "Point", "coordinates": [ 27.070312, 46.437857 ] } }
{ "type": "Feature", "tippecanoe": { "layer": "2AFCA06D6E481583918093345", "minzoom": 2, "maxzoom": 8 }, "properties": { "halo": 1.8, "title": "奥德里西亚王国", "fontsize": 12, "tyid": "304000", "oid": "103:1562760084278", "color": "#0056E7" }, "geometry": { "type": "Point", "coordinates": [ 25.224609, 42.553080 ] } }
{ "type": "Feature", "tippecanoe": { "layer": "2AFCA06D6E481583918093345", "minzoom": 2, "maxzoom": 8 }, "properties": { "halo": 1.6, "title": "盖塔人", "fontsize": 12, "tyid": "304001", "oid": "103:1562760084931", "color": "#0056E7" }, "geometry": { "type": "Point", "coordinates": [ 27.246094, 44.213710 ] } }
{ "type": "Feature", "tippecanoe": { "layer": "2AFCA06D6E481583918093345", "minzoom": 2, "maxzoom": 8 }, "properties": { "halo": 1.6, "title": "巴斯塔奈人", "fontsize": 12, "tyid": "304001", "oid": "103:1562760084929", "color": "#0056E7" }, "geometry": { "type": "Point", "coordinates": [ 29.179688, 47.338823 ] } }
{ "type": "Feature", "tippecanoe": { "layer": "2AFCA06D6E481583918093345", "minzoom": 2, "maxzoom": 8 }, "properties": { "halo": 1.6, "title": "埃阿热格人", "fontsize": 12, "tyid": "304001", "oid": "103:1562760084849", "color": "#0056E7" }, "geometry": { "type": "Point", "coordinates": [ 31.728516, 48.574790 ] } }
{ "type": "Feature", "tippecanoe": { "layer": "2AFCA06D6E481583918093345", "minzoom": 2, "maxzoom": 8 }, "properties": { "halo": 1.6, "title": "上奥卡文化", "fontsize": 12, "tyid": "304002", "oid": "103:1562760084410", "color": "#0056E7" }, "geometry": { "type": "Point", "coordinates": [ 37.353516, 53.540307 ] } }
{ "type": "Feature", "tippecanoe": { "layer": "2AFCA06D6E481583918093345", "minzoom": 2, "maxzoom": 8 }, "properties": { "halo": 1.6, "title": "尤赫诺夫文化", "fontsize": 12, "tyid": "304002", "oid": "103:1562760084242", "color": "#0056E7" }, "geometry": { "type": "Point", "coordinates": [ 34.716797, 52.214339 ] } }
{ "type": "Feature", "tippecanoe": { "layer": "2AFCA06D6E481583918093345", "minzoom": 2, "maxzoom": 8 }, "properties": { "halo": 1.6, "title": "斯基泰人", "fontsize": 12, "tyid": "304001", "oid": "103:1562760084325", "color": "#0056E7" }, "geometry": { "type": "Point", "coordinates": [ 34.013672, 46.255847 ] } }
{ "type": "Feature", "tippecanoe": { "layer": "2AFCA06D6E481583918093345", "minzoom": 2, "maxzoom": 8 }, "properties": { "halo": 1.6, "title": "梅田人", "fontsize": 12, "tyid": "304001", "oid": "103:1562760084789", "color": "#0056E7" }, "geometry": { "type": "Point", "coordinates": [ 38.144531, 45.644768 ] } }
{ "type": "Feature", "tippecanoe": { "layer": "2AFCA06D6E481583918093345", "minzoom": 2, "maxzoom": 8 }, "properties": { "halo": 1.6, "title": "西雷斯人", "fontsize": 12, "tyid": "304001", "oid": "103:1562760084964", "color": "#0056E7" }, "geometry": { "type": "Point", "coordinates": [ 41.396484, 45.644768 ] } }
{ "type": "Feature", "tippecanoe": { "layer": "2AFCA06D6E481583918093345", "minzoom": 2, "maxzoom": 8 }, "properties": { "halo": 1.6, "title": "切尔克斯人", "fontsize": 12, "tyid": "304001", "oid": "103:1562760084786", "color": "#0056E7" }, "geometry": { "type": "Point", "coordinates": [ 42.011719, 43.707594 ] } }
{ "type": "Feature", "tippecanoe": { "layer": "2AFCA06D6E481583918093345", "minzoom": 2, "maxzoom": 8 }, "properties": { "halo": 1.8, "title": "科尔基斯王国", "fontsize": 12, "tyid": "304000", "oid": "103:1562760085126", "color": "#0056E7" }, "geometry": { "type": "Point", "coordinates": [ 42.451172, 42.617791 ] } }
{ "type": "Feature", "tippecanoe": { "layer": "2AFCA06D6E481583918093345", "minzoom": 2, "maxzoom": 8 }, "properties": { "halo": 1.8, "title": "高加索伊比利亚王国", "fontsize": 12, "tyid": "304000", "oid": "103:1562760084285", "color": "#0056E7" }, "geometry": { "type": "Point", "coordinates": [ 43.769531, 41.574361 ] } }
{ "type": "Feature", "tippecanoe": { "layer": "2AFCA06D6E481583918093345", "minzoom": 2, "maxzoom": 8 }, "properties": { "halo": 1.8, "title": "加拉曼特王国", "fontsize": 12, "tyid": "304000", "oid": "103:1562760084927", "color": "#0056E7" }, "geometry": { "type": "Point", "coordinates": [ 13.886719, 26.902477 ] } }
{ "type": "Feature", "tippecanoe": { "layer": "2AFCA06D6E481583918093345", "minzoom": 2, "maxzoom": 8 }, "properties": { "halo": 1.6, "title": "约鲁巴人", "fontsize": 12, "tyid": "304001", "oid": "103:1562760084919", "color": "#0056E7" }, "geometry": { "type": "Point", "coordinates": [ 3.427734, 7.536764 ] } }
{ "type": "Feature", "tippecanoe": { "layer": "2AFCA06D6E481583918093345", "minzoom": 2, "maxzoom": 8 }, "properties": { "halo": 1.6, "title": "伊博人", "fontsize": 12, "tyid": "304001", "oid": "103:1562760084553", "color": "#0056E7" }, "geometry": { "type": "Point", "coordinates": [ 7.998047, 5.965754 ] } }
{ "type": "Feature", "tippecanoe": { "layer": "2AFCA06D6E481583918093345", "minzoom": 2, "maxzoom": 8 }, "properties": { "halo": 1.8, "title": "比提尼亚王国", "fontsize": 12, "tyid": "304000", "oid": "103:1562760084281", "color": "#0056E7" }, "geometry": { "type": "Point", "coordinates": [ 30.410156, 40.713956 ] } }
{ "type": "Feature", "tippecanoe": { "layer": "2AFCA06D6E481583918093345", "minzoom": 2, "maxzoom": 8 }, "properties": { "halo": 1.6, "title": "加拉提亚高卢人", "fontsize": 12, "tyid": "304001", "oid": "103:1562760084206", "color": "#0056E7" }, "geometry": { "type": "Point", "coordinates": [ 32.871094, 39.977120 ] } }
{ "type": "Feature", "tippecanoe": { "layer": "2AFCA06D6E481583918093345", "minzoom": 2, "maxzoom": 8 }, "properties": { "halo": 1.8, "title": "卡帕多西亚王国", "fontsize": 12, "tyid": "304000", "oid": "103:1562760084211", "color": "#0056E7" }, "geometry": { "type": "Point", "coordinates": [ 35.332031, 38.548165 ] } }
{ "type": "Feature", "tippecanoe": { "layer": "2AFCA06D6E481583918093345", "minzoom": 2, "maxzoom": 8 }, "properties": { "halo": 1.8, "title": "本都王国", "fontsize": 12, "tyid": "304000", "oid": "103:1562760085008", "color": "#0056E7" }, "geometry": { "type": "Point", "coordinates": [ 37.880859, 40.111689 ] } }
{ "type": "Feature", "tippecanoe": { "layer": "2AFCA06D6E481583918093345", "minzoom": 2, "maxzoom": 8 }, "properties": { "halo": 1.6, "title": "塔努联盟", "fontsize": 12, "tyid": "304002", "oid": "103:1562760084574", "color": "#0056E7" }, "geometry": { "type": "Point", "coordinates": [ 39.199219, 32.694866 ] } }
{ "type": "Feature", "tippecanoe": { "layer": "2AFCA06D6E481583918093345", "minzoom": 2, "maxzoom": 8 }, "properties": { "halo": 1.8, "title": "索芬尼王国", "fontsize": 12, "tyid": "304000", "oid": "103:1562760084259", "color": "#0056E7" }, "geometry": { "type": "Point", "coordinates": [ 39.902344, 38.203655 ] } }
{ "type": "Feature", "tippecanoe": { "layer": "2AFCA06D6E481583918093345", "minzoom": 2, "maxzoom": 8 }, "properties": { "halo": 1.8, "title": "亚美尼亚阿泰克西德王朝", "fontsize": 12, "tyid": "304000", "oid": "103:1562760084305", "color": "#0056E7" }, "geometry": { "type": "Point", "coordinates": [ 43.769531, 39.436193 ] } }
{ "type": "Feature", "tippecanoe": { "layer": "2AFCA06D6E481583918093345", "minzoom": 2, "maxzoom": 8 }, "properties": { "halo": 1.8, "title": "科杜内王国", "fontsize": 12, "tyid": "304000", "oid": "103:1562760084327", "color": "#0056E7" }, "geometry": { "type": "Point", "coordinates": [ 42.802734, 37.230328 ] } }
{ "type": "Feature", "tippecanoe": { "layer": "2AFCA06D6E481583918093345", "minzoom": 2, "maxzoom": 8 }, "properties": { "halo": 1.8, "title": "奥斯若恩王国", "fontsize": 12, "tyid": "304000", "oid": "103:1562760084812", "color": "#0056E7" }, "geometry": { "type": "Point", "coordinates": [ 40.341797, 36.244273 ] } }
{ "type": "Feature", "tippecanoe": { "layer": "2AFCA06D6E481583918093345", "minzoom": 2, "maxzoom": 8 }, "properties": { "halo": 1.8, "title": "纳巴泰王国", "fontsize": 12, "tyid": "304000", "oid": "103:1562760084512", "color": "#0056E7" }, "geometry": { "type": "Point", "coordinates": [ 35.595703, 29.840644 ] } }
{ "type": "Feature", "tippecanoe": { "layer": "2AFCA06D6E481583918093345", "minzoom": 2, "maxzoom": 8 }, "properties": { "halo": 1.6, "title": "布雷米耶国", "fontsize": 12, "tyid": "304001", "oid": "103:1562760085001", "color": "#0056E7" }, "geometry": { "type": "Point", "coordinates": [ 34.980469, 21.453069 ] } }
{ "type": "Feature", "tippecanoe": { "layer": "2AFCA06D6E481583918093345", "minzoom": 2, "maxzoom": 8 }, "properties": { "halo": 1.6, "title": "贝扎人", "fontsize": 12, "tyid": "304001", "oid": "103:1562760084698", "color": "#0056E7" }, "geometry": { "type": "Point", "coordinates": [ 35.771484, 16.383391 ] } }
{ "type": "Feature", "tippecanoe": { "layer": "2AFCA06D6E481583918093345", "minzoom": 2, "maxzoom": 8 }, "properties": { "halo": 1.6, "title": "原始-阿克苏姆铁器时代", "fontsize": 12, "tyid": "304002", "oid": "103:1562760084910", "color": "#0056E7" }, "geometry": { "type": "Point", "coordinates": [ 39.111328, 13.923404 ] } }
{ "type": "Feature", "tippecanoe": { "layer": "2AFCA06D6E481583918093345", "minzoom": 2, "maxzoom": 8 }, "properties": { "halo": 1.6, "title": "肯德部落", "fontsize": 12, "tyid": "304001", "oid": "103:1562760084429", "color": "#0056E7" }, "geometry": { "type": "Point", "coordinates": [ 44.912109, 19.642588 ] } }
{ "type": "Feature", "tippecanoe": { "layer": "2AFCA06D6E481583918093345", "minzoom": 2, "maxzoom": 8 }, "properties": { "halo": 1.6, "title": "高原诸小王国", "fontsize": 12, "tyid": "304002", "oid": "103:1562760084578", "color": "#0056E7" }, "geometry": { "type": "Point", "coordinates": [ 40.781250, 14.179186 ] } }
{ "type": "Feature", "tippecanoe": { "layer": "2AFCA06D6E481583918093345", "minzoom": 2, "maxzoom": 8 }, "properties": { "halo": 1.8, "title": "迈因王国", "fontsize": 12, "tyid": "304000", "oid": "103:1562760084772", "color": "#0056E7" }, "geometry": { "type": "Point", "coordinates": [ 44.824219, 16.299051 ] } }
{ "type": "Feature", "tippecanoe": { "layer": "2AFCA06D6E481583918093345", "minzoom": 2, "maxzoom": 8 }, "properties": { "halo": 1.8, "title": "塞巴王国", "fontsize": 12, "tyid": "304000", "oid": "103:1562760084924", "color": "#0056E7" }, "geometry": { "type": "Point", "coordinates": [ 43.857422, 14.604847 ] } }
{ "type": "Feature", "tippecanoe": { "layer": "2AFCA06D6E481583918093345", "minzoom": 2, "maxzoom": 8 }, "properties": { "halo": 1.6, "title": "派诺博尔斯基文化", "fontsize": 12, "tyid": "304002", "oid": "103:1562760084657", "color": "#0056E7" }, "geometry": { "type": "Point", "coordinates": [ 50.449219, 56.897004 ] } }
{ "type": "Feature", "tippecanoe": { "layer": "2AFCA06D6E481583918093345", "minzoom": 2, "maxzoom": 8 }, "properties": { "halo": 1.6, "title": "塞迦人", "fontsize": 12, "tyid": "304001", "oid": "103:1562760084543", "color": "#0056E7" }, "geometry": { "type": "Point", "coordinates": [ 57.656250, 42.553080 ] } }
{ "type": "Feature", "tippecanoe": { "layer": "2AFCA06D6E481583918093345", "minzoom": 2, "maxzoom": 8 }, "properties": { "halo": 1.8, "title": "驩潜国", "fontsize": 12, "tyid": "304000", "oid": "103:1562760084651", "color": "#0056E7" }, "geometry": { "type": "Point", "coordinates": [ 59.765625, 42.488302 ] } }
{ "type": "Feature", "tippecanoe": { "layer": "2AFCA06D6E481583918093345", "minzoom": 2, "maxzoom": 8 }, "properties": { "halo": 1.8, "title": "龟兹国", "fontsize": 12, "tyid": "304000", "oid": "103:1562760085078", "color": "#0056E7" }, "geometry": { "type": "Point", "coordinates": [ 82.792969, 41.442726 ] } }
{ "type": "Feature", "tippecanoe": { "layer": "2AFCA06D6E481583918093345", "minzoom": 2, "maxzoom": 8 }, "properties": { "halo": 1.8, "title": "车师国", "fontsize": 12, "tyid": "304000", "oid": "103:1562760085034", "color": "#0056E7" }, "geometry": { "type": "Point", "coordinates": [ 89.560547, 43.197167 ] } }
{ "type": "Feature", "tippecanoe": { "layer": "2AFCA06D6E481583918093345", "minzoom": 2, "maxzoom": 8 }, "properties": { "halo": 1.8, "title": "危须国", "fontsize": 12, "tyid": "304000", "oid": "103:1562760085075", "color": "#0056E7" }, "geometry": { "type": "Point", "coordinates": [ 87.363281, 42.423457 ] } }
{ "type": "Feature", "tippecanoe": { "layer": "2AFCA06D6E481583918093345", "minzoom": 2, "maxzoom": 8 }, "properties": { "halo": 1.8, "title": "墨山国", "fontsize": 12, "tyid": "304000", "oid": "103:1562760085098", "color": "#0056E7" }, "geometry": { "type": "Point", "coordinates": [ 88.593750, 41.310824 ] } }
{ "type": "Feature", "tippecanoe": { "layer": "2AFCA06D6E481583918093345", "minzoom": 2, "maxzoom": 8 }, "properties": { "halo": 1.8, "title": "阿特罗帕特尼王国", "fontsize": 12, "tyid": "304000", "oid": "103:1562760084819", "color": "#0056E7" }, "geometry": { "type": "Point", "coordinates": [ 47.724609, 38.203655 ] } }
{ "type": "Feature", "tippecanoe": { "layer": "2AFCA06D6E481583918093345", "minzoom": 2, "maxzoom": 8 }, "properties": { "halo": 1.6, "title": "高加索阿尔巴尼亚人", "fontsize": 12, "tyid": "304001", "oid": "103:1562760084383", "color": "#0056E7" }, "geometry": { "type": "Point", "coordinates": [ 48.164062, 40.647304 ] } }
{ "type": "Feature", "tippecanoe": { "layer": "2AFCA06D6E481583918093345", "minzoom": 2, "maxzoom": 8 }, "properties": { "halo": 1.8, "title": "查拉塞尼王国", "fontsize": 12, "tyid": "304000", "oid": "103:1562760085050", "color": "#0056E7" }, "geometry": { "type": "Point", "coordinates": [ 46.933594, 31.428663 ] } }
{ "type": "Feature", "tippecanoe": { "layer": "2AFCA06D6E481583918093345", "minzoom": 2, "maxzoom": 8 }, "properties": { "halo": 1.8, "title": "埃利迈斯王国", "fontsize": 12, "tyid": "304000", "oid": "103:1562760085041", "color": "#0056E7" }, "geometry": { "type": "Point", "coordinates": [ 49.130859, 31.653381 ] } }
{ "type": "Feature", "tippecanoe": { "layer": "2AFCA06D6E481583918093345", "minzoom": 2, "maxzoom": 8 }, "properties": { "halo": 1.6, "title": "格拉", "fontsize": 12, "tyid": "304002", "oid": "103:1562760084436", "color": "#0056E7" }, "geometry": { "type": "Point", "coordinates": [ 49.218750, 26.902477 ] } }
{ "type": "Feature", "tippecanoe": { "layer": "2AFCA06D6E481583918093345", "minzoom": 2, "maxzoom": 8 }, "properties": { "halo": 1.8, "title": "波西斯", "fontsize": 12, "tyid": "304000", "oid": "103:1562760085053", "color": "#0056E7" }, "geometry": { "type": "Point", "coordinates": [ 53.173828, 28.998532 ] } }
{ "type": "Feature", "tippecanoe": { "layer": "2AFCA06D6E481583918093345", "minzoom": 2, "maxzoom": 8 }, "properties": { "halo": 1.8, "title": "奥桑王国", "fontsize": 12, "tyid": "304000", "oid": "103:1568109439175", "color": "#0056E7" }, "geometry": { "type": "Point", "coordinates": [ 45.966797, 13.923404 ] } }
{ "type": "Feature", "tippecanoe": { "layer": "2AFCA06D6E481583918093345", "minzoom": 2, "maxzoom": 8 }, "properties": { "halo": 1.8, "title": "阿德王国", "fontsize": 12, "tyid": "304000", "oid": "103:1562760084423", "color": "#0056E7" }, "geometry": { "type": "Point", "coordinates": [ 52.382812, 18.646245 ] } }
{ "type": "Feature", "tippecanoe": { "layer": "2AFCA06D6E481583918093345", "minzoom": 2, "maxzoom": 8 }, "properties": { "halo": 1.8, "title": "哈德拉毛王国", "fontsize": 12, "tyid": "304000", "oid": "103:1562760084433", "color": "#0056E7" }, "geometry": { "type": "Point", "coordinates": [ 50.976562, 16.299051 ] } }
{ "type": "Feature", "tippecanoe": { "layer": "2AFCA06D6E481583918093345", "minzoom": 2, "maxzoom": 8 }, "properties": { "halo": 1.8, "title": "大宛国", "fontsize": 12, "tyid": "304000", "oid": "103:1562760084903", "color": "#0056E7" }, "geometry": { "type": "Point", "coordinates": [ 71.982422, 40.446947 ] } }
{ "type": "Feature", "tippecanoe": { "layer": "2AFCA06D6E481583918093345", "minzoom": 2, "maxzoom": 8 }, "properties": { "halo": 1.8, "title": "莎车国", "fontsize": 12, "tyid": "304000", "oid": "103:1562760085080", "color": "#0056E7" }, "geometry": { "type": "Point", "coordinates": [ 77.431641, 38.822591 ] } }
{ "type": "Feature", "tippecanoe": { "layer": "2AFCA06D6E481583918093345", "minzoom": 2, "maxzoom": 8 }, "properties": { "halo": 1.8, "title": "西夜国", "fontsize": 12, "tyid": "304000", "oid": "103:1562760085069", "color": "#0056E7" }, "geometry": { "type": "Point", "coordinates": [ 78.046875, 36.949892 ] } }
{ "type": "Feature", "tippecanoe": { "layer": "2AFCA06D6E481583918093345", "minzoom": 2, "maxzoom": 8 }, "properties": { "halo": 1.8, "title": "乌秅国", "fontsize": 12, "tyid": "304000", "oid": "103:1562760085088", "color": "#0056E7" }, "geometry": { "type": "Point", "coordinates": [ 76.728516, 36.385913 ] } }
{ "type": "Feature", "tippecanoe": { "layer": "2AFCA06D6E481583918093345", "minzoom": 2, "maxzoom": 8 }, "properties": { "halo": 1.8, "title": "古宁陀王国", "fontsize": 12, "tyid": "304000", "oid": "103:1562760084245", "color": "#0056E7" }, "geometry": { "type": "Point", "coordinates": [ 76.992188, 31.728167 ] } }
{ "type": "Feature", "tippecanoe": { "layer": "2AFCA06D6E481583918093345", "minzoom": 2, "maxzoom": 8 }, "properties": { "halo": 1.8, "title": "姑墨国", "fontsize": 12, "tyid": "304000", "oid": "103:1562760085040", "color": "#0056E7" }, "geometry": { "type": "Point", "coordinates": [ 80.683594, 40.847060 ] } }
{ "type": "Feature", "tippecanoe": { "layer": "2AFCA06D6E481583918093345", "minzoom": 2, "maxzoom": 8 }, "properties": { "halo": 1.8, "title": "于阗国", "fontsize": 12, "tyid": "304000", "oid": "103:1562760085063", "color": "#0056E7" }, "geometry": { "type": "Point", "coordinates": [ 80.156250, 38.272689 ] } }
{ "type": "Feature", "tippecanoe": { "layer": "2AFCA06D6E481583918093345", "minzoom": 2, "maxzoom": 8 }, "properties": { "halo": 1.8, "title": "扜弥国", "fontsize": 12, "tyid": "304000", "oid": "103:1562760085110", "color": "#0056E7" }, "geometry": { "type": "Point", "coordinates": [ 81.914062, 38.616870 ] } }
{ "type": "Feature", "tippecanoe": { "layer": "2AFCA06D6E481583918093345", "minzoom": 2, "maxzoom": 8 }, "properties": { "halo": 1.8, "title": "精绝国", "fontsize": 12, "tyid": "304000", "oid": "103:1562760085028", "color": "#0056E7" }, "geometry": { "type": "Point", "coordinates": [ 82.880859, 37.509726 ] } }
{ "type": "Feature", "tippecanoe": { "layer": "2AFCA06D6E481583918093345", "minzoom": 2, "maxzoom": 8 }, "properties": { "halo": 1.8, "title": "尉犁国", "fontsize": 12, "tyid": "304000", "oid": "103:1562760085118", "color": "#0056E7" }, "geometry": { "type": "Point", "coordinates": [ 86.923828, 40.979898 ] } }
{ "type": "Feature", "tippecanoe": { "layer": "2AFCA06D6E481583918093345", "minzoom": 2, "maxzoom": 8 }, "properties": { "halo": 1.8, "title": "且末国", "fontsize": 12, "tyid": "304000", "oid": "103:1562760085107", "color": "#0056E7" }, "geometry": { "type": "Point", "coordinates": [ 86.044922, 38.341656 ] } }
{ "type": "Feature", "tippecanoe": { "layer": "2AFCA06D6E481583918093345", "minzoom": 2, "maxzoom": 8 }, "properties": { "halo": 1.8, "title": "楼兰国", "fontsize": 12, "tyid": "304000", "oid": "103:1562760085045", "color": "#0056E7" }, "geometry": { "type": "Point", "coordinates": [ 89.824219, 40.044438 ] } }
{ "type": "Feature", "tippecanoe": { "layer": "2AFCA06D6E481583918093345", "minzoom": 2, "maxzoom": 8 }, "properties": { "halo": 1.8, "title": "婼羌国", "fontsize": 12, "tyid": "304000", "oid": "103:1562760085036", "color": "#0056E7" }, "geometry": { "type": "Point", "coordinates": [ 89.912109, 38.134557 ] } }
{ "type": "Feature", "tippecanoe": { "layer": "2AFCA06D6E481583918093345", "minzoom": 2, "maxzoom": 8 }, "properties": { "halo": 1.8, "title": "般遮罗国", "fontsize": 12, "tyid": "304000", "oid": "103:1576922421703", "color": "#0056E7" }, "geometry": { "type": "Point", "coordinates": [ 79.541016, 28.690588 ] } }
{ "type": "Feature", "tippecanoe": { "layer": "2AFCA06D6E481583918093345", "minzoom": 2, "maxzoom": 8 }, "properties": { "halo": 1.8, "title": "克拉底王国", "fontsize": 12, "tyid": "304000", "oid": "103:1562760084197", "color": "#0056E7" }, "geometry": { "type": "Point", "coordinates": [ 84.199219, 28.071980 ] } }
{ "type": "Feature", "tippecanoe": { "layer": "2AFCA06D6E481583918093345", "minzoom": 2, "maxzoom": 8 }, "properties": { "halo": 1.8, "title": "德瓦王朝", "fontsize": 12, "tyid": "304000", "oid": "103:1576922421707", "color": "#0056E7" }, "geometry": { "type": "Point", "coordinates": [ 82.001953, 26.902477 ] } }
{ "type": "Feature", "tippecanoe": { "layer": "2AFCA06D6E481583918093345", "minzoom": 2, "maxzoom": 8 }, "properties": { "halo": 1.8, "title": "阿西亚曼王国", "fontsize": 12, "tyid": "304000", "oid": "103:1562760084602", "color": "#0056E7" }, "geometry": { "type": "Point", "coordinates": [ 77.519531, 11.781325 ] } }
{ "type": "Feature", "tippecanoe": { "layer": "2AFCA06D6E481583918093345", "minzoom": 2, "maxzoom": 8 }, "properties": { "halo": 1.8, "title": "哲罗国", "fontsize": 12, "tyid": "304000", "oid": "103:1562760084598", "color": "#0056E7" }, "geometry": { "type": "Point", "coordinates": [ 76.464844, 10.314919 ] } }
{ "type": "Feature", "tippecanoe": { "layer": "2AFCA06D6E481583918093345", "minzoom": 2, "maxzoom": 8 }, "properties": { "halo": 1.8, "title": "潘地亚王国", "fontsize": 12, "tyid": "304000", "oid": "103:1576922421696", "color": "#0056E7" }, "geometry": { "type": "Point", "coordinates": [ 77.958984, 9.535749 ] } }
{ "type": "Feature", "tippecanoe": { "layer": "2AFCA06D6E481583918093345", "minzoom": 2, "maxzoom": 8 }, "properties": { "halo": 1.8, "title": "质多王朝", "fontsize": 12, "tyid": "304000", "oid": "103:1562760084893", "color": "#0056E7" }, "geometry": { "type": "Point", "coordinates": [ 84.375000, 20.385825 ] } }
{ "type": "Feature", "tippecanoe": { "layer": "2AFCA06D6E481583918093345", "minzoom": 2, "maxzoom": 8 }, "properties": { "halo": 1.8, "title": "朱罗国", "fontsize": 12, "tyid": "304000", "oid": "103:1562760084676", "color": "#0056E7" }, "geometry": { "type": "Point", "coordinates": [ 78.750000, 11.178402 ] } }
{ "type": "Feature", "tippecanoe": { "layer": "2AFCA06D6E481583918093345", "minzoom": 2, "maxzoom": 8 }, "properties": { "halo": 1.8, "title": "阿努拉德普勒王国", "fontsize": 12, "tyid": "304000", "oid": "103:1562760084627", "color": "#0056E7" }, "geometry": { "type": "Point", "coordinates": [ 80.683594, 7.623887 ] } }
{ "type": "Feature", "tippecanoe": { "layer": "2AFCA06D6E481583918093345", "minzoom": 2, "maxzoom": 8 }, "properties": { "halo": 1.8, "title": "蒲类国", "fontsize": 12, "tyid": "304000", "oid": "103:1562760085103", "color": "#0056E7" }, "geometry": { "type": "Point", "coordinates": [ 92.109375, 44.087585 ] } }
{ "type": "Feature", "tippecanoe": { "layer": "2AFCA06D6E481583918093345", "minzoom": 2, "maxzoom": 8 }, "properties": { "halo": 1.6, "title": "乌桓", "fontsize": 12, "tyid": "304001", "oid": "103:1562760085092", "color": "#0056E7" }, "geometry": { "type": "Point", "coordinates": [ 121.113281, 43.707594 ] } }
{ "type": "Feature", "tippecanoe": { "layer": "2AFCA06D6E481583918093345", "minzoom": 2, "maxzoom": 8 }, "properties": { "halo": 1.6, "title": "北沃沮", "fontsize": 12, "tyid": "304001", "oid": "103:1562760084748", "color": "#0056E7" }, "geometry": { "type": "Point", "coordinates": [ 128.935547, 42.032974 ] } }
{ "type": "Feature", "tippecanoe": { "layer": "2AFCA06D6E481583918093345", "minzoom": 2, "maxzoom": 8 }, "properties": { "halo": 1.8, "title": "三摩呾吒国", "fontsize": 12, "tyid": "304000", "oid": "103:1562760084238", "color": "#0056E7" }, "geometry": { "type": "Point", "coordinates": [ 91.054688, 23.725012 ] } }
{ "type": "Feature", "tippecanoe": { "layer": "2AFCA06D6E481583918093345", "minzoom": 2, "maxzoom": 8 }, "properties": { "halo": 1.6, "title": "巂", "fontsize": 12, "tyid": "304001", "oid": "103:1562760084737", "color": "#0056E7" }, "geometry": { "type": "Point", "coordinates": [ 98.261719, 25.799891 ] } }
{ "type": "Feature", "tippecanoe": { "layer": "2AFCA06D6E481583918093345", "minzoom": 2, "maxzoom": 8 }, "properties": { "halo": 1.6, "title": "昆明", "fontsize": 12, "tyid": "304001", "oid": "103:1562760085017", "color": "#0056E7" }, "geometry": { "type": "Point", "coordinates": [ 100.283203, 25.720735 ] } }
{ "type": "Feature", "tippecanoe": { "layer": "2AFCA06D6E481583918093345", "minzoom": 2, "maxzoom": 8 }, "properties": { "halo": 1.6, "title": "氐人", "fontsize": 12, "tyid": "304001", "oid": "103:1562760084593", "color": "#0056E7" }, "geometry": { "type": "Point", "coordinates": [ 104.150391, 33.211116 ] } }
{ "type": "Feature", "tippecanoe": { "layer": "2AFCA06D6E481583918093345", "minzoom": 2, "maxzoom": 8 }, "properties": { "halo": 1.6, "title": "邛都", "fontsize": 12, "tyid": "304001", "oid": "103:1562760084551", "color": "#0056E7" }, "geometry": { "type": "Point", "coordinates": [ 102.128906, 27.449790 ] } }
{ "type": "Feature", "tippecanoe": { "layer": "2AFCA06D6E481583918093345", "minzoom": 2, "maxzoom": 8 }, "properties": { "halo": 1.8, "title": "滇国", "fontsize": 12, "tyid": "304000", "oid": "103:1562760084685", "color": "#0056E7" }, "geometry": { "type": "Point", "coordinates": [ 102.128906, 25.244696 ] } }
{ "type": "Feature", "tippecanoe": { "layer": "2AFCA06D6E481583918093345", "minzoom": 2, "maxzoom": 8 }, "properties": { "halo": 1.8, "title": "钩町", "fontsize": 12, "tyid": "304000", "oid": "103:1562760084615", "color": "#0056E7" }, "geometry": { "type": "Point", "coordinates": [ 104.238281, 23.644524 ] } }
{ "type": "Feature", "tippecanoe": { "layer": "2AFCA06D6E481583918093345", "minzoom": 2, "maxzoom": 8 }, "properties": { "halo": 1.8, "title": "达雅瓦底王国", "fontsize": 12, "tyid": "304000", "oid": "103:1562760085013", "color": "#0056E7" }, "geometry": { "type": "Point", "coordinates": [ 93.339844, 20.550509 ] } }
{ "type": "Feature", "tippecanoe": { "layer": "2AFCA06D6E481583918093345", "minzoom": 2, "maxzoom": 8 }, "properties": { "halo": 1.8, "title": "室利差呾罗王国", "fontsize": 12, "tyid": "304000", "oid": "103:1571623901223", "color": "#0056E7" }, "geometry": { "type": "Point", "coordinates": [ 95.537109, 19.228177 ] } }
{ "type": "Feature", "tippecanoe": { "layer": "2AFCA06D6E481583918093345", "minzoom": 2, "maxzoom": 8 }, "properties": { "halo": 1.8, "title": "骠国", "fontsize": 12, "tyid": "304000", "oid": "103:1562760084636", "color": "#0056E7" }, "geometry": { "type": "Point", "coordinates": [ 95.712891, 21.125498 ] } }
{ "type": "Feature", "tippecanoe": { "layer": "2AFCA06D6E481583918093345", "minzoom": 2, "maxzoom": 8 }, "properties": { "halo": 1.8, "title": "直通王国", "fontsize": 12, "tyid": "304000", "oid": "103:1562760084895", "color": "#0056E7" }, "geometry": { "type": "Point", "coordinates": [ 96.152344, 17.392579 ] } }
{ "type": "Feature", "tippecanoe": { "layer": "2AFCA06D6E481583918093345", "minzoom": 2, "maxzoom": 8 }, "properties": { "halo": 1.6, "title": "班清文化", "fontsize": 12, "tyid": "304002", "oid": "103:1562760084678", "color": "#0056E7" }, "geometry": { "type": "Point", "coordinates": [ 103.271484, 17.560247 ] } }
{ "type": "Feature", "tippecanoe": { "layer": "2AFCA06D6E481583918093345", "minzoom": 2, "maxzoom": 8 }, "properties": { "halo": 1.6, "title": "蓬斯尼文化", "fontsize": 12, "tyid": "304002", "oid": "103:1562760084613", "color": "#0056E7" }, "geometry": { "type": "Point", "coordinates": [ 103.535156, 13.410994 ] } }
{ "type": "Feature", "tippecanoe": { "layer": "2AFCA06D6E481583918093345", "minzoom": 2, "maxzoom": 8 }, "properties": { "halo": 1.6, "title": "同奈文化", "fontsize": 12, "tyid": "304002", "oid": "103:1562760084606", "color": "#0056E7" }, "geometry": { "type": "Point", "coordinates": [ 106.171875, 10.660608 ] } }
{ "type": "Feature", "tippecanoe": { "layer": "2AFCA06D6E481583918093345", "minzoom": 2, "maxzoom": 8 }, "properties": { "halo": 1.6, "title": "尼格利陀人", "fontsize": 12, "tyid": "304001", "oid": "103:1562760084596", "color": "#0056E7" }, "geometry": { "type": "Point", "coordinates": [ 101.953125, 4.740675 ] } }
{ "type": "Feature", "tippecanoe": { "layer": "2AFCA06D6E481583918093345", "minzoom": 2, "maxzoom": 8 }, "properties": { "halo": 1.6, "title": "闽越国", "fontsize": 12, "tyid": "304001", "oid": "103:1562760084883", "color": "#0056E7" }, "geometry": { "type": "Point", "coordinates": [ 117.949219, 26.194877 ] } }
{ "type": "Feature", "tippecanoe": { "layer": "2AFCA06D6E481583918093345", "minzoom": 2, "maxzoom": 8 }, "properties": { "halo": 1.8, "title": "卫满朝鲜", "fontsize": 12, "tyid": "304000", "oid": "103:1562760084955", "color": "#0056E7" }, "geometry": { "type": "Point", "coordinates": [ 125.771484, 40.245992 ] } }
{ "type": "Feature", "tippecanoe": { "layer": "2AFCA06D6E481583918093345", "minzoom": 2, "maxzoom": 8 }, "properties": { "halo": 1.8, "title": "辰国", "fontsize": 12, "tyid": "304000", "oid": "103:1562760084710", "color": "#0056E7" }, "geometry": { "type": "Point", "coordinates": [ 127.792969, 35.960223 ] } }
{ "type": "Feature", "tippecanoe": { "layer": "2AFCA06D6E481583918093345", "minzoom": 2, "maxzoom": 8 }, "properties": { "halo": 1.6, "title": "倭人诸邦", "fontsize": 12, "tyid": "304002", "oid": "103:1562760084240", "color": "#0056E7" }, "geometry": { "type": "Point", "coordinates": [ 130.869141, 32.694866 ] } }
{ "type": "Feature", "tippecanoe": { "layer": "2AFCA06D6E481583918093345", "minzoom": 2, "maxzoom": 8 }, "properties": { "halo": 1.6, "title": "绳文人", "fontsize": 12, "tyid": "304001", "oid": "103:1562760084617", "color": "#0056E7" }, "geometry": { "type": "Point", "coordinates": [ 142.558594, 43.389082 ] } }
{ "type": "Feature", "tippecanoe": { "layer": "2AFCA06D6E481583918093345", "minzoom": 2, "maxzoom": 8 }, "properties": { "halo": 1.6, "title": "乌莱维文明", "fontsize": 12, "tyid": "304002", "oid": "103:1562760084922", "color": "#0056E7" }, "geometry": { "type": "Point", "coordinates": [ 29.882812, -2.547988 ] } }
{ "type": "Feature", "tippecanoe": { "layer": "2AFCA06D6E481583918093345", "minzoom": 2, "maxzoom": 8 }, "properties": { "halo": 1.6, "title": "艾布兰文化五期", "fontsize": 12, "tyid": "304002", "oid": "103:1562760084935", "color": "#0056E7" }, "geometry": { "type": "Point", "coordinates": [ 36.474609, -0.175781 ] } }
{ "type": "Feature", "tippecanoe": { "layer": "2AFCA06D6E481583918093345", "minzoom": 2, "maxzoom": 8 }, "properties": { "halo": 1.6, "title": "布尼文化", "fontsize": 12, "tyid": "304002", "oid": "103:1562760084586", "color": "#0056E7" }, "geometry": { "type": "Point", "coordinates": [ 107.226562, -6.751896 ] } }
{ "type": "Feature", "tippecanoe": { "layer": "2AFCA06D6E481583918093345", "minzoom": 2, "maxzoom": 8 }, "properties": { "halo": 1.6, "title": "巴拉瓦人", "fontsize": 12, "tyid": "304001", "oid": "103:1562760084667", "color": "#0056E7" }, "geometry": { "type": "Point", "coordinates": [ 146.513672, -41.967659 ] } }
{ "type": "Feature", "tippecanoe": { "layer": "2AFCA0FE37F01583918093337", "minzoom": 2, "maxzoom": 8 }, "properties": { "halo": 0.8, "title": "诺顿文化", "fontsize": 12, "tyid": "304002", "oid": "103:1562760084533", "color": "#262626" }, "geometry": { "type": "Point", "coordinates": [ -162.773438, 68.463800 ] } }
{ "type": "Feature", "tippecanoe": { "layer": "2AFCA0FE37F01583918093337", "minzoom": 2, "maxzoom": 8 }, "properties": { "halo": 0.8, "title": "图勒人", "fontsize": 12, "tyid": "304001", "oid": "103:1562760084287", "color": "#262626" }, "geometry": { "type": "Point", "coordinates": [ -132.626953, 68.879358 ] } }
{ "type": "Feature", "tippecanoe": { "layer": "2AFCA0FE37F01583918093337", "minzoom": 2, "maxzoom": 8 }, "properties": { "halo": 0.8, "title": "尤皮克人", "fontsize": 12, "tyid": "304001", "oid": "103:1562760084235", "color": "#262626" }, "geometry": { "type": "Point", "coordinates": [ -152.841797, 62.714462 ] } }
{ "type": "Feature", "tippecanoe": { "layer": "2AFCA0FE37F01583918093337", "minzoom": 2, "maxzoom": 8 }, "properties": { "halo": 0.8, "title": "因纽皮雅特人", "fontsize": 12, "tyid": "304001", "oid": "103:1562760084475", "color": "#262626" }, "geometry": { "type": "Point", "coordinates": [ -150.908203, 65.476508 ] } }
{ "type": "Feature", "tippecanoe": { "layer": "2AFCA0FE37F01583918093337", "minzoom": 2, "maxzoom": 8 }, "properties": { "halo": 0.8, "title": "阿留申人", "fontsize": 12, "tyid": "304001", "oid": "103:1562760085026", "color": "#262626" }, "geometry": { "type": "Point", "coordinates": [ -150.292969, 60.413852 ] } }
{ "type": "Feature", "tippecanoe": { "layer": "2AFCA0FE37F01583918093337", "minzoom": 2, "maxzoom": 8 }, "properties": { "halo": 0.8, "title": "因纽特人", "fontsize": 12, "tyid": "304001", "oid": "103:1562760084933", "color": "#262626" }, "geometry": { "type": "Point", "coordinates": [ -93.603516, 66.160511 ] } }
{ "type": "Feature", "tippecanoe": { "layer": "2AFCA0FE37F01583918093337", "minzoom": 2, "maxzoom": 8 }, "properties": { "halo": 0.8, "title": "泰萨勒页岩文化", "fontsize": 12, "tyid": "304002", "oid": "103:1562760084900", "color": "#262626" }, "geometry": { "type": "Point", "coordinates": [ -101.074219, 56.704506 ] } }
{ "type": "Feature", "tippecanoe": { "layer": "2AFCA0FE37F01583918093337", "minzoom": 2, "maxzoom": 8 }, "properties": { "halo": 0.8, "title": "坎贝尔文化", "fontsize": 12, "tyid": "304002", "oid": "103:1562760084878", "color": "#262626" }, "geometry": { "type": "Point", "coordinates": [ -121.289062, 38.685510 ] } }
{ "type": "Feature", "tippecanoe": { "layer": "2AFCA0FE37F01583918093337", "minzoom": 2, "maxzoom": 8 }, "properties": { "halo": 0.8, "title": "圣迪基图文化", "fontsize": 12, "tyid": "304002", "oid": "103:1562760084354", "color": "#262626" }, "geometry": { "type": "Point", "coordinates": [ -115.224609, 33.211116 ] } }
{ "type": "Feature", "tippecanoe": { "layer": "2AFCA0FE37F01583918093337", "minzoom": 2, "maxzoom": 8 }, "properties": { "halo": 0.8, "title": "独立二期文化", "fontsize": 12, "tyid": "304002", "oid": "103:1562760084247", "color": "#262626" }, "geometry": { "type": "Point", "coordinates": [ -41.484375, 81.984696 ] } }
{ "type": "Feature", "tippecanoe": { "layer": "2AFCA0FE37F01583918093337", "minzoom": 2, "maxzoom": 8 }, "properties": { "halo": 0.8, "title": "波茵特半岛文化", "fontsize": 12, "tyid": "304002", "oid": "103:1562760084998", "color": "#262626" }, "geometry": { "type": "Point", "coordinates": [ -76.816406, 45.336702 ] } }
{ "type": "Feature", "tippecanoe": { "layer": "2AFCA0FE37F01583918093337", "minzoom": 2, "maxzoom": 8 }, "properties": { "halo": 0.8, "title": "古海洋文化", "fontsize": 12, "tyid": "304002", "oid": "103:1562760084339", "color": "#262626" }, "geometry": { "type": "Point", "coordinates": [ -67.324219, 46.980252 ] } }
{ "type": "Feature", "tippecanoe": { "layer": "2AFCA0FE37F01583918093337", "minzoom": 2, "maxzoom": 8 }, "properties": { "halo": 0.8, "title": "凯尔特布立吞人", "fontsize": 12, "tyid": "304001", "oid": "103:1562760084389", "color": "#262626" }, "geometry": { "type": "Point", "coordinates": [ -1.845703, 52.589701 ] } }
{ "type": "Feature", "tippecanoe": { "layer": "2AFCA0FE37F01583918093337", "minzoom": 2, "maxzoom": 8 }, "properties": { "halo": 0.8, "title": "巴富尔人", "fontsize": 12, "tyid": "304001", "oid": "103:1562760084227", "color": "#262626" }, "geometry": { "type": "Point", "coordinates": [ -8.261719, 22.755921 ] } }
{ "type": "Feature", "tippecanoe": { "layer": "2AFCA0FE37F01583918093337", "minzoom": 2, "maxzoom": 8 }, "properties": { "halo": 0.8, "title": "索宁克人", "fontsize": 12, "tyid": "304001", "oid": "103:1562760084756", "color": "#262626" }, "geometry": { "type": "Point", "coordinates": [ -8.964844, 15.284185 ] } }
{ "type": "Feature", "tippecanoe": { "layer": "2AFCA0FE37F01583918093337", "minzoom": 2, "maxzoom": 8 }, "properties": { "halo": 0.8, "title": "曼德人", "fontsize": 12, "tyid": "304001", "oid": "103:1562760084558", "color": "#262626" }, "geometry": { "type": "Point", "coordinates": [ -7.558594, 8.146243 ] } }
{ "type": "Feature", "tippecanoe": { "layer": "2AFCA0FE37F01583918093337", "minzoom": 2, "maxzoom": 8 }, "properties": { "halo": 0.8, "title": "图皮人", "fontsize": 12, "tyid": "304001", "oid": "103:1562760084396", "color": "#262626" }, "geometry": { "type": "Point", "coordinates": [ -39.375000, -11.953349 ] } }
{ "type": "Feature", "tippecanoe": { "layer": "2AFCA0FE37F01583918093337", "minzoom": 2, "maxzoom": 8 }, "properties": { "halo": 0.8, "title": "萨米人", "fontsize": 12, "tyid": "304001", "oid": "103:1562760084515", "color": "#262626" }, "geometry": { "type": "Point", "coordinates": [ 25.400391, 68.171555 ] } }
{ "type": "Feature", "tippecanoe": { "layer": "2AFCA0FE37F01583918093337", "minzoom": 2, "maxzoom": 8 }, "properties": { "halo": 0.8, "title": "乌斯特波卢伊文化", "fontsize": 12, "tyid": "304002", "oid": "103:1562760084760", "color": "#262626" }, "geometry": { "type": "Point", "coordinates": [ 70.048828, 68.784144 ] } }
{ "type": "Feature", "tippecanoe": { "layer": "2AFCA0FE37F01583918093337", "minzoom": 2, "maxzoom": 8 }, "properties": { "halo": 0.8, "title": "原始日耳曼人", "fontsize": 12, "tyid": "304001", "oid": "103:1562760084399", "color": "#262626" }, "geometry": { "type": "Point", "coordinates": [ 8.437500, 60.500525 ] } }
{ "type": "Feature", "tippecanoe": { "layer": "2AFCA0FE37F01583918093337", "minzoom": 2, "maxzoom": 8 }, "properties": { "halo": 0.8, "title": "古瑞典人", "fontsize": 12, "tyid": "304001", "oid": "103:1562760084792", "color": "#262626" }, "geometry": { "type": "Point", "coordinates": [ 15.820312, 61.312452 ] } }
{ "type": "Feature", "tippecanoe": { "layer": "2AFCA0FE37F01583918093337", "minzoom": 2, "maxzoom": 8 }, "properties": { "halo": 0.8, "title": "贝尔盖人", "fontsize": 12, "tyid": "304001", "oid": "103:1562760084459", "color": "#262626" }, "geometry": { "type": "Point", "coordinates": [ 4.833984, 49.724479 ] } }
{ "type": "Feature", "tippecanoe": { "layer": "2AFCA0FE37F01583918093337", "minzoom": 2, "maxzoom": 8 }, "properties": { "halo": 0.8, "title": "山外高卢人", "fontsize": 12, "tyid": "304001", "oid": "103:1562760084447", "color": "#262626" }, "geometry": { "type": "Point", "coordinates": [ 1.318359, 46.860191 ] } }
{ "type": "Feature", "tippecanoe": { "layer": "2AFCA0FE37F01583918093337", "minzoom": 2, "maxzoom": 8 }, "properties": { "halo": 0.8, "title": "日耳曼人", "fontsize": 12, "tyid": "304001", "oid": "103:1562760084794", "color": "#262626" }, "geometry": { "type": "Point", "coordinates": [ 13.886719, 50.736455 ] } }
{ "type": "Feature", "tippecanoe": { "layer": "2AFCA0FE37F01583918093337", "minzoom": 2, "maxzoom": 8 },