{ "type": "Feature", "tippecanoe": { "layer": "2AFCA051EEB81583918112854", "minzoom": 2, "maxzoom": 8 }, "properties": { "halo": 0.8, "title": "图勒人", "fontsize": 12, "tyid": "304001", "oid": "103:1576575167136", "color": "#262626" }, "geometry": { "type": "Point", "coordinates": [ -132.275391, 69.068563 ] } }
{ "type": "Feature", "tippecanoe": { "layer": "2AFCA051EEB81583918112854", "minzoom": 2, "maxzoom": 8 }, "properties": { "halo": 0.8, "title": "拉霍亚文化", "fontsize": 12, "tyid": "304002", "oid": "103:1576575167152", "color": "#262626" }, "geometry": { "type": "Point", "coordinates": [ -118.916016, 34.597042 ] } }
{ "type": "Feature", "tippecanoe": { "layer": "2AFCA051EEB81583918112854", "minzoom": 2, "maxzoom": 8 }, "properties": { "halo": 0.8, "title": "古普韦布洛人", "fontsize": 12, "tyid": "304001", "oid": "103:1576575167059", "color": "#262626" }, "geometry": { "type": "Point", "coordinates": [ -110.126953, 36.949892 ] } }
{ "type": "Feature", "tippecanoe": { "layer": "2AFCA051EEB81583918112854", "minzoom": 2, "maxzoom": 8 }, "properties": { "halo": 0.8, "title": "奇瓦瓦文化", "fontsize": 12, "tyid": "304002", "oid": "103:1576575167023", "color": "#262626" }, "geometry": { "type": "Point", "coordinates": [ -107.226562, 32.768800 ] } }
{ "type": "Feature", "tippecanoe": { "layer": "2AFCA051EEB81583918112854", "minzoom": 2, "maxzoom": 8 }, "properties": { "halo": 0.8, "title": "奥沙拉文化", "fontsize": 12, "tyid": "304002", "oid": "103:1576575167463", "color": "#262626" }, "geometry": { "type": "Point", "coordinates": [ -106.699219, 37.579413 ] } }
{ "type": "Feature", "tippecanoe": { "layer": "2AFCA051EEB81583918112854", "minzoom": 2, "maxzoom": 8 }, "properties": { "halo": 0.8, "title": "瓜伊库拉人", "fontsize": 12, "tyid": "304001", "oid": "103:1576575167182", "color": "#262626" }, "geometry": { "type": "Point", "coordinates": [ -111.269531, 24.846565 ] } }
{ "type": "Feature", "tippecanoe": { "layer": "2AFCA051EEB81583918112854", "minzoom": 2, "maxzoom": 8 }, "properties": { "halo": 0.8, "title": "哈瓦那霍普韦尔文化", "fontsize": 12, "tyid": "304002", "oid": "103:1576575167342", "color": "#262626" }, "geometry": { "type": "Point", "coordinates": [ -90.966797, 40.580585 ] } }
{ "type": "Feature", "tippecanoe": { "layer": "2AFCA051EEB81583918112854", "minzoom": 2, "maxzoom": 8 }, "properties": { "halo": 0.8, "title": "喀多语密西西比文化", "fontsize": 12, "tyid": "304002", "oid": "103:1576575167394", "color": "#262626" }, "geometry": { "type": "Point", "coordinates": [ -94.482422, 35.960223 ] } }
{ "type": "Feature", "tippecanoe": { "layer": "2AFCA051EEB81583918112854", "minzoom": 2, "maxzoom": 8 }, "properties": { "halo": 0.8, "title": "福切马里尼文化", "fontsize": 12, "tyid": "304002", "oid": "103:1576575167229", "color": "#262626" }, "geometry": { "type": "Point", "coordinates": [ -94.306641, 33.358062 ] } }
{ "type": "Feature", "tippecanoe": { "layer": "2AFCA051EEB81583918112854", "minzoom": 2, "maxzoom": 8 }, "properties": { "halo": 0.8, "title": "楚拉时期", "fontsize": 12, "tyid": "304002", "oid": "103:1576575167183", "color": "#262626" }, "geometry": { "type": "Point", "coordinates": [ -92.021484, 32.472695 ] } }
{ "type": "Feature", "tippecanoe": { "layer": "2AFCA051EEB81583918112854", "minzoom": 2, "maxzoom": 8 }, "properties": { "halo": 0.8, "title": "华斯塔克文明", "fontsize": 12, "tyid": "304002", "oid": "103:1576575167388", "color": "#262626" }, "geometry": { "type": "Point", "coordinates": [ -98.613281, 22.105999 ] } }
{ "type": "Feature", "tippecanoe": { "layer": "2AFCA051EEB81583918112854", "minzoom": 2, "maxzoom": 8 }, "properties": { "halo": 0.8, "title": "奇蒂玛察人", "fontsize": 12, "tyid": "304001", "oid": "103:1576575167015", "color": "#262626" }, "geometry": { "type": "Point", "coordinates": [ -91.054688, 30.372875 ] } }
{ "type": "Feature", "tippecanoe": { "layer": "2AFCA051EEB81583918112854", "minzoom": 2, "maxzoom": 8 }, "properties": { "halo": 0.8, "title": "特切特兰文化", "fontsize": 12, "tyid": "304002", "oid": "103:1576575167282", "color": "#262626" }, "geometry": { "type": "Point", "coordinates": [ -104.326172, 20.468189 ] } }
{ "type": "Feature", "tippecanoe": { "layer": "2AFCA051EEB81583918112854", "minzoom": 2, "maxzoom": 8 }, "properties": { "halo": 0.8, "title": "萨波特克文明", "fontsize": 12, "tyid": "304002", "oid": "103:1576575167493", "color": "#262626" }, "geometry": { "type": "Point", "coordinates": [ -96.064453, 16.636192 ] } }
{ "type": "Feature", "tippecanoe": { "layer": "2AFCA051EEB81583918112854", "minzoom": 2, "maxzoom": 8 }, "properties": { "halo": 0.8, "title": "古德尔文化", "fontsize": 12, "tyid": "304002", "oid": "103:1576575167365", "color": "#262626" }, "geometry": { "type": "Point", "coordinates": [ -85.869141, 43.133061 ] } }
{ "type": "Feature", "tippecanoe": { "layer": "2AFCA051EEB81583918112854", "minzoom": 2, "maxzoom": 8 }, "properties": { "halo": 0.8, "title": "索根文化", "fontsize": 12, "tyid": "304002", "oid": "103:1576575167277", "color": "#262626" }, "geometry": { "type": "Point", "coordinates": [ -81.298828, 43.707594 ] } }
{ "type": "Feature", "tippecanoe": { "layer": "2AFCA051EEB81583918112854", "minzoom": 2, "maxzoom": 8 }, "properties": { "halo": 0.8, "title": "俄亥俄霍普韦尔文化", "fontsize": 12, "tyid": "304002", "oid": "103:1576575166912", "color": "#262626" }, "geometry": { "type": "Point", "coordinates": [ -83.056641, 39.504041 ] } }
{ "type": "Feature", "tippecanoe": { "layer": "2AFCA051EEB81583918112854", "minzoom": 2, "maxzoom": 8 }, "properties": { "halo": 0.8, "title": "德普特福德文化", "fontsize": 12, "tyid": "304002", "oid": "103:1576575166959", "color": "#262626" }, "geometry": { "type": "Point", "coordinates": [ -79.628906, 33.358062 ] } }
{ "type": "Feature", "tippecanoe": { "layer": "2AFCA051EEB81583918112854", "minzoom": 2, "maxzoom": 8 }, "properties": { "halo": 0.8, "title": "切格文特文化", "fontsize": 12, "tyid": "304002", "oid": "103:1576575167244", "color": "#262626" }, "geometry": { "type": "Point", "coordinates": [ -89.208984, 30.600094 ] } }
{ "type": "Feature", "tippecanoe": { "layer": "2AFCA051EEB81583918112854", "minzoom": 2, "maxzoom": 8 }, "properties": { "halo": 0.8, "title": "玛雅文明[前古典时期]", "fontsize": 12, "tyid": "304002", "oid": "103:1576575166894", "color": "#262626" }, "geometry": { "type": "Point", "coordinates": [ -89.296875, 17.056785 ] } }
{ "type": "Feature", "tippecanoe": { "layer": "2AFCA051EEB81583918112854", "minzoom": 2, "maxzoom": 8 }, "properties": { "halo": 0.8, "title": "兹努文化", "fontsize": 12, "tyid": "304002", "oid": "103:1576575166911", "color": "#262626" }, "geometry": { "type": "Point", "coordinates": [ -75.585938, 8.581021 ] } }
{ "type": "Feature", "tippecanoe": { "layer": "2AFCA051EEB81583918112854", "minzoom": 2, "maxzoom": 8 }, "properties": { "halo": 0.8, "title": "拉托利塔文化", "fontsize": 12, "tyid": "304002", "oid": "103:1576575167120", "color": "#262626" }, "geometry": { "type": "Point", "coordinates": [ -78.046875, 1.757537 ] } }
{ "type": "Feature", "tippecanoe": { "layer": "2AFCA051EEB81583918112854", "minzoom": 2, "maxzoom": 8 }, "properties": { "halo": 0.8, "title": "埃雷拉时期", "fontsize": 12, "tyid": "304002", "oid": "103:1576575167033", "color": "#262626" }, "geometry": { "type": "Point", "coordinates": [ -73.476562, 5.441022 ] } }
{ "type": "Feature", "tippecanoe": { "layer": "2AFCA051EEB81583918112854", "minzoom": 2, "maxzoom": 8 }, "properties": { "halo": 0.8, "title": "伊奈里人", "fontsize": 12, "tyid": "304001", "oid": "103:1576575167300", "color": "#262626" }, "geometry": { "type": "Point", "coordinates": [ -61.787109, 8.754795 ] } }
{ "type": "Feature", "tippecanoe": { "layer": "2AFCA051EEB81583918112854", "minzoom": 2, "maxzoom": 8 }, "properties": { "halo": 0.8, "title": "皮克特人", "fontsize": 12, "tyid": "304001", "oid": "103:1576575167179", "color": "#262626" }, "geometry": { "type": "Point", "coordinates": [ -4.042969, 56.704506 ] } }
{ "type": "Feature", "tippecanoe": { "layer": "2AFCA051EEB81583918112854", "minzoom": 2, "maxzoom": 8 }, "properties": { "halo": 0.8, "title": "盖尔人", "fontsize": 12, "tyid": "304001", "oid": "103:1576575167439", "color": "#262626" }, "geometry": { "type": "Point", "coordinates": [ -7.910156, 53.435719 ] } }
{ "type": "Feature", "tippecanoe": { "layer": "2AFCA051EEB81583918112854", "minzoom": 2, "maxzoom": 8 }, "properties": { "halo": 0.8, "title": "加利西亚人", "fontsize": 12, "tyid": "304001", "oid": "103:1576575167189", "color": "#262626" }, "geometry": { "type": "Point", "coordinates": [ -7.998047, 42.488302 ] } }
{ "type": "Feature", "tippecanoe": { "layer": "2AFCA051EEB81583918112854", "minzoom": 2, "maxzoom": 8 }, "properties": { "halo": 0.8, "title": "阿斯图尔人", "fontsize": 12, "tyid": "304001", "oid": "103:1576575167185", "color": "#262626" }, "geometry": { "type": "Point", "coordinates": [ -6.152344, 42.553080 ] } }
{ "type": "Feature", "tippecanoe": { "layer": "2AFCA051EEB81583918112854", "minzoom": 2, "maxzoom": 8 }, "properties": { "halo": 0.8, "title": "瓦凯伊人", "fontsize": 12, "tyid": "304001", "oid": "103:1576575166989", "color": "#262626" }, "geometry": { "type": "Point", "coordinates": [ -4.570312, 41.574361 ] } }
{ "type": "Feature", "tippecanoe": { "layer": "2AFCA051EEB81583918112854", "minzoom": 2, "maxzoom": 8 }, "properties": { "halo": 0.8, "title": "阿奎丹人", "fontsize": 12, "tyid": "304001", "oid": "103:1576575167096", "color": "#262626" }, "geometry": { "type": "Point", "coordinates": [ -0.175781, 43.834527 ] } }
{ "type": "Feature", "tippecanoe": { "layer": "2AFCA051EEB81583918112854", "minzoom": 2, "maxzoom": 8 }, "properties": { "halo": 0.8, "title": "卢西塔利亚人", "fontsize": 12, "tyid": "304001", "oid": "103:1576575167490", "color": "#262626" }, "geometry": { "type": "Point", "coordinates": [ -7.646484, 40.313043 ] } }
{ "type": "Feature", "tippecanoe": { "layer": "2AFCA051EEB81583918112854", "minzoom": 2, "maxzoom": 8 }, "properties": { "halo": 0.8, "title": "维托内人", "fontsize": 12, "tyid": "304001", "oid": "103:1576575167002", "color": "#262626" }, "geometry": { "type": "Point", "coordinates": [ -5.800781, 40.313043 ] } }
{ "type": "Feature", "tippecanoe": { "layer": "2AFCA051EEB81583918112854", "minzoom": 2, "maxzoom": 8 }, "properties": { "halo": 0.8, "title": "毛里塔尼亚王国", "fontsize": 12, "tyid": "304000", "oid": "103:1576575166976", "color": "#202020" }, "geometry": { "type": "Point", "coordinates": [ -5.009766, 34.524661 ] } }
{ "type": "Feature", "tippecanoe": { "layer": "2AFCA051EEB81583918112854", "minzoom": 2, "maxzoom": 8 }, "properties": { "halo": 0.8, "title": "杰内-杰诺文化一期", "fontsize": 12, "tyid": "304002", "oid": "103:1576575166898", "color": "#262626" }, "geometry": { "type": "Point", "coordinates": [ -4.482422, 13.667338 ] } }
{ "type": "Feature", "tippecanoe": { "layer": "2AFCA051EEB81583918112854", "minzoom": 2, "maxzoom": 8 }, "properties": { "halo": 0.8, "title": "楚真文化", "fontsize": 12, "tyid": "304002", "oid": "103:1576575166975", "color": "#262626" }, "geometry": { "type": "Point", "coordinates": [ -70.576172, -16.299051 ] } }
{ "type": "Feature", "tippecanoe": { "layer": "2AFCA051EEB81583918112854", "minzoom": 2, "maxzoom": 8 }, "properties": { "halo": 0.8, "title": "普卡拉文化", "fontsize": 12, "tyid": "304002", "oid": "103:1576575167279", "color": "#262626" }, "geometry": { "type": "Point", "coordinates": [ -69.873047, -14.604847 ] } }
{ "type": "Feature", "tippecanoe": { "layer": "2AFCA051EEB81583918112854", "minzoom": 2, "maxzoom": 8 }, "properties": { "halo": 0.8, "title": "艾马拉人", "fontsize": 12, "tyid": "304001", "oid": "103:1576575167233", "color": "#262626" }, "geometry": { "type": "Point", "coordinates": [ -68.291016, -17.224758 ] } }
{ "type": "Feature", "tippecanoe": { "layer": "2AFCA051EEB81583918112854", "minzoom": 2, "maxzoom": 8 }, "properties": { "halo": 0.8, "title": "昌戈人", "fontsize": 12, "tyid": "304001", "oid": "103:1576575166968", "color": "#262626" }, "geometry": { "type": "Point", "coordinates": [ -69.960938, -23.725012 ] } }
{ "type": "Feature", "tippecanoe": { "layer": "2AFCA051EEB81583918112854", "minzoom": 2, "maxzoom": 8 }, "properties": { "halo": 0.8, "title": "阿拉米托文化", "fontsize": 12, "tyid": "304002", "oid": "103:1576575167267", "color": "#262626" }, "geometry": { "type": "Point", "coordinates": [ -67.851562, -26.588527 ] } }
{ "type": "Feature", "tippecanoe": { "layer": "2AFCA051EEB81583918112854", "minzoom": 2, "maxzoom": 8 }, "properties": { "halo": 0.8, "title": "埃尔莫尔文化", "fontsize": 12, "tyid": "304002", "oid": "103:1576575167255", "color": "#262626" }, "geometry": { "type": "Point", "coordinates": [ -70.927734, -30.675715 ] } }
{ "type": "Feature", "tippecanoe": { "layer": "2AFCA051EEB81583918112854", "minzoom": 2, "maxzoom": 8 }, "properties": { "halo": 0.8, "title": "安西尔塔文化", "fontsize": 12, "tyid": "304002", "oid": "103:1576575167122", "color": "#262626" }, "geometry": { "type": "Point", "coordinates": [ -68.818359, -31.353637 ] } }
{ "type": "Feature", "tippecanoe": { "layer": "2AFCA051EEB81583918112854", "minzoom": 2, "maxzoom": 8 }, "properties": { "halo": 0.8, "title": "巴托文化", "fontsize": 12, "tyid": "304002", "oid": "103:1576575166973", "color": "#262626" }, "geometry": { "type": "Point", "coordinates": [ -70.839844, -33.431441 ] } }
{ "type": "Feature", "tippecanoe": { "layer": "2AFCA051EEB81583918112854", "minzoom": 2, "maxzoom": 8 }, "properties": { "halo": 0.8, "title": "马普切人", "fontsize": 12, "tyid": "304001", "oid": "103:1576575167191", "color": "#262626" }, "geometry": { "type": "Point", "coordinates": [ -71.455078, -38.959409 ] } }
{ "type": "Feature", "tippecanoe": { "layer": "2AFCA051EEB81583918112854", "minzoom": 2, "maxzoom": 8 }, "properties": { "halo": 0.8, "title": "希德拉里卡文化", "fontsize": 12, "tyid": "304002", "oid": "103:1576575167483", "color": "#262626" }, "geometry": { "type": "Point", "coordinates": [ -66.005859, -12.297068 ] } }
{ "type": "Feature", "tippecanoe": { "layer": "2AFCA051EEB81583918112854", "minzoom": 2, "maxzoom": 8 }, "properties": { "halo": 0.8, "title": "摩克索人", "fontsize": 12, "tyid": "304001", "oid": "103:1576575167025", "color": "#262626" }, "geometry": { "type": "Point", "coordinates": [ -65.830078, -13.923404 ] } }
{ "type": "Feature", "tippecanoe": { "layer": "2AFCA051EEB81583918112854", "minzoom": 2, "maxzoom": 8 }, "properties": { "halo": 0.8, "title": "瓦卡拉尼文化", "fontsize": 12, "tyid": "304002", "oid": "103:1576575167066", "color": "#262626" }, "geometry": { "type": "Point", "coordinates": [ -64.951172, -17.811456 ] } }
{ "type": "Feature", "tippecanoe": { "layer": "2AFCA051EEB81583918112854", "minzoom": 2, "maxzoom": 8 }, "properties": { "halo": 0.8, "title": "康多拉瓦西文化", "fontsize": 12, "tyid": "304002", "oid": "103:1576575167227", "color": "#262626" }, "geometry": { "type": "Point", "coordinates": [ -66.708984, -27.293689 ] } }
{ "type": "Feature", "tippecanoe": { "layer": "2AFCA051EEB81583918112854", "minzoom": 2, "maxzoom": 8 }, "properties": { "halo": 0.8, "title": "拉斯梅塞德斯文化", "fontsize": 12, "tyid": "304002", "oid": "103:1576575166966", "color": "#262626" }, "geometry": { "type": "Point", "coordinates": [ -63.808594, -27.605671 ] } }
{ "type": "Feature", "tippecanoe": { "layer": "2AFCA051EEB81583918112854", "minzoom": 2, "maxzoom": 8 }, "properties": { "halo": 0.8, "title": "查鲁亚人", "fontsize": 12, "tyid": "304001", "oid": "103:1576575167382", "color": "#262626" }, "geometry": { "type": "Point", "coordinates": [ -57.128906, -32.398516 ] } }
{ "type": "Feature", "tippecanoe": { "layer": "2AFCA051EEB81583918112854", "minzoom": 2, "maxzoom": 8 }, "properties": { "halo": 0.8, "title": "特胡尔切人", "fontsize": 12, "tyid": "304001", "oid": "103:1576575167417", "color": "#262626" }, "geometry": { "type": "Point", "coordinates": [ -70.751953, -50.176898 ] } }
{ "type": "Feature", "tippecanoe": { "layer": "2AFCA051EEB81583918112854", "minzoom": 2, "maxzoom": 8 }, "properties": { "halo": 0.8, "title": "塞尔克南人", "fontsize": 12, "tyid": "304001", "oid": "103:1576575167077", "color": "#262626" }, "geometry": { "type": "Point", "coordinates": [ -68.378906, -53.696706 ] } }
{ "type": "Feature", "tippecanoe": { "layer": "2AFCA051EEB81583918112854", "minzoom": 2, "maxzoom": 8 }, "properties": { "halo": 0.8, "title": "雅干人", "fontsize": 12, "tyid": "304001", "oid": "103:1576575167283", "color": "#262626" }, "geometry": { "type": "Point", "coordinates": [ -68.554688, -54.521081 ] } }
{ "type": "Feature", "tippecanoe": { "layer": "2AFCA051EEB81583918112854", "minzoom": 2, "maxzoom": 8 }, "properties": { "halo": 0.8, "title": "朱特人", "fontsize": 12, "tyid": "304001", "oid": "103:1576575166995", "color": "#262626" }, "geometry": { "type": "Point", "coordinates": [ 9.316406, 56.267761 ] } }
{ "type": "Feature", "tippecanoe": { "layer": "2AFCA051EEB81583918112854", "minzoom": 2, "maxzoom": 8 }, "properties": { "halo": 0.8, "title": "耶阿特人", "fontsize": 12, "tyid": "304001", "oid": "103:1576575167317", "color": "#262626" }, "geometry": { "type": "Point", "coordinates": [ 13.623047, 57.891497 ] } }
{ "type": "Feature", "tippecanoe": { "layer": "2AFCA051EEB81583918112854", "minzoom": 2, "maxzoom": 8 }, "properties": { "halo": 0.8, "title": "弗里西人", "fontsize": 12, "tyid": "304001", "oid": "103:1576575167102", "color": "#262626" }, "geometry": { "type": "Point", "coordinates": [ 6.503906, 52.696361 ] } }
{ "type": "Feature", "tippecanoe": { "layer": "2AFCA051EEB81583918112854", "minzoom": 2, "maxzoom": 8 }, "properties": { "halo": 0.8, "title": "乔西人", "fontsize": 12, "tyid": "304001", "oid": "103:1576575166985", "color": "#262626" }, "geometry": { "type": "Point", "coordinates": [ 8.701172, 53.067627 ] } }
{ "type": "Feature", "tippecanoe": { "layer": "2AFCA051EEB81583918112854", "minzoom": 2, "maxzoom": 8 }, "properties": { "halo": 0.8, "title": "萨克森人", "fontsize": 12, "tyid": "304001", "oid": "103:1576575166984", "color": "#262626" }, "geometry": { "type": "Point", "coordinates": [ 9.843750, 54.007769 ] } }
{ "type": "Feature", "tippecanoe": { "layer": "2AFCA051EEB81583918112854", "minzoom": 2, "maxzoom": 8 }, "properties": { "halo": 0.8, "title": "赫尔维蒂人", "fontsize": 12, "tyid": "304001", "oid": "103:1576575166949", "color": "#262626" }, "geometry": { "type": "Point", "coordinates": [ 7.207031, 46.920255 ] } }
{ "type": "Feature", "tippecanoe": { "layer": "2AFCA051EEB81583918112854", "minzoom": 2, "maxzoom": 8 }, "properties": { "halo": 0.8, "title": "蕾蒂人", "fontsize": 12, "tyid": "304001", "oid": "103:1576575167224", "color": "#262626" }, "geometry": { "type": "Point", "coordinates": [ 11.074219, 46.860191 ] } }
{ "type": "Feature", "tippecanoe": { "layer": "2AFCA051EEB81583918112854", "minzoom": 2, "maxzoom": 8 }, "properties": { "halo": 0.8, "title": "沃康蒂人", "fontsize": 12, "tyid": "304001", "oid": "103:1576575166947", "color": "#262626" }, "geometry": { "type": "Point", "coordinates": [ 5.800781, 44.653024 ] } }
{ "type": "Feature", "tippecanoe": { "layer": "2AFCA051EEB81583918112854", "minzoom": 2, "maxzoom": 8 }, "properties": { "halo": 0.8, "title": "利古里亚人", "fontsize": 12, "tyid": "304001", "oid": "103:1576575167194", "color": "#262626" }, "geometry": { "type": "Point", "coordinates": [ 6.591797, 43.897892 ] } }
{ "type": "Feature", "tippecanoe": { "layer": "2AFCA051EEB81583918112854", "minzoom": 2, "maxzoom": 8 }, "properties": { "halo": 0.8, "title": "伦巴第人", "fontsize": 12, "tyid": "304001", "oid": "103:1576575167048", "color": "#262626" }, "geometry": { "type": "Point", "coordinates": [ 12.656250, 53.540307 ] } }
{ "type": "Feature", "tippecanoe": { "layer": "2AFCA051EEB81583918112854", "minzoom": 2, "maxzoom": 8 }, "properties": { "halo": 0.8, "title": "西波罗的海坟文化", "fontsize": 12, "tyid": "304002", "oid": "103:1576575167289", "color": "#262626" }, "geometry": { "type": "Point", "coordinates": [ 21.708984, 54.213861 ] } }
{ "type": "Feature", "tippecanoe": { "layer": "2AFCA051EEB81583918112854", "minzoom": 2, "maxzoom": 8 }, "properties": { "halo": 0.8, "title": "汪达尔人", "fontsize": 12, "tyid": "304001", "oid": "103:1576575167477", "color": "#262626" }, "geometry": { "type": "Point", "coordinates": [ 19.423828, 50.625073 ] } }
{ "type": "Feature", "tippecanoe": { "layer": "2AFCA051EEB81583918112854", "minzoom": 2, "maxzoom": 8 }, "properties": { "halo": 0.8, "title": "伊利里亚人", "fontsize": 12, "tyid": "304001", "oid": "103:1576575166954", "color": "#262626" }, "geometry": { "type": "Point", "coordinates": [ 18.017578, 44.339565 ] } }
{ "type": "Feature", "tippecanoe": { "layer": "2AFCA051EEB81583918112854", "minzoom": 2, "maxzoom": 8 }, "properties": { "halo": 0.8, "title": "潘诺尼亚人", "fontsize": 12, "tyid": "304001", "oid": "103:1576575167103", "color": "#262626" }, "geometry": { "type": "Point", "coordinates": [ 19.775391, 44.590467 ] } }
{ "type": "Feature", "tippecanoe": { "layer": "2AFCA051EEB81583918112854", "minzoom": 2, "maxzoom": 8 }, "properties": { "halo": 0.8, "title": "达尔达尼亚王国", "fontsize": 12, "tyid": "304000", "oid": "103:1576575167222", "color": "#202020" }, "geometry": { "type": "Point", "coordinates": [ 21.445312, 42.617791 ] } }
{ "type": "Feature", "tippecanoe": { "layer": "2AFCA051EEB81583918112854", "minzoom": 2, "maxzoom": 8 }, "properties": { "halo": 0.8, "title": "古爱沙尼亚人", "fontsize": 12, "tyid": "304001", "oid": "103:1576575167119", "color": "#262626" }, "geometry": { "type": "Point", "coordinates": [ 25.576172, 58.995311 ] } }
{ "type": "Feature", "tippecanoe": { "layer": "2AFCA051EEB81583918112854", "minzoom": 2, "maxzoom": 8 }, "properties": { "halo": 0.8, "title": "利沃尼亚人", "fontsize": 12, "tyid": "304001", "oid": "103:1576575166920", "color": "#262626" }, "geometry": { "type": "Point", "coordinates": [ 25.839844, 58.170702 ] } }
{ "type": "Feature", "tippecanoe": { "layer": "2AFCA051EEB81583918112854", "minzoom": 2, "maxzoom": 8 }, "properties": { "halo": 0.8, "title": "古拉脱维亚人", "fontsize": 12, "tyid": "304001", "oid": "103:1576575167329", "color": "#262626" }, "geometry": { "type": "Point", "coordinates": [ 26.630859, 56.848972 ] } }
{ "type": "Feature", "tippecanoe": { "layer": "2AFCA051EEB81583918112854", "minzoom": 2, "maxzoom": 8 }, "properties": { "halo": 0.8, "title": "沃茨人", "fontsize": 12, "tyid": "304001", "oid": "103:1576575167256", "color": "#262626" }, "geometry": { "type": "Point", "coordinates": [ 29.794922, 59.040555 ] } }
{ "type": "Feature", "tippecanoe": { "layer": "2AFCA051EEB81583918112854", "minzoom": 2, "maxzoom": 8 }, "properties": { "halo": 0.8, "title": "阴影陶文化", "fontsize": 12, "tyid": "304002", "oid": "103:1576575167334", "color": "#262626" }, "geometry": { "type": "Point", "coordinates": [ 24.785156, 55.627996 ] } }
{ "type": "Feature", "tippecanoe": { "layer": "2AFCA051EEB81583918112854", "minzoom": 2, "maxzoom": 8 }, "properties": { "halo": 0.8, "title": "米洛格勒文化", "fontsize": 12, "tyid": "304002", "oid": "103:1576575167353", "color": "#262626" }, "geometry": { "type": "Point", "coordinates": [ 26.718750, 53.435719 ] } }
{ "type": "Feature", "tippecanoe": { "layer": "2AFCA051EEB81583918112854", "minzoom": 2, "maxzoom": 8 }, "properties": { "halo": 0.8, "title": "维内德人", "fontsize": 12, "tyid": "304001", "oid": "103:1576575167369", "color": "#262626" }, "geometry": { "type": "Point", "coordinates": [ 24.257812, 51.069017 ] } }
{ "type": "Feature", "tippecanoe": { "layer": "2AFCA051EEB81583918112854", "minzoom": 2, "maxzoom": 8 }, "properties": { "halo": 0.8, "title": "普热沃斯克文化", "fontsize": 12, "tyid": "304002", "oid": "103:1576575166981", "color": "#262626" }, "geometry": { "type": "Point", "coordinates": [ 23.203125, 49.152970 ] } }
{ "type": "Feature", "tippecanoe": { "layer": "2AFCA051EEB81583918112854", "minzoom": 2, "maxzoom": 8 }, "properties": { "halo": 0.8, "title": "达契亚王国", "fontsize": 12, "tyid": "304000", "oid": "103:1576575166905", "color": "#202020" }, "geometry": { "type": "Point", "coordinates": [ 23.642578, 46.679594 ] } }
{ "type": "Feature", "tippecanoe": { "layer": "2AFCA051EEB81583918112854", "minzoom": 2, "maxzoom": 8 }, "properties": { "halo": 0.8, "title": "达契亚人", "fontsize": 12, "tyid": "304001", "oid": "103:1576575167418", "color": "#262626" }, "geometry": { "type": "Point", "coordinates": [ 27.070312, 46.437857 ] } }
{ "type": "Feature", "tippecanoe": { "layer": "2AFCA051EEB81583918112854", "minzoom": 2, "maxzoom": 8 }, "properties": { "halo": 0.8, "title": "奥德里西亚王国", "fontsize": 12, "tyid": "304000", "oid": "103:1576575167099", "color": "#202020" }, "geometry": { "type": "Point", "coordinates": [ 25.224609, 42.553080 ] } }
{ "type": "Feature", "tippecanoe": { "layer": "2AFCA051EEB81583918112854", "minzoom": 2, "maxzoom": 8 }, "properties": { "halo": 0.8, "title": "盖塔人", "fontsize": 12, "tyid": "304001", "oid": "103:1576575166904", "color": "#262626" }, "geometry": { "type": "Point", "coordinates": [ 27.246094, 44.213710 ] } }
{ "type": "Feature", "tippecanoe": { "layer": "2AFCA051EEB81583918112854", "minzoom": 2, "maxzoom": 8 }, "properties": { "halo": 0.8, "title": "巴斯塔奈人", "fontsize": 12, "tyid": "304001", "oid": "103:1576575166996", "color": "#262626" }, "geometry": { "type": "Point", "coordinates": [ 29.179688, 47.338823 ] } }
{ "type": "Feature", "tippecanoe": { "layer": "2AFCA051EEB81583918112854", "minzoom": 2, "maxzoom": 8 }, "properties": { "halo": 0.8, "title": "埃阿热格人", "fontsize": 12, "tyid": "304001", "oid": "103:1576575167314", "color": "#262626" }, "geometry": { "type": "Point", "coordinates": [ 31.728516, 48.574790 ] } }
{ "type": "Feature", "tippecanoe": { "layer": "2AFCA051EEB81583918112854", "minzoom": 2, "maxzoom": 8 }, "properties": { "halo": 0.8, "title": "上奥卡文化", "fontsize": 12, "tyid": "304002", "oid": "103:1576575166909", "color": "#262626" }, "geometry": { "type": "Point", "coordinates": [ 37.353516, 53.540307 ] } }
{ "type": "Feature", "tippecanoe": { "layer": "2AFCA051EEB81583918112854", "minzoom": 2, "maxzoom": 8 }, "properties": { "halo": 0.8, "title": "尤赫诺夫文化", "fontsize": 12, "tyid": "304002", "oid": "103:1576575166957", "color": "#262626" }, "geometry": { "type": "Point", "coordinates": [ 34.716797, 52.214339 ] } }
{ "type": "Feature", "tippecanoe": { "layer": "2AFCA051EEB81583918112854", "minzoom": 2, "maxzoom": 8 }, "properties": { "halo": 0.8, "title": "梅田人", "fontsize": 12, "tyid": "304001", "oid": "103:1576575166935", "color": "#262626" }, "geometry": { "type": "Point", "coordinates": [ 38.144531, 45.644768 ] } }
{ "type": "Feature", "tippecanoe": { "layer": "2AFCA051EEB81583918112854", "minzoom": 2, "maxzoom": 8 }, "properties": { "halo": 0.8, "title": "西雷斯人", "fontsize": 12, "tyid": "304001", "oid": "103:1576575166927", "color": "#262626" }, "geometry": { "type": "Point", "coordinates": [ 41.396484, 45.644768 ] } }
{ "type": "Feature", "tippecanoe": { "layer": "2AFCA051EEB81583918112854", "minzoom": 2, "maxzoom": 8 }, "properties": { "halo": 0.8, "title": "切尔克斯人", "fontsize": 12, "tyid": "304001", "oid": "103:1576575166932", "color": "#262626" }, "geometry": { "type": "Point", "coordinates": [ 42.011719, 43.707594 ] } }
{ "type": "Feature", "tippecanoe": { "layer": "2AFCA051EEB81583918112854", "minzoom": 2, "maxzoom": 8 }, "properties": { "halo": 0.8, "title": "科尔基斯王国", "fontsize": 12, "tyid": "304000", "oid": "103:1576575167174", "color": "#202020" }, "geometry": { "type": "Point", "coordinates": [ 42.539062, 42.617791 ] } }
{ "type": "Feature", "tippecanoe": { "layer": "2AFCA051EEB81583918112854", "minzoom": 2, "maxzoom": 8 }, "properties": { "halo": 0.8, "title": "加拉曼特王国", "fontsize": 12, "tyid": "304000", "oid": "103:1576575167109", "color": "#202020" }, "geometry": { "type": "Point", "coordinates": [ 13.886719, 26.902477 ] } }
{ "type": "Feature", "tippecanoe": { "layer": "2AFCA051EEB81583918112854", "minzoom": 2, "maxzoom": 8 }, "properties": { "halo": 0.8, "title": "约鲁巴人", "fontsize": 12, "tyid": "304001", "oid": "103:1576575167384", "color": "#262626" }, "geometry": { "type": "Point", "coordinates": [ 3.427734, 7.536764 ] } }
{ "type": "Feature", "tippecanoe": { "layer": "2AFCA051EEB81583918112854", "minzoom": 2, "maxzoom": 8 }, "properties": { "halo": 0.8, "title": "伊博人", "fontsize": 12, "tyid": "304001", "oid": "103:1576575167197", "color": "#262626" }, "geometry": { "type": "Point", "coordinates": [ 7.998047, 5.965754 ] } }
{ "type": "Feature", "tippecanoe": { "layer": "2AFCA051EEB81583918112854", "minzoom": 2, "maxzoom": 8 }, "properties": { "halo": 0.8, "title": "罗德斯国", "fontsize": 12, "tyid": "304000", "oid": "103:1576575167497", "color": "#202020" }, "geometry": { "type": "Point", "coordinates": [ 28.037109, 37.300275 ] } }
{ "type": "Feature", "tippecanoe": { "layer": "2AFCA051EEB81583918112854", "minzoom": 2, "maxzoom": 8 }, "properties": { "halo": 0.8, "title": "比提尼亚王国", "fontsize": 12, "tyid": "304000", "oid": "103:1576575167098", "color": "#202020" }, "geometry": { "type": "Point", "coordinates": [ 30.410156, 40.713956 ] } }
{ "type": "Feature", "tippecanoe": { "layer": "2AFCA051EEB81583918112854", "minzoom": 2, "maxzoom": 8 }, "properties": { "halo": 0.8, "title": "帕加马王国", "fontsize": 12, "tyid": "304000", "oid": "103:1576575167101", "color": "#202020" }, "geometry": { "type": "Point", "coordinates": [ 30.058594, 38.479395 ] } }
{ "type": "Feature", "tippecanoe": { "layer": "2AFCA051EEB81583918112854", "minzoom": 2, "maxzoom": 8 }, "properties": { "halo": 0.8, "title": "加拉提亚高卢人", "fontsize": 12, "tyid": "304001", "oid": "103:1576575167308", "color": "#262626" }, "geometry": { "type": "Point", "coordinates": [ 32.607422, 39.774769 ] } }
{ "type": "Feature", "tippecanoe": { "layer": "2AFCA051EEB81583918112854", "minzoom": 2, "maxzoom": 8 }, "properties": { "halo": 0.8, "title": "卡帕多西亚王国", "fontsize": 12, "tyid": "304000", "oid": "103:1576575167017", "color": "#202020" }, "geometry": { "type": "Point", "coordinates": [ 36.123047, 38.754083 ] } }
{ "type": "Feature", "tippecanoe": { "layer": "2AFCA051EEB81583918112854", "minzoom": 2, "maxzoom": 8 }, "properties": { "halo": 0.8, "title": "本都王国", "fontsize": 12, "tyid": "304000", "oid": "103:1576575167499", "color": "#202020" }, "geometry": { "type": "Point", "coordinates": [ 37.880859, 40.111689 ] } }
{ "type": "Feature", "tippecanoe": { "layer": "2AFCA051EEB81583918112854", "minzoom": 2, "maxzoom": 8 }, "properties": { "halo": 0.8, "title": "塔努联盟", "fontsize": 12, "tyid": "304002", "oid": "103:1576575167374", "color": "#262626" }, "geometry": { "type": "Point", "coordinates": [ 39.199219, 32.694866 ] } }
{ "type": "Feature", "tippecanoe": { "layer": "2AFCA051EEB81583918112854", "minzoom": 2, "maxzoom": 8 }, "properties": { "halo": 0.8, "title": "索芬尼王国", "fontsize": 12, "tyid": "304000", "oid": "103:1576575167412", "color": "#202020" }, "geometry": { "type": "Point", "coordinates": [ 39.990234, 38.203655 ] } }
{ "type": "Feature", "tippecanoe": { "layer": "2AFCA051EEB81583918112854", "minzoom": 2, "maxzoom": 8 }, "properties": { "halo": 0.8, "title": "亚美尼亚阿泰克西德王朝", "fontsize": 12, "tyid": "304000", "oid": "103:1576575167268", "color": "#202020" }, "geometry": { "type": "Point", "coordinates": [ 43.066406, 39.300299 ] } }
{ "type": "Feature", "tippecanoe": { "layer": "2AFCA051EEB81583918112854", "minzoom": 2, "maxzoom": 8 }, "properties": { "halo": 0.8, "title": "科杜内王国", "fontsize": 12, "tyid": "304000", "oid": "103:1576575167303", "color": "#202020" }, "geometry": { "type": "Point", "coordinates": [ 42.802734, 37.230328 ] } }
{ "type": "Feature", "tippecanoe": { "layer": "2AFCA051EEB81583918112854", "minzoom": 2, "maxzoom": 8 }, "properties": { "halo": 0.8, "title": "纳巴泰王国", "fontsize": 12, "tyid": "304000", "oid": "103:1576575167484", "color": "#202020" }, "geometry": { "type": "Point", "coordinates": [ 35.595703, 29.840644 ] } }
{ "type": "Feature", "tippecanoe": { "layer": "2AFCA051EEB81583918112854", "minzoom": 2, "maxzoom": 8 }, "properties": { "halo": 0.8, "title": "布雷米耶国", "fontsize": 12, "tyid": "304001", "oid": "103:1576575167035", "color": "#262626" }, "geometry": { "type": "Point", "coordinates": [ 34.980469, 21.453069 ] } }
{ "type": "Feature", "tippecanoe": { "layer": "2AFCA051EEB81583918112854", "minzoom": 2, "maxzoom": 8 }, "properties": { "halo": 0.8, "title": "贝扎人", "fontsize": 12, "tyid": "304001", "oid": "103:1576575167306", "color": "#262626" }, "geometry": { "type": "Point", "coordinates": [ 35.771484, 16.383391 ] } }
{ "type": "Feature", "tippecanoe": { "layer": "2AFCA051EEB81583918112854", "minzoom": 2, "maxzoom": 8 }, "properties": { "halo": 0.8, "title": "原始-阿克苏姆铁器时代", "fontsize": 12, "tyid": "304002", "oid": "103:1576575167257", "color": "#262626" }, "geometry": { "type": "Point", "coordinates": [ 39.111328, 13.923404 ] } }
{ "type": "Feature", "tippecanoe": { "layer": "2AFCA051EEB81583918112854", "minzoom": 2, "maxzoom": 8 }, "properties": { "halo": 0.8, "title": "肯德部落", "fontsize": 12, "tyid": "304001", "oid": "103:1576575167165", "color": "#262626" }, "geometry": { "type": "Point", "coordinates": [ 44.912109, 19.642588 ] } }
{ "type": "Feature", "tippecanoe": { "layer": "2AFCA051EEB81583918112854", "minzoom": 2, "maxzoom": 8 }, "properties": { "halo": 0.8, "title": "高原诸小王国", "fontsize": 12, "tyid": "304002", "oid": "103:1576575167163", "color": "#262626" }, "geometry": { "type": "Point", "coordinates": [ 41.835938, 12.726084 ] } }
{ "type": "Feature", "tippecanoe": { "layer": "2AFCA051EEB81583918112854", "minzoom": 2, "maxzoom": 8 }, "properties": { "halo": 0.8, "title": "迈因王国", "fontsize": 12, "tyid": "304000", "oid": "103:1576575167467", "color": "#202020" }, "geometry": { "type": "Point", "coordinates": [ 44.824219, 16.299051 ] } }
{ "type": "Feature", "tippecanoe": { "layer": "2AFCA051EEB81583918112854", "minzoom": 2, "maxzoom": 8 }, "properties": { "halo": 0.8, "title": "塞巴王国", "fontsize": 12, "tyid": "304000", "oid": "103:1576575167139", "color": "#202020" }, "geometry": { "type": "Point", "coordinates": [ 44.033203, 14.604847 ] } }
{ "type": "Feature", "tippecanoe": { "layer": "2AFCA051EEB81583918112854", "minzoom": 2, "maxzoom": 8 }, "properties": { "halo": 0.8, "title": "派诺博尔斯基文化", "fontsize": 12, "tyid": "304002", "oid": "103:1576575167054", "color": "#262626" }, "geometry": { "type": "Point", "coordinates": [ 50.449219, 56.897004 ] } }
{ "type": "Feature", "tippecanoe": { "layer": "2AFCA051EEB81583918112854", "minzoom": 2, "maxzoom": 8 }, "properties": { "halo": 0.8, "title": "高加索伊比利亚王国", "fontsize": 12, "tyid": "304000", "oid": "103:1576575167175", "color": "#202020" }, "geometry": { "type": "Point", "coordinates": [ 45.000000, 41.705729 ] } }
{ "type": "Feature", "tippecanoe": { "layer": "2AFCA051EEB81583918112854", "minzoom": 2, "maxzoom": 8 }, "properties": { "halo": 0.8, "title": "塞迦人", "fontsize": 12, "tyid": "304001", "oid": "103:1576575167470", "color": "#262626" }, "geometry": { "type": "Point", "coordinates": [ 57.392578, 42.358544 ] } }
{ "type": "Feature", "tippecanoe": { "layer": "2AFCA051EEB81583918112854", "minzoom": 2, "maxzoom": 8 }, "properties": { "halo": 0.8, "title": "驩潜国", "fontsize": 12, "tyid": "304000", "oid": "103:1576575167472", "color": "#202020" }, "geometry": { "type": "Point", "coordinates": [ 59.765625, 42.488302 ] } }
{ "type": "Feature", "tippecanoe": { "layer": "2AFCA051EEB81583918112854", "minzoom": 2, "maxzoom": 8 }, "properties": { "halo": 0.8, "title": "龟兹国", "fontsize": 12, "tyid": "304000", "oid": "103:1576575167158", "color": "#202020" }, "geometry": { "type": "Point", "coordinates": [ 82.792969, 41.442726 ] } }
{ "type": "Feature", "tippecanoe": { "layer": "2AFCA051EEB81583918112854", "minzoom": 2, "maxzoom": 8 }, "properties": { "halo": 0.8, "title": "车师国", "fontsize": 12, "tyid": "304000", "oid": "103:1576575167276", "color": "#202020" }, "geometry": { "type": "Point", "coordinates": [ 89.560547, 43.197167 ] } }
{ "type": "Feature", "tippecanoe": { "layer": "2AFCA051EEB81583918112854", "minzoom": 2, "maxzoom": 8 }, "properties": { "halo": 0.8, "title": "危须国", "fontsize": 12, "tyid": "304000", "oid": "103:1576575167004", "color": "#202020" }, "geometry": { "type": "Point", "coordinates": [ 87.363281, 42.423457 ] } }
{ "type": "Feature", "tippecanoe": { "layer": "2AFCA051EEB81583918112854", "minzoom": 2, "maxzoom": 8 }, "properties": { "halo": 0.8, "title": "墨山国", "fontsize": 12, "tyid": "304000", "oid": "103:1576575167381", "color": "#202020" }, "geometry": { "type": "Point", "coordinates": [ 88.593750, 41.310824 ] } }
{ "type": "Feature", "tippecanoe": { "layer": "2AFCA051EEB81583918112854", "minzoom": 2, "maxzoom": 8 }, "properties": { "halo": 0.8, "title": "阿特罗帕特尼王国", "fontsize": 12, "tyid": "304000", "oid": "103:1576575167316", "color": "#202020" }, "geometry": { "type": "Point", "coordinates": [ 47.197266, 38.065392 ] } }
{ "type": "Feature", "tippecanoe": { "layer": "2AFCA051EEB81583918112854", "minzoom": 2, "maxzoom": 8 }, "properties": { "halo": 0.8, "title": "高加索阿尔巴尼亚人", "fontsize": 12, "tyid": "304001", "oid": "103:1576575167231", "color": "#262626" }, "geometry": { "type": "Point", "coordinates": [ 47.900391, 40.580585 ] } }
{ "type": "Feature", "tippecanoe": { "layer": "2AFCA051EEB81583918112854", "minzoom": 2, "maxzoom": 8 }, "properties": { "halo": 0.8, "title": "埃利迈斯王国", "fontsize": 12, "tyid": "304000", "oid": "103:1576575166942", "color": "#202020" }, "geometry": { "type": "Point", "coordinates": [ 48.955078, 31.503629 ] } }
{ "type": "Feature", "tippecanoe": { "layer": "2AFCA051EEB81583918112854", "minzoom": 2, "maxzoom": 8 }, "properties": { "halo": 0.8, "title": "格拉", "fontsize": 12, "tyid": "304002", "oid": "103:1576575167171", "color": "#262626" }, "geometry": { "type": "Point", "coordinates": [ 49.218750, 26.902477 ] } }
{ "type": "Feature", "tippecanoe": { "layer": "2AFCA051EEB81583918112854", "minzoom": 2, "maxzoom": 8 }, "properties": { "halo": 0.8, "title": "波西斯", "fontsize": 12, "tyid": "304000", "oid": "103:1576575167205", "color": "#202020" }, "geometry": { "type": "Point", "coordinates": [ 53.173828, 28.998532 ] } }
{ "type": "Feature", "tippecanoe": { "layer": "2AFCA051EEB81583918112854", "minzoom": 2, "maxzoom": 8 }, "properties": { "halo": 0.8, "title": "奥桑王国", "fontsize": 12, "tyid": "304000", "oid": "103:1576575167506", "color": "#202020" }, "geometry": { "type": "Point", "coordinates": [ 45.966797, 13.923404 ] } }
{ "type": "Feature", "tippecanoe": { "layer": "2AFCA051EEB81583918112854", "minzoom": 2, "maxzoom": 8 }, "properties": { "halo": 0.8, "title": "阿德王国", "fontsize": 12, "tyid": "304000", "oid": "103:1576575167169", "color": "#202020" }, "geometry": { "type": "Point", "coordinates": [ 52.382812, 18.646245 ] } }
{ "type": "Feature", "tippecanoe": { "layer": "2AFCA051EEB81583918112854", "minzoom": 2, "maxzoom": 8 }, "properties": { "halo": 0.8, "title": "哈德拉毛王国", "fontsize": 12, "tyid": "304000", "oid": "103:1576575167170", "color": "#202020" }, "geometry": { "type": "Point", "coordinates": [ 50.976562, 16.299051 ] } }
{ "type": "Feature", "tippecanoe": { "layer": "2AFCA051EEB81583918112854", "minzoom": 2, "maxzoom": 8 }, "properties": { "halo": 0.8, "title": "大宛国", "fontsize": 12, "tyid": "304000", "oid": "103:1576575167350", "color": "#202020" }, "geometry": { "type": "Point", "coordinates": [ 71.982422, 40.446947 ] } }
{ "type": "Feature", "tippecanoe": { "layer": "2AFCA051EEB81583918112854", "minzoom": 2, "maxzoom": 8 }, "properties": { "halo": 0.8, "title": "莎车国", "fontsize": 12, "tyid": "304000", "oid": "103:1576575166956", "color": "#202020" }, "geometry": { "type": "Point", "coordinates": [ 77.431641, 38.822591 ] } }
{ "type": "Feature", "tippecanoe": { "layer": "2AFCA051EEB81583918112854", "minzoom": 2, "maxzoom": 8 }, "properties": { "halo": 0.8, "title": "西夜国", "fontsize": 12, "tyid": "304000", "oid": "103:1576575167072", "color": "#202020" }, "geometry": { "type": "Point", "coordinates": [ 78.046875, 36.949892 ] } }
{ "type": "Feature", "tippecanoe": { "layer": "2AFCA051EEB81583918112854", "minzoom": 2, "maxzoom": 8 }, "properties": { "halo": 0.8, "title": "乌秅国", "fontsize": 12, "tyid": "304000", "oid": "103:1576575167299", "color": "#202020" }, "geometry": { "type": "Point", "coordinates": [ 76.728516, 36.385913 ] } }
{ "type": "Feature", "tippecanoe": { "layer": "2AFCA051EEB81583918112854", "minzoom": 2, "maxzoom": 8 }, "properties": { "halo": 0.8, "title": "古宁陀王国", "fontsize": 12, "tyid": "304000", "oid": "103:1576575167090", "color": "#202020" }, "geometry": { "type": "Point", "coordinates": [ 76.992188, 31.728167 ] } }
{ "type": "Feature", "tippecanoe": { "layer": "2AFCA051EEB81583918112854", "minzoom": 2, "maxzoom": 8 }, "properties": { "halo": 0.8, "title": "姑墨国", "fontsize": 12, "tyid": "304000", "oid": "103:1576575167037", "color": "#202020" }, "geometry": { "type": "Point", "coordinates": [ 80.683594, 40.847060 ] } }
{ "type": "Feature", "tippecanoe": { "layer": "2AFCA051EEB81583918112854", "minzoom": 2, "maxzoom": 8 }, "properties": { "halo": 0.8, "title": "于阗国", "fontsize": 12, "tyid": "304000", "oid": "103:1576575166869", "color": "#202020" }, "geometry": { "type": "Point", "coordinates": [ 80.156250, 38.272689 ] } }
{ "type": "Feature", "tippecanoe": { "layer": "2AFCA051EEB81583918112854", "minzoom": 2, "maxzoom": 8 }, "properties": { "halo": 0.8, "title": "扜弥国", "fontsize": 12, "tyid": "304000", "oid": "103:1576575166881", "color": "#202020" }, "geometry": { "type": "Point", "coordinates": [ 81.914062, 38.616870 ] } }
{ "type": "Feature", "tippecanoe": { "layer": "2AFCA051EEB81583918112854", "minzoom": 2, "maxzoom": 8 }, "properties": { "halo": 0.8, "title": "精绝国", "fontsize": 12, "tyid": "304000", "oid": "103:1576575167246", "color": "#202020" }, "geometry": { "type": "Point", "coordinates": [ 82.880859, 37.509726 ] } }
{ "type": "Feature", "tippecanoe": { "layer": "2AFCA051EEB81583918112854", "minzoom": 2, "maxzoom": 8 }, "properties": { "halo": 0.8, "title": "尉犁国", "fontsize": 12, "tyid": "304000", "oid": "103:1576575167253", "color": "#202020" }, "geometry": { "type": "Point", "coordinates": [ 86.923828, 40.979898 ] } }
{ "type": "Feature", "tippecanoe": { "layer": "2AFCA051EEB81583918112854", "minzoom": 2, "maxzoom": 8 }, "properties": { "halo": 0.8, "title": "且末国", "fontsize": 12, "tyid": "304000", "oid": "103:1576575167221", "color": "#202020" }, "geometry": { "type": "Point", "coordinates": [ 86.044922, 38.341656 ] } }
{ "type": "Feature", "tippecanoe": { "layer": "2AFCA051EEB81583918112854", "minzoom": 2, "maxzoom": 8 }, "properties": { "halo": 0.8, "title": "楼兰国", "fontsize": 12, "tyid": "304000", "oid": "103:1576575166883", "color": "#202020" }, "geometry": { "type": "Point", "coordinates": [ 89.824219, 40.044438 ] } }
{ "type": "Feature", "tippecanoe": { "layer": "2AFCA051EEB81583918112854", "minzoom": 2, "maxzoom": 8 }, "properties": { "halo": 0.8, "title": "婼羌国", "fontsize": 12, "tyid": "304000", "oid": "103:1576575166877", "color": "#202020" }, "geometry": { "type": "Point", "coordinates": [ 89.912109, 38.134557 ] } }
{ "type": "Feature", "tippecanoe": { "layer": "2AFCA051EEB81583918112854", "minzoom": 2, "maxzoom": 8 }, "properties": { "halo": 0.8, "title": "般遮罗国", "fontsize": 12, "tyid": "304000", "oid": "103:1576575166866", "color": "#202020" }, "geometry": { "type": "Point", "coordinates": [ 79.541016, 28.690588 ] } }
{ "type": "Feature", "tippecanoe": { "layer": "2AFCA051EEB81583918112854", "minzoom": 2, "maxzoom": 8 }, "properties": { "halo": 0.8, "title": "克拉底王国", "fontsize": 12, "tyid": "304000", "oid": "103:1576575166889", "color": "#202020" }, "geometry": { "type": "Point", "coordinates": [ 84.199219, 28.071980 ] } }
{ "type": "Feature", "tippecanoe": { "layer": "2AFCA051EEB81583918112854", "minzoom": 2, "maxzoom": 8 }, "properties": { "halo": 0.8, "title": "德瓦王朝", "fontsize": 12, "tyid": "304000", "oid": "103:1576575166872", "color": "#202020" }, "geometry": { "type": "Point", "coordinates": [ 82.880859, 26.824071 ] } }
{ "type": "Feature", "tippecanoe": { "layer": "2AFCA051EEB81583918112854", "minzoom": 2, "maxzoom": 8 }, "properties": { "halo": 0.8, "title": "阿西亚曼王国", "fontsize": 12, "tyid": "304000", "oid": "103:1576575167131", "color": "#202020" }, "geometry": { "type": "Point", "coordinates": [ 77.519531, 11.781325 ] } }
{ "type": "Feature", "tippecanoe": { "layer": "2AFCA051EEB81583918112854", "minzoom": 2, "maxzoom": 8 }, "properties": { "halo": 0.8, "title": "哲罗国", "fontsize": 12, "tyid": "304000", "oid": "103:1576575167108", "color": "#202020" }, "geometry": { "type": "Point", "coordinates": [ 76.464844, 10.314919 ] } }
{ "type": "Feature", "tippecanoe": { "layer": "2AFCA051EEB81583918112854", "minzoom": 2, "maxzoom": 8 }, "properties": { "halo": 0.8, "title": "潘地亚王国", "fontsize": 12, "tyid": "304000", "oid": "103:1576575166862", "color": "#202020" }, "geometry": { "type": "Point", "coordinates": [ 77.958984, 9.535749 ] } }
{ "type": "Feature", "tippecanoe": { "layer": "2AFCA051EEB81583918112854", "minzoom": 2, "maxzoom": 8 }, "properties": { "halo": 0.8, "title": "质多王朝", "fontsize": 12, "tyid": "304000", "oid": "103:1576575167062", "color": "#202020" }, "geometry": { "type": "Point", "coordinates": [ 84.375000, 20.385825 ] } }
{ "type": "Feature", "tippecanoe": { "layer": "2AFCA051EEB81583918112854", "minzoom": 2, "maxzoom": 8 }, "properties": { "halo": 0.8, "title": "朱罗国", "fontsize": 12, "tyid": "304000", "oid": "103:1576575167344", "color": "#202020" }, "geometry": { "type": "Point", "coordinates": [ 78.750000, 11.178402 ] } }
{ "type": "Feature", "tippecanoe": { "layer": "2AFCA051EEB81583918112854", "minzoom": 2, "maxzoom": 8 }, "properties": { "halo": 0.8, "title": "阿努拉德普勒王国", "fontsize": 12, "tyid": "304000", "oid": "103:1576575167428", "color": "#202020" }, "geometry": { "type": "Point", "coordinates": [ 80.683594, 7.623887 ] } }
{ "type": "Feature", "tippecanoe": { "layer": "2AFCA051EEB81583918112854", "minzoom": 2, "maxzoom": 8 }, "properties": { "halo": 0.8, "title": "蒲类国", "fontsize": 12, "tyid": "304000", "oid": "103:1576575166874", "color": "#202020" }, "geometry": { "type": "Point", "coordinates": [ 92.109375, 44.087585 ] } }
{ "type": "Feature", "tippecanoe": { "layer": "2AFCA051EEB81583918112854", "minzoom": 2, "maxzoom": 8 }, "properties": { "halo": 0.8, "title": "乌桓", "fontsize": 12, "tyid": "304001", "oid": "103:1576575167380", "color": "#262626" }, "geometry": { "type": "Point", "coordinates": [ 121.113281, 43.707594 ] } }
{ "type": "Feature", "tippecanoe": { "layer": "2AFCA051EEB81583918112854", "minzoom": 2, "maxzoom": 8 }, "properties": { "halo": 0.8, "title": "北沃沮", "fontsize": 12, "tyid": "304001", "oid": "103:1576575167141", "color": "#262626" }, "geometry": { "type": "Point", "coordinates": [ 128.935547, 42.032974 ] } }
{ "type": "Feature", "tippecanoe": { "layer": "2AFCA051EEB81583918112854", "minzoom": 2, "maxzoom": 8 }, "properties": { "halo": 0.8, "title": "三摩呾吒国", "fontsize": 12, "tyid": "304000", "oid": "103:1576575167331", "color": "#202020" }, "geometry": { "type": "Point", "coordinates": [ 91.054688, 23.725012 ] } }
{ "type": "Feature", "tippecanoe": { "layer": "2AFCA051EEB81583918112854", "minzoom": 2, "maxzoom": 8 }, "properties": { "halo": 0.8, "title": "巂", "fontsize": 12, "tyid": "304001", "oid": "103:1576575167443", "color": "#262626" }, "geometry": { "type": "Point", "coordinates": [ 98.261719, 25.799891 ] } }
{ "type": "Feature", "tippecanoe": { "layer": "2AFCA051EEB81583918112854", "minzoom": 2, "maxzoom": 8 }, "properties": { "halo": 0.8, "title": "昆明", "fontsize": 12, "tyid": "304001", "oid": "103:1576575167236", "color": "#262626" }, "geometry": { "type": "Point", "coordinates": [ 100.283203, 25.720735 ] } }
{ "type": "Feature", "tippecanoe": { "layer": "2AFCA051EEB81583918112854", "minzoom": 2, "maxzoom": 8 }, "properties": { "halo": 0.8, "title": "氐人", "fontsize": 12, "tyid": "304001", "oid": "103:1576575167437", "color": "#262626" }, "geometry": { "type": "Point", "coordinates": [ 104.150391, 33.211116 ] } }
{ "type": "Feature", "tippecanoe": { "layer": "2AFCA051EEB81583918112854", "minzoom": 2, "maxzoom": 8 }, "properties": { "halo": 0.8, "title": "邛都", "fontsize": 12, "tyid": "304001", "oid": "103:1576575167495", "color": "#262626" }, "geometry": { "type": "Point", "coordinates": [ 102.128906, 27.449790 ] } }
{ "type": "Feature", "tippecanoe": { "layer": "2AFCA051EEB81583918112854", "minzoom": 2, "maxzoom": 8 }, "properties": { "halo": 0.8, "title": "古僰人", "fontsize": 12, "tyid": "304001", "oid": "103:1576575167053", "color": "#262626" }, "geometry": { "type": "Point", "coordinates": [ 103.974609, 28.149503 ] } }
{ "type": "Feature", "tippecanoe": { "layer": "2AFCA051EEB81583918112854", "minzoom": 2, "maxzoom": 8 }, "properties": { "halo": 0.8, "title": "滇国", "fontsize": 12, "tyid": "304000", "oid": "103:1576575167006", "color": "#202020" }, "geometry": { "type": "Point", "coordinates": [ 102.128906, 25.244696 ] } }
{ "type": "Feature", "tippecanoe": { "layer": "2AFCA051EEB81583918112854", "minzoom": 2, "maxzoom": 8 }, "properties": { "halo": 0.8, "title": "夜郎", "fontsize": 12, "tyid": "304001", "oid": "103:1576575166868", "color": "#262626" }, "geometry": { "type": "Point", "coordinates": [ 105.820312, 26.273714 ] } }
{ "type": "Feature", "tippecanoe": { "layer": "2AFCA051EEB81583918112854", "minzoom": 2, "maxzoom": 8 }, "properties": { "halo": 0.8, "title": "钩町", "fontsize": 12, "tyid": "304000", "oid": "103:1576575167435", "color": "#202020" }, "geometry": { "type": "Point", "coordinates": [ 104.238281, 23.644524 ] } }
{ "type": "Feature", "tippecanoe": { "layer": "2AFCA051EEB81583918112854", "minzoom": 2, "maxzoom": 8 }, "properties": { "halo": 0.8, "title": "达雅瓦底王国", "fontsize": 12, "tyid": "304000", "oid": "103:1576575167249", "color": "#202020" }, "geometry": { "type": "Point", "coordinates": [ 93.339844, 20.550509 ] } }
{ "type": "Feature", "tippecanoe": { "layer": "2AFCA051EEB81583918112854", "minzoom": 2, "maxzoom": 8 }, "properties": { "halo": 0.8, "title": "室利差呾罗王国", "fontsize": 12, "tyid": "304000", "oid": "103:1576575167512", "color": "#202020" }, "geometry": { "type": "Point", "coordinates": [ 95.537109, 19.228177 ] } }
{ "type": "Feature", "tippecanoe": { "layer": "2AFCA051EEB81583918112854", "minzoom": 2, "maxzoom": 8 }, "properties": { "halo": 0.8, "title": "直通王国", "fontsize": 12, "tyid": "304000", "oid": "103:1576575167345", "color": "#202020" }, "geometry": { "type": "Point", "coordinates": [ 95.185547, 16.972741 ] } }
{ "type": "Feature", "tippecanoe": { "layer": "2AFCA051EEB81583918112854", "minzoom": 2, "maxzoom": 8 }, "properties": { "halo": 0.8, "title": "骠国", "fontsize": 12, "tyid": "304000", "oid": "103:1576575167088", "color": "#202020" }, "geometry": { "type": "Point", "coordinates": [ 95.712891, 21.125498 ] } }
{ "type": "Feature", "tippecanoe": { "layer": "2AFCA051EEB81583918112854", "minzoom": 2, "maxzoom": 8 }, "properties": { "halo": 0.8, "title": "班清文化", "fontsize": 12, "tyid": "304002", "oid": "103:1576575167248", "color": "#262626" }, "geometry": { "type": "Point", "coordinates": [ 103.271484, 17.560247 ] } }
{ "type": "Feature", "tippecanoe": { "layer": "2AFCA051EEB81583918112854", "minzoom": 2, "maxzoom": 8 }, "properties": { "halo": 0.8, "title": "蓬斯尼文化", "fontsize": 12, "tyid": "304002", "oid": "103:1576575167447", "color": "#262626" }, "geometry": { "type": "Point", "coordinates": [ 103.535156, 13.410994 ] } }
{ "type": "Feature", "tippecanoe": { "layer": "2AFCA051EEB81583918112854", "minzoom": 2, "maxzoom": 8 }, "properties": { "halo": 0.8, "title": "同奈文化", "fontsize": 12, "tyid": "304002", "oid": "103:1576575167013", "color": "#262626" }, "geometry": { "type": "Point", "coordinates": [ 105.468750, 10.055403 ] } }
{ "type": "Feature", "tippecanoe": { "layer": "2AFCA051EEB81583918112854", "minzoom": 2, "maxzoom": 8 }, "properties": { "halo": 0.8, "title": "尼格利陀人", "fontsize": 12, "tyid": "304001", "oid": "103:1576575167114", "color": "#262626" }, "geometry": { "type": "Point", "coordinates": [ 101.953125, 4.740675 ] } }
{ "type": "Feature", "tippecanoe": { "layer": "2AFCA051EEB81583918112854", "minzoom": 2, "maxzoom": 8 }, "properties": { "halo": 0.8, "title": "闽越国", "fontsize": 12, "tyid": "304001", "oid": "103:1576575166860", "color": "#262626" }, "geometry": { "type": "Point", "coordinates": [ 117.949219, 26.194877 ] } }
{ "type": "Feature", "tippecanoe": { "layer": "2AFCA051EEB81583918112854", "minzoom": 2, "maxzoom": 8 }, "properties": { "halo": 0.8, "title": "卫满朝鲜", "fontsize": 12, "tyid": "304000", "oid": "103:1576575167312", "color": "#202020" }, "geometry": { "type": "Point", "coordinates": [ 125.771484, 40.245992 ] } }
{ "type": "Feature", "tippecanoe": { "layer": "2AFCA051EEB81583918112854", "minzoom": 2, "maxzoom": 8 }, "properties": { "halo": 0.8, "title": "东濊", "fontsize": 12, "tyid": "304001", "oid": "103:1576575167458", "color": "#262626" }, "geometry": { "type": "Point", "coordinates": [ 128.056641, 37.926868 ] } }
{ "type": "Feature", "tippecanoe": { "layer": "2AFCA051EEB81583918112854", "minzoom": 2, "maxzoom": 8 }, "properties": { "halo": 0.8, "title": "辰国", "fontsize": 12, "tyid": "304000", "oid": "103:1576575167061", "color": "#202020" }, "geometry": { "type": "Point", "coordinates": [ 127.792969, 35.960223 ] } }
{ "type": "Feature", "tippecanoe": { "layer": "2AFCA051EEB81583918112854", "minzoom": 2, "maxzoom": 8 }, "properties": { "halo": 0.8, "title": "倭人诸邦", "fontsize": 12, "tyid": "304002", "oid": "103:1576575167454", "color": "#262626" }, "geometry": { "type": "Point", "coordinates": [ 130.869141, 32.694866 ] } }
{ "type": "Feature", "tippecanoe": { "layer": "2AFCA051EEB81583918112854", "minzoom": 2, "maxzoom": 8 }, "properties": { "halo": 0.8, "title": "绳文人", "fontsize": 12, "tyid": "304001", "oid": "103:1576575167089", "color": "#262626" }, "geometry": { "type": "Point", "coordinates": [ 142.558594, 43.389082 ] } }
{ "type": "Feature", "tippecanoe": { "layer": "2AFCA051EEB81583918112854", "minzoom": 2, "maxzoom": 8 }, "properties": { "halo": 0.8, "title": "乌莱维文明", "fontsize": 12, "tyid": "304002", "oid": "103:1576575167065", "color": "#262626" }, "geometry": { "type": "Point", "coordinates": [ 29.882812, -2.547988 ] } }
{ "type": "Feature", "tippecanoe": { "layer": "2AFCA051EEB81583918112854", "minzoom": 2, "maxzoom": 8 }, "properties": { "halo": 0.8, "title": "艾布兰文化五期", "fontsize": 12, "tyid": "304002", "oid": "103:1576575167218", "color": "#262626" }, "geometry": { "type": "Point", "coordinates": [ 36.474609, -0.175781 ] } }
{ "type": "Feature", "tippecanoe": { "layer": "2AFCA051EEB81583918112854", "minzoom": 2, "maxzoom": 8 }, "properties": { "halo": 0.8, "title": "布尼文化", "fontsize": 12, "tyid": "304002", "oid": "103:1576575167087", "color": "#262626" }, "geometry": { "type": "Point", "coordinates": [ 107.226562, -6.751896 ] } }
{ "type": "Feature", "tippecanoe": { "layer": "2AFCA051EEB81583918112854", "minzoom": 2, "maxzoom": 8 }, "properties": { "halo": 0.8, "title": "巴拉瓦人", "fontsize": 12, "tyid": "304001", "oid": "103:1576575166887", "color": "#262626" }, "geometry": { "type": "Point", "coordinates": [ 146.513672, -41.967659 ] } }
{ "type": "Feature", "tippecanoe": { "layer": "2AFCA051EEF01583918112857", "minzoom": 2, "maxzoom": 8 }, "properties": { "halo": 0.8, "title": "古白令海文化", "fontsize": 12, "tyid": "304002", "oid": "103:1576575167073", "color": "#262626" }, "geometry": { "type": "Point", "coordinates": [ -170.332031, 63.470145 ] } }
{ "type": "Feature", "tippecanoe": { "layer": "2AFCA051EEF01583918112857", "minzoom": 2, "maxzoom": 8 }, "properties": { "halo": 0.8, "title": "查普卡洛文化", "fontsize": 12, "tyid": "304002", "oid": "103:1576575167262", "color": "#262626" }, "geometry": { "type": "Point", "coordinates": [ -99.931641, 20.303418 ] } }
{ "type": "Feature", "tippecanoe": { "layer": "2AFCA051EEF01583918112857", "minzoom": 2, "maxzoom": 8 }, "properties": { "halo": 0.8, "title": "特奥蒂瓦坎", "fontsize": 12, "tyid": "304002", "oid": "103:1576575167005", "color": "#262626" }, "geometry": { "type": "Point", "coordinates": [ -99.404297, 19.808054 ] } }
{ "type": "Feature", "tippecanoe": { "layer": "2AFCA051EEF01583918112857", "minzoom": 2, "maxzoom": 8 }, "properties": { "halo": 0.8, "title": "米斯特克人", "fontsize": 12, "tyid": "304001", "oid": "103:1576575167008", "color": "#262626" }, "geometry": { "type": "Point", "coordinates": [ -98.349609, 17.224758 ] } }
{ "type": "Feature", "tippecanoe": { "layer": "2AFCA051EEF01583918112857", "minzoom": 2, "maxzoom": 8 }, "properties": { "halo": 0.8, "title": "特里克人", "fontsize": 12, "tyid": "304001", "oid": "103:1576575167296", "color": "#262626" }, "geometry": { "type": "Point", "coordinates": [ -97.294922, 17.644022 ] } }
{ "type": "Feature", "tippecanoe": { "layer": "2AFCA051EEF01583918112857", "minzoom": 2, "maxzoom": 8 }, "properties": { "halo": 0.8, "title": "麦克斯人", "fontsize": 12, "tyid": "304001", "oid": "103:1576575167132", "color": "#262626" }, "geometry": { "type": "Point", "coordinates": [ -96.328125, 18.062312 ] } }
{ "type": "Feature", "tippecanoe": { "layer": "2AFCA051EEF01583918112857", "minzoom": 2, "maxzoom": 8 }, "properties": { "halo": 0.8, "title": "后奥尔梅克文化", "fontsize": 12, "tyid": "304002", "oid": "103:1576575167162", "color": "#262626" }, "geometry": { "type": "Point", "coordinates": [ -95.625000, 18.479609 ] } }
{ "type": "Feature", "tippecanoe": { "layer": "2AFCA051EEF01583918112857", "minzoom": 2, "maxzoom": 8 }, "properties": { "halo": 0.8, "title": "佐齐尔人", "fontsize": 12, "tyid": "304001", "oid": "103:1576575167337", "color": "#262626" }, "geometry": { "type": "Point", "coordinates": [ -93.339844, 16.551962 ] } }
{ "type": "Feature", "tippecanoe": { "layer": "2AFCA051EEF01583918112857", "minzoom": 2, "maxzoom": 8 }, "properties": { "halo": 0.8, "title": "祖赫人", "fontsize": 12, "tyid": "304001", "oid": "103:1576575167292", "color": "#262626" }, "geometry": { "type": "Point", "coordinates": [ -92.109375, 16.045813 ] } }
{ "type": "Feature", "tippecanoe": { "layer": "2AFCA051EEF01583918112857", "minzoom": 2, "maxzoom": 8 }, "properties": { "halo": 0.8, "title": "基切人", "fontsize": 12, "tyid": "304001", "oid": "103:1576575167135", "color": "#262626" }, "geometry": { "type": "Point", "coordinates": [ -90.966797, 15.029686 ] } }
{ "type": "Feature", "tippecanoe": { "layer": "2AFCA051EEF01583918112857", "minzoom": 2, "maxzoom": 8 }, "properties": { "halo": 0.8, "title": "阿尔托山文化", "fontsize": 12, "tyid": "304002", "oid": "103:1576575166945", "color": "#262626" }, "geometry": { "type": "Point", "coordinates": [ -91.054688, 14.349548 ] } }
{ "type": "Feature", "tippecanoe": { "layer": "2AFCA051EEF01583918112857", "minzoom": 2, "maxzoom": 8 }, "properties": { "halo": 0.8, "title": "玛纳索塔文化", "fontsize": 12, "tyid": "304002", "oid": "103:1576575166917", "color": "#262626" }, "geometry": { "type": "Point", "coordinates": [ -82.441406, 27.683528 ] } }
{ "type": "Feature", "tippecanoe": { "layer": "2AFCA051EEF01583918112857", "minzoom": 2, "maxzoom": 8 }, "properties": { "halo": 0.8, "title": "卡卢萨人", "fontsize": 12, "tyid": "304001", "oid": "103:1576575167057", "color": "#262626" }, "geometry": { "type": "Point", "coordinates": [ -81.650391, 27.137368 ] } }
{ "type": "Feature", "tippecanoe": { "layer": "2AFCA051EEF01583918112857", "minzoom": 2, "maxzoom": 8 }, "properties": { "halo": 0.8, "title": "圣约翰文化", "fontsize": 12, "tyid": "304002", "oid": "103:1576575167488", "color": "#262626" }, "geometry": { "type": "Point", "coordinates": [ -81.474609, 29.382175 ] } }
{ "type": "Feature", "tippecanoe": { "layer": "2AFCA051EEF01583918112857", "minzoom": 2, "maxzoom": 8 }, "properties": { "halo": 0.8, "title": "贝尔格莱德文化", "fontsize": 12, "tyid": "304002", "oid": "103:1576575167009", "color": "#262626" }, "geometry": { "type": "Point", "coordinates": [ -80.859375, 27.449790 ] } }
{ "type": "Feature", "tippecanoe": { "layer": "2AFCA051EEF01583918112857", "minzoom": 2, "maxzoom": 8 }, "properties": { "halo": 0.8, "title": "格莱兹文化", "fontsize": 12, "tyid": "304002", "oid": "103:1576575167280", "color": "#262626" }, "geometry": { "type": "Point", "coordinates": [ -80.771484, 26.037042 ] } }
{ "type": "Feature", "tippecanoe": { "layer": "2AFCA051EEF01583918112857", "minzoom": 2, "maxzoom": 8 }, "properties": { "halo": 0.8, "title": "德贵斯塔族", "fontsize": 12, "tyid": "304001", "oid": "103:1576575167110", "color": "#262626" }, "geometry": { "type": "Point", "coordinates": [ -80.419922, 25.562265 ] } }
{ "type": "Feature", "tippecanoe": { "layer": "2AFCA051EEF01583918112857", "minzoom": 2, "maxzoom": 8 }, "properties": { "halo": 0.8, "title": "雷卡人", "fontsize": 12, "tyid": "304001", "oid": "103:1576575167219", "color": "#262626" }, "geometry": { "type": "Point", "coordinates": [ -87.802734, 13.752725 ] } }
{ "type": "Feature", "tippecanoe": { "layer": "2AFCA051EEF01583918112857", "minzoom": 2, "maxzoom": 8 }, "properties": { "halo": 0.8, "title": "格兰科克勒文化", "fontsize": 12, "tyid": "304002", "oid": "103:1576575166951", "color": "#262626" }, "geometry": { "type": "Point", "coordinates": [ -80.507812, 8.581021 ] } }
{ "type": "Feature", "tippecanoe": { "layer": "2AFCA051EEF01583918112857", "minzoom": 2, "maxzoom": 8 }, "properties": { "halo": 0.8, "title": "泰罗纳", "fontsize": 12, "tyid": "304000", "oid": "103:1576575166914", "color": "#202020" }, "geometry": { "type": "Point", "coordinates": [ -73.564453, 10.833306 ] } }
{ "type": "Feature", "tippecanoe": { "layer": "2AFCA051EEF01583918112857", "minzoom": 2, "maxzoom": 8 }, "properties": { "halo": 0.8, "title": "伊拉玛文化", "fontsize": 12, "tyid": "304002", "oid": "103:1576575167459", "color": "#262626" }, "geometry": { "type": "Point", "coordinates": [ -76.201172, 4.302591 ] } }
{ "type": "Feature", "tippecanoe": { "layer": "2AFCA051EEF01583918112857", "minzoom": 2, "maxzoom": 8 }, "properties": { "halo": 0.8, "title": "卡利玛文化", "fontsize": 12, "tyid": "304002", "oid": "103:1576575167341", "color": "#262626" }, "geometry": { "type": "Point", "coordinates": [ -76.728516, 4.214943 ] } }
{ "type": "Feature", "tippecanoe": { "layer": "2AFCA051EEF01583918112857", "minzoom": 2, "maxzoom": 8 }, "properties": { "halo": 0.8, "title": "马拉加纳文化", "fontsize": 12, "tyid": "304002", "oid": "103:1576575167260", "color": "#262626" }, "geometry": { "type": "Point", "coordinates": [ -76.289062, 3.425692 ] } }
{ "type": "Feature", "tippecanoe": { "layer": "2AFCA051EEF01583918112857", "minzoom": 2, "maxzoom": 8 }, "properties": { "halo": 0.8, "title": "科罗索文化", "fontsize": 12, "tyid": "304002", "oid": "103:1576575167063", "color": "#262626" }, "geometry": { "type": "Point", "coordinates": [ -66.533203, 18.229351 ] } }
{ "type": "Feature", "tippecanoe": { "layer": "2AFCA051EEF01583918112857", "minzoom": 2, "maxzoom": 8 }, "properties": { "halo": 0.8, "title": "大庄园文化", "fontsize": 12, "tyid": "304002", "oid": "103:1576575167213", "color": "#262626" }, "geometry": { "type": "Point", "coordinates": [ -65.917969, 18.396230 ] } }
{ "type": "Feature", "tippecanoe": { "layer": "2AFCA051EEF01583918112857", "minzoom": 2, "maxzoom": 8 }, "properties": { "halo": 0.8, "title": "萨拉杜文化", "fontsize": 12, "tyid": "304002", "oid": "103:1576575166969", "color": "#262626" }, "geometry": { "type": "Point", "coordinates": [ -61.699219, 16.214675 ] } }
{ "type": "Feature", "tippecanoe": { "layer": "2AFCA051EEF01583918112857", "minzoom": 2, "maxzoom": 8 }, "properties": { "halo": 0.8, "title": "坎塔布里人", "fontsize": 12, "tyid": "304001", "oid": "103:1576575167360", "color": "#262626" }, "geometry": { "type": "Point", "coordinates": [ -4.394531, 43.068888 ] } }
{ "type": "Feature", "tippecanoe": { "layer": "2AFCA051EEF01583918112857", "minzoom": 2, "maxzoom": 8 }, "properties": { "halo": 0.8, "title": "特罗莫吉人", "fontsize": 12, "tyid": "304001", "oid": "103:1576575167032", "color": "#262626" }, "geometry": { "type": "Point", "coordinates": [ -3.691406, 42.228517 ] } }
{ "type": "Feature", "tippecanoe": { "layer": "2AFCA051EEF01583918112857", "minzoom": 2, "maxzoom": 8 }, "properties": { "halo": 0.8, "title": "奥特里冈人", "fontsize": 12, "tyid": "304001", "oid": "103:1576575167339", "color": "#262626" }, "geometry": { "type": "Point", "coordinates": [ -3.251953, 42.875964 ] } }
{ "type": "Feature", "tippecanoe": { "layer": "2AFCA051EEF01583918112857", "minzoom": 2, "maxzoom": 8 }, "properties": { "halo": 0.8, "title": "卡斯蒂利人", "fontsize": 12, "tyid": "304001", "oid": "103:1576575167036", "color": "#262626" }, "geometry": { "type": "Point", "coordinates": [ -2.812500, 43.068888 ] } }
{ "type": "Feature", "tippecanoe": { "layer": "2AFCA051EEF01583918112857", "minzoom": 2, "maxzoom": 8 }, "properties": { "halo": 0.8, "title": "瓦杜里人", "fontsize": 12, "tyid": "304001", "oid": "103:1576575167148", "color": "#262626" }, "geometry": { "type": "Point", "coordinates": [ -2.285156, 42.940339 ] } }
{ "type": "Feature", "tippecanoe": { "layer": "2AFCA051EEF01583918112857", "minzoom": 2, "maxzoom": 8 }, "properties": { "halo": 0.8, "title": "伯罗内人", "fontsize": 12, "tyid": "304001", "oid": "103:1576575167000", "color": "#262626" }, "geometry": { "type": "Point", "coordinates": [ -2.548828, 42.293564 ] } }
{ "type": "Feature", "tippecanoe": { "layer": "2AFCA051EEF01583918112857", "minzoom": 2, "maxzoom": 8 }, "properties": { "halo": 0.8, "title": "巴斯克人", "fontsize": 12, "tyid": "304001", "oid": "103:1576575167192", "color": "#262626" }, "geometry": { "type": "Point", "coordinates": [ -1.582031, 42.811522 ] } }
{ "type": "Feature", "tippecanoe": { "layer": "2AFCA051EEF01583918112857", "minzoom": 2, "maxzoom": 8 }, "properties": { "halo": 0.8, "title": "凯尔特伊比利亚人", "fontsize": 12, "tyid": "304001", "oid": "103:1576575166992", "color": "#262626" }, "geometry": { "type": "Point", "coordinates": [ -2.812500, 41.640078 ] } }
{ "type": "Feature", "tippecanoe": { "layer": "2AFCA051EEF01583918112857", "minzoom": 2, "maxzoom": 8 }, "properties": { "halo": 0.8, "title": "关切人", "fontsize": 12, "tyid": "304001", "oid": "103:1576575167084", "color": "#262626" }, "geometry": { "type": "Point", "coordinates": [ -16.611328, 28.304381 ] } }
{ "type": "Feature", "tippecanoe": { "layer": "2AFCA051EEF01583918112857", "minzoom": 2, "maxzoom": 8 }, "properties": { "halo": 0.8, "title": "图尔杜利奥皮迪尼人", "fontsize": 12, "tyid": "304001", "oid": "103:1576575167367", "color": "#262626" }, "geometry": { "type": "Point", "coordinates": [ -8.789062, 39.909736 ] } }
{ "type": "Feature", "tippecanoe": { "layer": "2AFCA051EEF01583918112857", "minzoom": 2, "maxzoom": 8 }, "properties": { "halo": 0.8, "title": "西尼特人", "fontsize": 12, "tyid": "304001", "oid": "103:1576575167079", "color": "#262626" }, "geometry": { "type": "Point", "coordinates": [ -8.437500, 37.718590 ] } }
{ "type": "Feature", "tippecanoe": { "layer": "2AFCA051EEF01583918112857", "minzoom": 2, "maxzoom": 8 }, "properties": { "halo": 0.8, "title": "瓜纳加拉文化", "fontsize": 12, "tyid": "304002", "oid": "103:1576575167031", "color": "#262626" }, "geometry": { "type": "Point", "coordinates": [ -80.595703, -1.669686 ] } }
{ "type": "Feature", "tippecanoe": { "layer": "2AFCA051EEF01583918112857", "minzoom": 2, "maxzoom": 8 }, "properties": { "halo": 0.8, "title": "巴伊亚文化", "fontsize": 12, "tyid": "304002", "oid": "103:1576575167386", "color": "#262626" }, "geometry": { "type": "Point", "coordinates": [ -80.068359, -0.527336 ] } }
{ "type": "Feature", "tippecanoe": { "layer": "2AFCA051EEF01583918112857", "minzoom": 2, "maxzoom": 8 }, "properties": { "halo": 0.8, "title": "萨利纳尔文化", "fontsize": 12, "tyid": "304002", "oid": "103:1576575167266", "color": "#262626" }, "geometry": { "type": "Point", "coordinates": [ -78.925781, -7.885147 ] } }
{ "type": "Feature", "tippecanoe": { "layer": "2AFCA051EEF01583918112857", "minzoom": 2, "maxzoom": 8 }, "properties": { "halo": 0.8, "title": "维鲁文化", "fontsize": 12, "tyid": "304002", "oid": "103:1576575167294", "color": "#262626" }, "geometry": { "type": "Point", "coordinates": [ -78.837891, -8.320212 ] } }
{ "type": "Feature", "tippecanoe": { "layer": "2AFCA051EEF01583918112857", "minzoom": 2, "maxzoom": 8 }, "properties": { "halo": 0.8, "title": "瑞克文化", "fontsize": 12, "tyid": "304002", "oid": "103:1576575167043", "color": "#262626" }, "geometry": { "type": "Point", "coordinates": [ -77.607422, -9.622414 ] } }
{ "type": "Feature", "tippecanoe": { "layer": "2AFCA051EEF01583918112857", "minzoom": 2, "maxzoom": 8 }, "properties": { "halo": 0.8, "title": "加伊纳索文化", "fontsize": 12, "tyid": "304002", "oid": "103:1576575167259", "color": "#262626" }, "geometry": { "type": "Point", "coordinates": [ -77.080078, -11.092166 ] } }
{ "type": "Feature", "tippecanoe": { "layer": "2AFCA051EEF01583918112857", "minzoom": 2, "maxzoom": 8 }, "properties": { "halo": 0.8, "title": "托帕拉文化", "fontsize": 12, "tyid": "304002", "oid": "103:1576575167406", "color": "#262626" }, "geometry": { "type": "Point", "coordinates": [ -75.937500, -13.581921 ] } }
{ "type": "Feature", "tippecanoe": { "layer": "2AFCA051EEF01583918112857", "minzoom": 2, "maxzoom": 8 }, "properties": { "halo": 0.8, "title": "华帕文化", "fontsize": 12, "tyid": "304002", "oid": "103:1576575166961", "color": "#262626" }, "geometry": { "type": "Point", "coordinates": [ -74.179688, -13.581921 ] } }
{ "type": "Feature", "tippecanoe": { "layer": "2AFCA051EEF01583918112857", "minzoom": 2, "maxzoom": 8 }, "properties": { "halo": 0.8, "title": "帕拉卡斯文化", "fontsize": 12, "tyid": "304002", "oid": "103:1576575167301", "color": "#262626" }, "geometry": { "type": "Point", "coordinates": [ -75.585938, -14.434680 ] } }
{ "type": "Feature", "tippecanoe": { "layer": "2AFCA051EEF01583918112857", "minzoom": 2, "maxzoom": 8 }, "properties": { "halo": 0.8, "title": "塔夫文化", "fontsize": 12, "tyid": "304002", "oid": "103:1576575167325", "color": "#262626" }, "geometry": { "type": "Point", "coordinates": [ -65.654297, -26.980829 ] } }
{ "type": "Feature", "tippecanoe": { "layer": "2AFCA051EEF01583918112857", "minzoom": 2, "maxzoom": 8 }, "properties": { "halo": 0.8, "title": "豪什人", "fontsize": 12, "tyid": "304001", "oid": "103:1576575166875", "color": "#262626" }, "geometry": { "type": "Point", "coordinates": [ -65.917969, -54.724620 ] } }
{ "type": "Feature", "tippecanoe": { "layer": "2AFCA051EEF01583918112857", "minzoom": 2, "maxzoom": 8 }, "properties": { "halo": 0.8, "title": "哥得兰人", "fontsize": 12, "tyid": "304001", "oid": "103:1576575167081", "color": "#262626" }, "geometry": { "type": "Point", "coordinates": [ 18.457031, 57.515823 ] } }
{ "type": "Feature", "tippecanoe": { "layer": "2AFCA051EEF01583918112857", "minzoom": 2, "maxzoom": 8 }, "properties": { "halo": 0.8, "title": "阿洛布罗基人", "fontsize": 12, "tyid": "304001", "oid": "103:1576575167206", "color": "#262626" }, "geometry": { "type": "Point", "coordinates": [ 5.537109, 45.706179 ] } }
{ "type": "Feature", "tippecanoe": { "layer": "2AFCA051EEF01583918112857", "minzoom": 2, "maxzoom": 8 }, "properties": { "halo": 0.8, "title": "马萨利亚", "fontsize": 12, "tyid": "304000", "oid": "103:1576575167128", "color": "#202020" }, "geometry": { "type": "Point", "coordinates": [ 5.449219, 43.325178 ] } }
{ "type": "Feature", "tippecanoe": { "layer": "2AFCA051EEF01583918112857", "minzoom": 2, "maxzoom": 8 }, "properties": { "halo": 0.8, "title": "帕莱波利斯", "fontsize": 12, "tyid": "304000", "oid": "103:1576575166907", "color": "#202020" }, "geometry": { "type": "Point", "coordinates": [ 3.076172, 42.163403 ] } }
{ "type": "Feature", "tippecanoe": { "layer": "2AFCA051EEF01583918112857", "minzoom": 2, "maxzoom": 8 }, "properties": { "halo": 0.8, "title": "萨拉西人", "fontsize": 12, "tyid": "304001", "oid": "103:1576575166997", "color": "#262626" }, "geometry": { "type": "Point", "coordinates": [ 6.943359, 45.521744 ] } }
{ "type": "Feature", "tippecanoe": { "layer": "2AFCA051EEF01583918112857", "minzoom": 2, "maxzoom": 8 }, "properties": { "halo": 0.8, "title": "西杜里人", "fontsize": 12, "tyid": "304001", "oid": "103:1576575166953", "color": "#262626" }, "geometry": { "type": "Point", "coordinates": [ 7.470703, 46.195042 ] } }
{ "type": "Feature", "tippecanoe": { "layer": "2AFCA051EEF01583918112857", "minzoom": 2, "maxzoom": 8 }, "properties": { "halo": 0.8, "title": "勒庞提人", "fontsize": 12, "tyid": "304001", "oid": "103:1576575167211", "color": "#262626" }, "geometry": { "type": "Point", "coordinates": [ 8.437500, 46.134170 ] } }
{ "type": "Feature", "tippecanoe": { "layer": "2AFCA051EEF01583918112857", "minzoom": 2, "maxzoom": 8 }, "properties": { "halo": 0.8, "title": "卡莫尼卡人", "fontsize": 12, "tyid": "304001", "oid": "103:1576575167226", "color": "#262626" }, "geometry": { "type": "Point", "coordinates": [ 10.195312, 46.012224 ] } }
{ "type": "Feature", "tippecanoe": { "layer": "2AFCA051EEF01583918112857", "minzoom": 2, "maxzoom": 8 }, "properties": { "halo": 0.8, "title": "摩诺伊科", "fontsize": 12, "tyid": "304000", "oid": "103:1576575167201", "color": "#202020" }, "geometry": { "type": "Point", "coordinates": [ 7.382812, 43.771094 ] } }
{ "type": "Feature", "tippecanoe": { "layer": "2AFCA051EEF01583918112857", "minzoom": 2, "maxzoom": 8 }, "properties": { "halo": 0.8, "title": "威尼蒂人[亚得里亚海]", "fontsize": 12, "tyid": "304001", "oid": "103:1576575166891", "color": "#262626" }, "geometry": { "type": "Point", "coordinates": [ 12.216797, 46.012224 ] } }
{ "type": "Feature", "tippecanoe": { "layer": "2AFCA051EEF01583918112857", "minzoom": 2, "maxzoom": 8 }, "properties": { "halo": 0.8, "title": "奥耶塞利人", "fontsize": 12, "tyid": "304001", "oid": "103:1576575167117", "color": "#262626" }, "geometry": { "type": "Point", "coordinates": [ 22.500000, 58.447733 ] } }
{ "type": "Feature", "tippecanoe": { "layer": "2AFCA051EEF01583918112857", "minzoom": 2, "maxzoom": 8 }, "properties": { "halo": 0.8, "title": "奥德索斯", "fontsize": 12, "tyid": "304000", "oid": "103:1576575167029", "color": "#202020" }, "geometry": { "type": "Point", "coordinates": [ 27.861328, 43.261206 ] } }
{ "type": "Feature", "tippecanoe": { "layer": "2AFCA051EEF01583918112857", "minzoom": 2, "maxzoom": 8 }, "properties": { "halo": 0.8, "title": "安恰罗斯", "fontsize": 12, "tyid": "304000", "oid": "103:1576575167401", "color": "#202020" }, "geometry": { "type": "Point", "coordinates": [ 27.509766, 42.617791 ] } }
{ "type": "Feature", "tippecanoe": { "layer": "2AFCA051EEF01583918112857", "minzoom": 2, "maxzoom": 8 }, "properties": { "halo": 0.8, "title": "梅森布里亚", "fontsize": 12, "tyid": "304000", "oid": "103:1576575167083", "color": "#202020" }, "geometry": { "type": "Point", "coordinates": [ 27.597656, 42.682435 ] } }
{ "type": "Feature", "tippecanoe": { "layer": "2AFCA051EEF01583918112857", "minzoom": 2, "maxzoom": 8 }, "properties": { "halo": 0.8, "title": "阿波罗尼亚·潘提卡", "fontsize": 12, "tyid": "304000", "oid": "103:1576575167400", "color": "#202020" }, "geometry": { "type": "Point", "coordinates": [ 27.597656, 42.423457 ] } }
{ "type": "Feature", "tippecanoe": { "layer": "2AFCA051EEF01583918112857", "minzoom": 2, "maxzoom": 8 }, "properties": { "halo": 0.8, "title": "埃吉索斯", "fontsize": 12, "tyid": "304000", "oid": "103:1576575167371", "color": "#202020" }, "geometry": { "type": "Point", "coordinates": [ 29.091797, 45.151053 ] } }
{ "type": "Feature", "tippecanoe": { "layer": "2AFCA051EEF01583918112857", "minzoom": 2, "maxzoom": 8 }, "properties": { "halo": 0.8, "title": "提拉斯", "fontsize": 12, "tyid": "304000", "oid": "103:1576575167086", "color": "#202020" }, "geometry": { "type": "Point", "coordinates": [ 30.234375, 46.134170 ] } }
{ "type": "Feature", "tippecanoe": { "layer": "2AFCA051EEF01583918112857", "minzoom": 2, "maxzoom": 8 }, "properties": { "halo": 0.8, "title": "奥里维亚", "fontsize": 12, "tyid": "304002", "oid": "103:1576575167154", "color": "#262626" }, "geometry": { "type": "Point", "coordinates": [ 31.816406, 46.679594 ] } }
{ "type": "Feature", "tippecanoe": { "layer": "2AFCA051EEF01583918112857", "minzoom": 2, "maxzoom": 8 }, "properties": { "halo": 0.8, "title": "克尔柯特", "fontsize": 12, "tyid": "304000", "oid": "103:1576575167425", "color": "#202020" }, "geometry": { "type": "Point", "coordinates": [ 33.398438, 45.274886 ] } }
{ "type": "Feature", "tippecanoe": { "layer": "2AFCA051EEF01583918112857", "minzoom": 2, "maxzoom": 8 }, "properties": { "halo": 0.8, "title": "希斯特里亚", "fontsize": 12, "tyid": "304000", "oid": "103:1576575167074", "color": "#202020" }, "geometry": { "type": "Point", "coordinates": [ 28.740234, 44.527843 ] } }
{ "type": "Feature", "tippecanoe": { "layer": "2AFCA051EEF01583918112857", "minzoom": 2, "maxzoom": 8 }, "properties": { "halo": 0.8, "title": "托米斯", "fontsize": 12, "tyid": "304000", "oid": "103:1576575167349", "color": "#202020" }, "geometry": { "type": "Point", "coordinates": [ 28.476562, 44.213710 ] } }
{ "type": "Feature", "tippecanoe": { "layer": "2AFCA051EEF01583918112857", "minzoom": 2, "maxzoom": 8 }, "properties": { "halo": 0.8, "title": "卡拉提斯", "fontsize": 12, "tyid": "304000", "oid": "103:1576575167199", "color": "#202020" }, "geometry": { "type": "Point", "coordinates": [ 28.564453, 43.834527 ] } }
{ "type": "Feature", "tippecanoe": { "layer": "2AFCA051EEF01583918112857", "minzoom": 2, "maxzoom": 8 }, "properties": { "halo": 0.8, "title": "迪奥尼索波利斯", "fontsize": 12, "tyid": "304000", "oid": "103:1576575167347", "color": "#202020" }, "geometry": { "type": "Point", "coordinates": [ 28.125000, 43.452919 ] } }
{ "type": "Feature", "tippecanoe": { "layer": "2AFCA051EEF01583918112857", "minzoom": 2, "maxzoom": 8 }, "properties": { "halo": 0.8, "title": "拜佐恩", "fontsize": 12, "tyid": "304000", "oid": "103:1576575167398", "color": "#202020" }, "geometry": { "type": "Point", "coordinates": [ 28.300781, 43.452919 ] } }
{ "type": "Feature", "tippecanoe": { "layer": "2AFCA051EEF01583918112857", "minzoom": 2, "maxzoom": 8 }, "properties": { "halo": 0.8, "title": "拜占庭", "fontsize": 12, "tyid": "304000", "oid": "103:1576575167346", "color": "#202020" }, "geometry": { "type": "Point", "coordinates": [ 28.740234, 41.178654 ] } }
{ "type": "Feature", "tippecanoe": { "layer": "2AFCA051EEF01583918112857", "minzoom": 2, "maxzoom": 8 }, "properties": { "halo": 0.8, "title": "克森尼索", "fontsize": 12, "tyid": "304000", "oid": "103:1576575167408", "color": "#202020" }, "geometry": { "type": "Point", "coordinates": [ 33.750000, 44.590467 ] } }
{ "type": "Feature", "tippecanoe": { "layer": "2AFCA051EEF01583918112857", "minzoom": 2, "maxzoom": 8 }, "properties": { "halo": 0.8, "title": "杜林人", "fontsize": 12, "tyid": "304001", "oid": "103:1576575167372", "color": "#262626" }, "geometry": { "type": "Point", "coordinates": [ 34.541016, 44.964798 ] } }
{ "type": "Feature", "tippecanoe": { "layer": "2AFCA051EEF01583918112857", "minzoom": 2, "maxzoom": 8 }, "properties": { "halo": 0.8, "title": "博斯普鲁斯王国", "fontsize": 12, "tyid": "304000", "oid": "103:1576575167215", "color": "#202020" }, "geometry": { "type": "Point", "coordinates": [ 37.441406, 45.026950 ] } }
{ "type": "Feature", "tippecanoe": { "layer": "2AFCA051EEF01583918112857", "minzoom": 2, "maxzoom": 8 }, "properties": { "halo": 0.8, "title": "辛迪人", "fontsize": 12, "tyid": "304001", "oid": "103:1576575166936", "color": "#262626" }, "geometry": { "type": "Point", "coordinates": [ 38.759766, 44.715514 ] } }
{ "type": "Feature", "tippecanoe": { "layer": "2AFCA051EEF01583918112857", "minzoom": 2, "maxzoom": 8 }, "properties": { "halo": 0.8, "title": "庞蒂克希腊人", "fontsize": 12, "tyid": "304001", "oid": "103:1576575167112", "color": "#262626" }, "geometry": { "type": "Point", "coordinates": [ 39.287109, 41.046217 ] } }
{ "type": "Feature", "tippecanoe": { "layer": "2AFCA051EEF01583918112857", "minzoom": 2, "maxzoom": 8 }, "properties": { "halo": 0.8, "title": "特里格莱特", "fontsize": 12, "tyid": "304000", "oid": "103:1576575166903", "color": "#202020" }, "geometry": { "type": "Point", "coordinates": [ 40.253906, 43.261206 ] } }
{ "type": "Feature", "tippecanoe": { "layer": "2AFCA051EEF01583918112857", "minzoom": 2, "maxzoom": 8 }, "properties": { "halo": 0.8, "title": "狄奥斯库里亚", "fontsize": 12, "tyid": "304000", "oid": "103:1576575166901", "color": "#202020" }, "geometry": { "type": "Point", "coordinates": [ 40.957031, 43.068888 ] } }
{ "type": "Feature", "tippecanoe": { "layer": "2AFCA051EEF01583918112857", "minzoom": 2, "maxzoom": 8 }, "properties": { "halo": 0.8, "title": "费西斯", "fontsize": 12, "tyid": "304000", "oid": "103:1576575166900", "color": "#202020" }, "geometry": { "type": "Point", "coordinates": [ 41.660156, 42.163403 ] } }
{ "type": "Feature", "tippecanoe": { "layer": "2AFCA051EEF01583918112857", "minzoom": 2, "maxzoom": 8 }, "properties": { "halo": 0.8, "title": "巴斯", "fontsize": 12, "tyid": "304000", "oid": "103:1576575166902", "color": "#202020" }, "geometry": { "type": "Point", "coordinates": [ 41.660156, 41.640078 ] } }
{ "type": "Feature", "tippecanoe": { "layer": "2AFCA051EEF01583918112857", "minzoom": 2, "maxzoom": 8 }, "properties": { "halo": 0.8, "title": "巴利阿里独立区", "fontsize": 12, "tyid": "304002", "oid": "103:1576575167391", "color": "#262626" }, "geometry": { "type": "Point", "coordinates": [ 2.900391, 39.639538 ] } }
{ "type": "Feature", "tippecanoe": { "layer": "2AFCA051EEF01583918112857", "minzoom": 2, "maxzoom": 8 }, "properties": { "halo": 0.8, "title": "阿卡尔纳尼亚同盟", "fontsize": 12, "tyid": "304000", "oid": "103:1576575167091", "color": "#202020" }, "geometry": { "type": "Point", "coordinates": [ 20.917969, 38.754083 ] } }
{ "type": "Feature", "tippecanoe": { "layer": "2AFCA051EEF01583918112857", "minzoom": 2, "maxzoom": 8 }, "properties": { "halo": 0.8, "title": "优卑亚同盟", "fontsize": 12, "tyid": "304000", "oid": "103:1576575166943", "color": "#202020" }, "geometry": { "type": "Point", "coordinates": [ 23.730469, 38.616870 ] } }
{ "type": "Feature", "tippecanoe": { "layer": "2AFCA051EEF01583918112857", "minzoom": 2, "maxzoom": 8 }, "properties": { "halo": 0.8, "title": "萨莫色雷斯", "fontsize": 12, "tyid": "304000", "oid": "103:1576575167126", "color": "#202020" }, "geometry": { "type": "Point", "coordinates": [ 25.576172, 40.513799 ] } }
{ "type": "Feature", "tippecanoe": { "layer": "2AFCA051EEF01583918112857", "minzoom": 2, "maxzoom": 8 }, "properties": { "halo": 0.8, "title": "克里特", "fontsize": 12, "tyid": "304000", "oid": "103:1576575167067", "color": "#202020" }, "geometry": { "type": "Point", "coordinates": [ 24.785156, 35.245619 ] } }
{ "type": "Feature", "tippecanoe": { "layer": "2AFCA051EEF01583918112857", "minzoom": 2, "maxzoom": 8 }, "properties": { "halo": 0.8, "title": "帕夫拉哥尼亚独立区", "fontsize": 12, "tyid": "304002", "oid": "103:1576575167319", "color": "#262626" }, "geometry": { "type": "Point", "coordinates": [ 33.046875, 40.979898 ] } }
{ "type": "Feature", "tippecanoe": { "layer": "2AFCA051EEF01583918112857", "minzoom": 2, "maxzoom": 8 }, "properties": { "halo": 0.8, "title": "利西亚人联盟", "fontsize": 12, "tyid": "304002", "oid": "103:1576575167137", "color": "#262626" }, "geometry": { "type": "Point", "coordinates": [ 29.794922, 36.527295 ] } }
{ "type": "Feature", "tippecanoe": { "layer": "2AFCA051EEF01583918112857", "minzoom": 2, "maxzoom": 8 }, "properties": { "halo": 0.8, "title": "小亚美尼亚王国", "fontsize": 12, "tyid": "304000", "oid": "103:1576575167176", "color": "#202020" }, "geometry": { "type": "Point", "coordinates": [ 39.287109, 40.178873 ] } }
{ "type": "Feature", "tippecanoe": { "layer": "2AFCA051EEF01583918112857", "minzoom": 2, "maxzoom": 8 }, "properties": { "halo": 0.8, "title": "科马基尼王国", "fontsize": 12, "tyid": "304000", "oid": "103:1576575167187", "color": "#202020" }, "geometry": { "type": "Point", "coordinates": [ 37.880859, 37.718590 ] } }
{ "type": "Feature", "tippecanoe": { "layer": "2AFCA051EEF01583918112857", "minzoom": 2, "maxzoom": 8 }, "properties": { "halo": 0.8, "title": "哈斯蒙尼王朝", "fontsize": 12, "tyid": "304000", "oid": "103:1576575167464", "color": "#202020" }, "geometry": { "type": "Point", "coordinates": [ 35.244141, 31.802893 ] } }
{ "type": "Feature", "tippecanoe": { "layer": "2AFCA051EEF01583918112857", "minzoom": 2, "maxzoom": 8 }, "properties": { "halo": 0.8, "title": "以东王国", "fontsize": 12, "tyid": "304000", "oid": "103:1576575167420", "color": "#202020" }, "geometry": { "type": "Point", "coordinates": [ 35.595703, 30.675715 ] } }
{ "type": "Feature", "tippecanoe": { "layer": "2AFCA051EEF01583918112857", "minzoom": 2, "maxzoom": 8 }, "properties": { "halo": 0.8, "title": "列兹金人", "fontsize": 12, "tyid": "304001", "oid": "103:1576575166926", "color": "#262626" }, "geometry": { "type": "Point", "coordinates": [ 47.636719, 41.640078 ] } }
{ "type": "Feature", "tippecanoe": { "layer": "2AFCA051EEF01583918112857", "minzoom": 2, "maxzoom": 8 }, "properties": { "halo": 0.8, "title": "温宿国", "fontsize": 12, "tyid": "304000", "oid": "103:1576575167356", "color": "#202020" }, "geometry": { "type": "Point", "coordinates": [ 79.277344, 41.310824 ] } }
{ "type": "Feature", "tippecanoe": { "layer": "2AFCA051EEF01583918112857", "minzoom": 2, "maxzoom": 8 }, "properties": { "halo": 0.8, "title": "乌贪訾离国", "fontsize": 12, "tyid": "304000", "oid": "103:1576575167156", "color": "#202020" }, "geometry": { "type": "Point", "coordinates": [ 86.748047, 44.465151 ] } }
{ "type": "Feature", "tippecanoe": { "layer": "2AFCA051EEF01583918112857", "minzoom": 2, "maxzoom": 8 }, "properties": { "halo": 0.8, "title": "西且弥国", "fontsize": 12, "tyid": "304000", "oid": "103:1576575167338", "color": "#202020" }, "geometry": { "type": "Point", "coordinates": [ 86.220703, 43.834527 ] } }
{ "type": "Feature", "tippecanoe": { "layer": "2AFCA051EEF01583918112857", "minzoom": 2, "maxzoom": 8 }, "properties": { "halo": 0.8, "title": "东且弥国", "fontsize": 12, "tyid": "304000", "oid": "103:1576575167333", "color": "#202020" }, "geometry": { "type": "Point", "coordinates": [ 86.923828, 43.707594 ] } }
{ "type": "Feature", "tippecanoe": { "layer": "2AFCA051EEF01583918112857", "minzoom": 2, "maxzoom": 8 }, "properties": { "halo": 0.8, "title": "仑头国", "fontsize": 12, "tyid": "304000", "oid": "103:1576575167200", "color": "#202020" }, "geometry": { "type": "Point", "coordinates": [ 84.638672, 41.244772 ] } }
{ "type": "Feature", "tippecanoe": { "layer": "2AFCA051EEF01583918112857", "minzoom": 2, "maxzoom": 8 }, "properties": { "halo": 0.8, "title": "焉耆国", "fontsize": 12, "tyid": "304000", "oid": "103:1576575167457", "color": "#202020" }, "geometry": { "type": "Point", "coordinates": [ 85.957031, 41.902277 ] } }
{ "type": "Feature", "tippecanoe": { "layer": "2AFCA051EEF01583918112857", "minzoom": 2, "maxzoom": 8 }, "properties": { "halo": 0.8, "title": "劫国", "fontsize": 12, "tyid": "304000", "oid": "103:1576575167358", "color": "#202020" }, "geometry": { "type": "Point", "coordinates": [ 87.802734, 44.150681 ] } }
{ "type": "Feature", "tippecanoe": { "layer": "2AFCA051EEF01583918112857", "minzoom": 2, "maxzoom": 8 }, "properties": { "halo": 0.8, "title": "卑陆后国", "fontsize": 12, "tyid": "304000", "oid": "103:1576575167375", "color": "#202020" }, "geometry": { "type": "Point", "coordinates": [ 88.154297, 44.276671 ] } }
{ "type": "Feature", "tippecanoe": { "layer": "2AFCA051EEF01583918112857", "minzoom": 2, "maxzoom": 8 }, "properties": { "halo": 0.8, "title": "单桓国", "fontsize": 12, "tyid": "304000", "oid": "103:1576575167247", "color": "#202020" }, "geometry": { "type": "Point", "coordinates": [ 87.539062, 44.024422 ] } }
{ "type": "Feature", "tippecanoe": { "layer": "2AFCA051EEF01583918112857", "minzoom": 2, "maxzoom": 8 }, "properties": { "halo": 0.8, "title": "卑陆国", "fontsize": 12, "tyid": "304000", "oid": "103:1576575167286", "color": "#202020" }, "geometry": { "type": "Point", "coordinates": [ 88.066406, 43.961191 ] } }
{ "type": "Feature", "tippecanoe": { "layer": "2AFCA051EEF01583918112857", "minzoom": 2, "maxzoom": 8 }, "properties": { "halo": 0.8, "title": "孤胡国", "fontsize": 12, "tyid": "304000", "oid": "103:1576575167355", "color": "#202020" }, "geometry": { "type": "Point", "coordinates": [ 87.978516, 43.389082 ] } }
{ "type": "Feature", "tippecanoe": { "layer": "2AFCA051EEF01583918112857", "minzoom": 2, "maxzoom": 8 }, "properties": { "halo": 0.8, "title": "卡塔班王国", "fontsize": 12, "tyid": "304000", "oid": "103:1576575167177", "color": "#202020" }, "geometry": { "type": "Point", "coordinates": [ 45.791016, 14.859850 ] } }
{ "type": "Feature", "tippecanoe": { "layer": "2AFCA051EEF01583918112857", "minzoom": 2, "maxzoom": 8 }, "properties": { "halo": 0.8, "title": "难兜国", "fontsize": 12, "tyid": "304000", "oid": "103:1576575167492", "color": "#202020" }, "geometry": { "type": "Point", "coordinates": [ 74.091797, 36.949892 ] } }
{ "type": "Feature", "tippecanoe": { "layer": "2AFCA051EEF01583918112857", "minzoom": 2, "maxzoom": 8 }, "properties": { "halo": 0.8, "title": "依耐国", "fontsize": 12, "tyid": "304000", "oid": "103:1576575167116", "color": "#202020" }, "geometry": { "type": "Point", "coordinates": [ 75.849609, 38.616870 ] } }
{ "type": "Feature", "tippecanoe": { "layer": "2AFCA051EEF01583918112857", "minzoom": 2, "maxzoom": 8 }, "properties": { "halo": 0.8, "title": "蒲犁国", "fontsize": 12, "tyid": "304000", "oid": "103:1576575166940", "color": "#202020" }, "geometry": { "type": "Point", "coordinates": [ 75.146484, 37.718590 ] } }
{ "type": "Feature", "tippecanoe": { "layer": "2AFCA051EEF01583918112857", "minzoom": 2, "maxzoom": 8 }, "properties": { "halo": 0.8, "title": "疏勒国", "fontsize": 12, "tyid": "304000", "oid": "103:1576575167075", "color": "#202020" }, "geometry": { "type": "Point", "coordinates": [ 76.289062, 39.504041 ] } }
{ "type": "Feature", "tippecanoe": { "layer": "2AFCA051EEF01583918112857", "minzoom": 2, "maxzoom": 8 }, "properties": { "halo": 0.8, "title": "子合国", "fontsize": 12, "tyid": "304000", "oid": "103:1576575167105", "color": "#202020" }, "geometry": { "type": "Point", "coordinates": [ 76.376953, 37.718590 ] } }
{ "type": "Feature", "tippecanoe": { "layer": "2AFCA051EEF01583918112857", "minzoom": 2, "maxzoom": 8 }, "properties": { "halo": 0.8, "title": "皮山国", "fontsize": 12, "tyid": "304000", "oid": "103:1576575167129", "color": "#202020" }, "geometry": { "type": "Point", "coordinates": [ 78.574219, 37.509726 ] } }
{ "type": "Feature", "tippecanoe": { "layer": "2AFCA051EEF01583918112857", "minzoom": 2, "maxzoom": 8 }, "properties": { "halo": 0.8, "title": "戎卢国", "fontsize": 12, "tyid": "304000", "oid": "103:1576575167202", "color": "#202020" }, "geometry": { "type": "Point", "coordinates": [ 83.144531, 36.668419 ] } }
{ "type": "Feature", "tippecanoe": { "layer": "2AFCA051EEF01583918112857", "minzoom": 2, "maxzoom": 8 }, "properties": { "halo": 0.8, "title": "渠勒国", "fontsize": 12, "tyid": "304000", "oid": "103:1576575167434", "color": "#202020" }, "geometry": { "type": "Point", "coordinates": [ 80.947266, 36.385913 ] } }
{ "type": "Feature", "tippecanoe": { "layer": "2AFCA051EEF01583918112857", "minzoom": 2, "maxzoom": 8 }, "properties": { "halo": 0.8, "title": "小宛国", "fontsize": 12, "tyid": "304000", "oid": "103:1576575167448", "color": "#202020" }, "geometry": { "type": "Point", "coordinates": [ 85.078125, 37.090240 ] } }
{ "type": "Feature", "tippecanoe": { "layer": "2AFCA051EEF01583918112857", "minzoom": 2, "maxzoom": 8 }, "properties": { "halo": 0.8, "title": "罗昂", "fontsize": 12, "tyid": "304000", "oid": "103:1576575167198", "color": "#202020" }, "geometry": { "type": "Point", "coordinates": [ 89.208984, 29.152161 ] } }
{ "type": "Feature", "tippecanoe": { "layer": "2AFCA051EEF01583918112857", "minzoom": 2, "maxzoom": 8 }, "properties": { "halo": 0.8, "title": "藏", "fontsize": 12, "tyid": "304000", "oid": "103:1576575167441", "color": "#202020" }, "geometry": { "type": "Point", "coordinates": [ 89.736328, 28.844674 ] } }
{ "type": "Feature", "tippecanoe": { "layer": "2AFCA051EEF01583918112857", "minzoom": 2, "maxzoom": 8 }, "properties": { "halo": 0.8, "title": "卓木南木松", "fontsize": 12, "tyid": "304000", "oid": "103:1576575167115", "color": "#202020" }, "geometry": { "type": "Point", "coordinates": [ 88.945312, 27.839076 ] } }
{ "type": "Feature", "tippecanoe": { "layer": "2AFCA051EEF01583918112857", "minzoom": 2, "maxzoom": 8 }, "properties": { "halo": 0.8, "title": "牟湿迦王国", "fontsize": 12, "tyid": "304000", "oid": "103:1576575167357", "color": "#202020" }, "geometry": { "type": "Point", "coordinates": [ 75.234375, 12.811801 ] } }
{ "type": "Feature", "tippecanoe": { "layer": "2AFCA051EEF01583918112857", "minzoom": 2, "maxzoom": 8 }, "properties": { "halo": 0.8, "title": "阿伊王国", "fontsize": 12, "tyid": "304000", "oid": "103:1576575167359", "color": "#202020" }, "geometry": { "type": "Point", "coordinates": [ 77.080078, 8.667918 ] } }
{ "type": "Feature", "tippecanoe": { "layer": "2AFCA051EEF01583918112857", "minzoom": 2, "maxzoom": 8 }, "properties": { "halo": 0.8, "title": "滚兔岭文化", "fontsize": 12, "tyid": "304002", "oid": "103:1576575167426", "color": "#262626" }, "geometry": { "type": "Point", "coordinates": [ 130.957031, 46.498392 ] } }
{ "type": "Feature", "tippecanoe": { "layer": "2AFCA051EEF01583918112857", "minzoom": 2, "maxzoom": 8 }, "properties": { "halo": 0.8, "title": "吉", "fontsize": 12, "tyid": "304000", "oid": "103:1576575167011", "color": "#202020" }, "geometry": { "type": "Point", "coordinates": [ 91.406250, 29.764377 ] } }
{ "type": "Feature", "tippecanoe": { "layer": "2AFCA051EEF01583918112857", "minzoom": 2, "maxzoom": 8 }, "properties": { "halo": 0.8, "title": "琛", "fontsize": 12, "tyid": "304000", "oid": "103:1576575166885", "color": "#202020" }, "geometry": { "type": "Point", "coordinates": [ 91.230469, 29.382175 ] } }
{ "type": "Feature", "tippecanoe": { "layer": "2AFCA051EEF01583918112857", "minzoom": 2, "maxzoom": 8 }, "properties": { "halo": 0.8, "title": "悉补野", "fontsize": 12, "tyid": "304000", "oid": "103:1576575167056", "color": "#202020" }, "geometry": { "type": "Point", "coordinates": [ 91.845703, 29.152161 ] } }
{ "type": "Feature", "tippecanoe": { "layer": "2AFCA051EEF01583918112857", "minzoom": 2, "maxzoom": 8 }, "properties": { "halo": 0.8, "title": "俄玉邦噶", "fontsize": 12, "tyid": "304000", "oid": "103:1576575167240", "color": "#202020" }, "geometry": { "type": "Point", "coordinates": [ 92.548828, 29.152161 ] } }
{ "type": "Feature", "tippecanoe": { "layer": "2AFCA051EEF01583918112857", "minzoom": 2, "maxzoom": 8 }, "properties": { "halo": 0.8, "title": "娘", "fontsize": 12, "tyid": "304000", "oid": "103:1576575167402", "color": "#202020" }, "geometry": { "type": "Point", "coordinates": [ 93.339844, 29.916852 ] } }
{ "type": "Feature", "tippecanoe": { "layer": "2AFCA051EEF01583918112857", "minzoom": 2, "maxzoom": 8 }, "properties": { "halo": 0.8, "title": "贡", "fontsize": 12, "tyid": "304000", "oid": "103:1576575167238", "color": "#202020" }, "geometry": { "type": "Point", "coordinates": [ 94.482422, 29.688053 ] } }
{ "type": "Feature", "tippecanoe": { "layer": "2AFCA051EEF01583918112857", "minzoom": 2, "maxzoom": 8 }, "properties": { "halo": 0.8, "title": "达", "fontsize": 12, "tyid": "304000", "oid": "103:1576575167451", "color": "#202020" }, "geometry": { "type": "Point", "coordinates": [ 93.603516, 29.152161 ] } }
{ "type": "Feature", "tippecanoe": { "layer": "2AFCA051EEF01583918112857", "minzoom": 2, "maxzoom": 8 }, "properties": { "halo": 0.8, "title": "小月氏", "fontsize": 12, "tyid": "304001", "oid": "103:1576575167082", "color": "#262626" }, "geometry": { "type": "Point", "coordinates": [ 101.689453, 36.809285 ] } }
{ "type": "Feature", "tippecanoe": { "layer": "2AFCA051EEF01583918112857", "minzoom": 2, "maxzoom": 8 }, "properties": { "halo": 0.8, "title": "徙", "fontsize": 12, "tyid": "304001", "oid": "103:1576575167352", "color": "#262626" }, "geometry": { "type": "Point", "coordinates": [ 102.392578, 30.069094 ] } }
{ "type": "Feature", "tippecanoe": { "layer": "2AFCA051EEF01583918112857", "minzoom": 2, "maxzoom": 8 }, "properties": { "halo": 0.8, "title": "冉駹羌", "fontsize": 12, "tyid": "304000", "oid": "103:1576575167070", "color": "#202020" }, "geometry": { "type": "Point", "coordinates": [ 103.535156, 31.653381 ] } }
{ "type": "Feature", "tippecanoe": { "layer": "2AFCA051EEF01583918112857", "minzoom": 2, "maxzoom": 8 }, "properties": { "halo": 0.8, "title": "筰都", "fontsize": 12, "tyid": "304001", "oid": "103:1576575167196", "color": "#262626" }, "geometry": { "type": "Point", "coordinates": [ 102.744141, 29.075375 ] } }
{ "type": "Feature", "tippecanoe": { "layer": "2AFCA051EEF01583918112857", "minzoom": 2, "maxzoom": 8 }, "properties": { "halo": 0.8, "title": "靡莫", "fontsize": 12, "tyid": "304001", "oid": "103:1576575167438", "color": "#262626" }, "geometry": { "type": "Point", "coordinates": [ 103.886719, 25.799891 ] } }
{ "type": "Feature", "tippecanoe": { "layer": "2AFCA051EEF01583918112857", "minzoom": 2, "maxzoom": 8 }, "properties": { "halo": 0.8, "title": "劳浸", "fontsize": 12, "tyid": "304001", "oid": "103:1576575167392", "color": "#262626" }, "geometry": { "type": "Point", "coordinates": [ 103.710938, 24.926295 ] } }
{ "type": "Feature", "tippecanoe": { "layer": "2AFCA051EEF01583918112857", "minzoom": 2, "maxzoom": 8 }, "properties": { "halo": 0.8, "title": "且兰", "fontsize": 12, "tyid": "304001", "oid": "103:1576575167030", "color": "#262626" }, "geometry": { "type": "Point", "coordinates": [ 107.841797, 26.431228 ] } }
{ "type": "Feature", "tippecanoe": { "layer": "2AFCA051EEF01583918112857", "minzoom": 2, "maxzoom": 8 }, "properties": { "halo": 0.8, "title": "石坛文化", "fontsize": 12, "tyid": "304002", "oid": "103:1576575167446", "color": "#262626" }, "geometry": { "type": "Point", "coordinates": [ 103.359375, 19.559790 ] } }
{ "type": "Feature", "tippecanoe": { "layer": "2AFCA051EEF01583918112857", "minzoom": 2, "maxzoom": 8 }, "properties": { "halo": 0.8, "title": "营埔文化", "fontsize": 12, "tyid": "304002", "oid": "103:1576575166897", "color": "#262626" }, "geometry": { "type": "Point", "coordinates": [ 120.673828, 24.287027 ] } }
{ "type": "Feature", "tippecanoe": { "layer": "2AFCA051EEF01583918112857", "minzoom": 2, "maxzoom": 8 }, "properties": { "halo": 0.8, "title": "龟山文化", "fontsize": 12, "tyid": "304002", "oid": "103:1576575167511", "color": "#262626" }, "geometry": { "type": "Point", "coordinates": [ 120.585938, 22.674847 ] } }
{ "type": "Feature", "tippecanoe": { "layer": "2AFCA051EEF01583918112857", "minzoom": 2, "maxzoom": 8 }, "properties": { "halo": 0.8, "title": "十三行文化", "fontsize": 12, "tyid": "304002", "oid": "103:1576575167508", "color": "#262626" }, "geometry": { "type": "Point", "coordinates": [ 121.464844, 24.846565 ] } }
{ "type": "Feature", "tippecanoe": { "layer": "2AFCA051EEF01583918112857", "minzoom": 2, "maxzoom": 8 }, "properties": { "halo": 0.8, "title": "麒麟文化", "fontsize": 12, "tyid": "304002", "oid": "103:1576575167510", "color": "#262626" }, "geometry": { "type": "Point", "coordinates": [ 121.201172, 23.322080 ] } }
{ "type": "Feature", "tippecanoe": { "layer": "2AFCA051EEF01583918112857", "minzoom": 2, "maxzoom": 8 }, "properties": { "halo": 0.8, "title": "沃沮", "fontsize": 12, "tyid": "304001", "oid": "103:1576575167124", "color": "#262626" }, "geometry": { "type": "Point", "coordinates": [ 127.880859, 40.446947 ] } }
{ "type": "Feature", "tippecanoe": { "layer": "2AFCA051EEF01583918112857", "minzoom": 2, "maxzoom": 8 }, "properties": { "halo": 0.8, "title": "托雷斯海峡岛民", "fontsize": 12, "tyid": "304001", "oid": "103:1576575166979", "color": "#262626" }, "geometry": { "type": "Point", "coordinates": [ 142.382812, -11.264612 ] } }
{ "type": "Feature", "tippecanoe": { "layer": "2AFCA06D66681583918112875", "minzoom": 2, "maxzoom": 8 }, "properties": { "halo": 0.8, "title": "诺顿文化", "fontsize": 12, "tyid": "304002", "oid": "103:1576575167453", "color": "#262626" }, "geometry": { "type": "Point", "coordinates": [ -163.740234, 65.330178 ] } }
{ "type": "Feature", "tippecanoe": { "layer": "2AFCA06D66681583918112875", "minzoom": 2, "maxzoom": 8 }, "properties": { "halo": 0.8, "title": "尤皮克人", "fontsize": 12, "tyid": "304001", "oid": "103:1576575167322", "color": "#262626" }, "geometry": { "type": "Point", "coordinates": [ -159.257812, 60.630102 ] } }
{ "type": "Feature", "tippecanoe": { "layer": "2AFCA06D66681583918112875", "minzoom": 2, "maxzoom": 8 }, "properties": { "halo": 0.8, "title": "因纽皮雅特人", "fontsize": 12, "tyid": "304001", "oid": "103:1576575167461", "color": "#262626" }, "geometry": { "type": "Point", "coordinates": [ -150.908203, 65.476508 ] } }
{ "type": "Feature", "tippecanoe": { "layer": "2AFCA06D66681583918112875", "minzoom": 2, "maxzoom": 8 },