{"year": "BC174",  "type": "Feature", "tippecanoe": { "layer": "2AFCA0AC4B381583918191573", "minzoom": 2, "maxzoom": 8 }, "properties": { "halo": 0.8, "title": "诺顿文化", "fontsize": 12, "tyid": "304002", "oid": "103:1576575177057", "color": "#262626" }, "geometry": { "type": "Point", "coordinates": [ -162.861328, 68.431513 ] } }
{"year": "BC174",  "type": "Feature", "tippecanoe": { "layer": "2AFCA0AC4B381583918191573", "minzoom": 2, "maxzoom": 8 }, "properties": { "halo": 0.8, "title": "尤皮克人", "fontsize": 12, "tyid": "304001", "oid": "103:1576575177543", "color": "#262626" }, "geometry": { "type": "Point", "coordinates": [ -155.214844, 62.103883 ] } }
{"year": "BC174",  "type": "Feature", "tippecanoe": { "layer": "2AFCA0AC4B381583918191573", "minzoom": 2, "maxzoom": 8 }, "properties": { "halo": 0.8, "title": "因纽皮雅特人", "fontsize": 12, "tyid": "304001", "oid": "103:1576575177371", "color": "#262626" }, "geometry": { "type": "Point", "coordinates": [ -150.908203, 65.476508 ] } }
{"year": "BC174",  "type": "Feature", "tippecanoe": { "layer": "2AFCA0AC4B381583918191573", "minzoom": 2, "maxzoom": 8 }, "properties": { "halo": 0.8, "title": "阿留申人", "fontsize": 12, "tyid": "304001", "oid": "103:1576575177564", "color": "#262626" }, "geometry": { "type": "Point", "coordinates": [ -152.226562, 61.312452 ] } }
{"year": "BC174",  "type": "Feature", "tippecanoe": { "layer": "2AFCA0AC4B381583918191573", "minzoom": 2, "maxzoom": 8 }, "properties": { "halo": 0.8, "title": "因纽特人", "fontsize": 12, "tyid": "304001", "oid": "103:1576575177124", "color": "#262626" }, "geometry": { "type": "Point", "coordinates": [ -99.316406, 66.018018 ] } }
{"year": "BC174",  "type": "Feature", "tippecanoe": { "layer": "2AFCA0AC4B381583918191573", "minzoom": 2, "maxzoom": 8 }, "properties": { "halo": 0.8, "title": "泰萨勒页岩文化", "fontsize": 12, "tyid": "304002", "oid": "103:1576575177059", "color": "#262626" }, "geometry": { "type": "Point", "coordinates": [ -101.162109, 56.316537 ] } }
{"year": "BC174",  "type": "Feature", "tippecanoe": { "layer": "2AFCA0AC4B381583918191573", "minzoom": 2, "maxzoom": 8 }, "properties": { "halo": 0.8, "title": "坎贝尔文化", "fontsize": 12, "tyid": "304002", "oid": "103:1576575177147", "color": "#262626" }, "geometry": { "type": "Point", "coordinates": [ -121.289062, 38.685510 ] } }
{"year": "BC174",  "type": "Feature", "tippecanoe": { "layer": "2AFCA0AC4B381583918191573", "minzoom": 2, "maxzoom": 8 }, "properties": { "halo": 0.8, "title": "圣迪基图文化", "fontsize": 12, "tyid": "304002", "oid": "103:1576575177459", "color": "#262626" }, "geometry": { "type": "Point", "coordinates": [ -115.224609, 33.211116 ] } }
{"year": "BC174",  "type": "Feature", "tippecanoe": { "layer": "2AFCA0AC4B381583918191573", "minzoom": 2, "maxzoom": 8 }, "properties": { "halo": 0.8, "title": "独立二期文化", "fontsize": 12, "tyid": "304002", "oid": "103:1576575177273", "color": "#262626" }, "geometry": { "type": "Point", "coordinates": [ -41.484375, 81.984696 ] } }
{"year": "BC174",  "type": "Feature", "tippecanoe": { "layer": "2AFCA0AC4B381583918191573", "minzoom": 2, "maxzoom": 8 }, "properties": { "halo": 0.8, "title": "波茵特半岛文化", "fontsize": 12, "tyid": "304002", "oid": "103:1576575177021", "color": "#262626" }, "geometry": { "type": "Point", "coordinates": [ -76.816406, 45.336702 ] } }
{"year": "BC174",  "type": "Feature", "tippecanoe": { "layer": "2AFCA0AC4B381583918191573", "minzoom": 2, "maxzoom": 8 }, "properties": { "halo": 0.8, "title": "古海洋文化", "fontsize": 12, "tyid": "304002", "oid": "103:1576575177227", "color": "#262626" }, "geometry": { "type": "Point", "coordinates": [ -68.466797, 46.920255 ] } }
{"year": "BC174",  "type": "Feature", "tippecanoe": { "layer": "2AFCA0AC4B381583918191573", "minzoom": 2, "maxzoom": 8 }, "properties": { "halo": 0.8, "title": "凯尔特布立吞人", "fontsize": 12, "tyid": "304001", "oid": "103:1576575177330", "color": "#262626" }, "geometry": { "type": "Point", "coordinates": [ -1.845703, 52.589701 ] } }
{"year": "BC174",  "type": "Feature", "tippecanoe": { "layer": "2AFCA0AC4B381583918191573", "minzoom": 2, "maxzoom": 8 }, "properties": { "halo": 0.8, "title": "巴富尔人", "fontsize": 12, "tyid": "304001", "oid": "103:1576575177350", "color": "#262626" }, "geometry": { "type": "Point", "coordinates": [ -8.261719, 22.755921 ] } }
{"year": "BC174",  "type": "Feature", "tippecanoe": { "layer": "2AFCA0AC4B381583918191573", "minzoom": 2, "maxzoom": 8 }, "properties": { "halo": 0.8, "title": "索宁克人", "fontsize": 12, "tyid": "304001", "oid": "103:1576575177072", "color": "#262626" }, "geometry": { "type": "Point", "coordinates": [ -8.964844, 15.284185 ] } }
{"year": "BC174",  "type": "Feature", "tippecanoe": { "layer": "2AFCA0AC4B381583918191573", "minzoom": 2, "maxzoom": 8 }, "properties": { "halo": 0.8, "title": "曼德人", "fontsize": 12, "tyid": "304001", "oid": "103:1576575177019", "color": "#262626" }, "geometry": { "type": "Point", "coordinates": [ -7.558594, 8.146243 ] } }
{"year": "BC174",  "type": "Feature", "tippecanoe": { "layer": "2AFCA0AC4B381583918191573", "minzoom": 2, "maxzoom": 8 }, "properties": { "halo": 0.8, "title": "图皮人", "fontsize": 12, "tyid": "304001", "oid": "103:1576575177009", "color": "#262626" }, "geometry": { "type": "Point", "coordinates": [ -37.705078, -8.928487 ] } }
{"year": "BC174",  "type": "Feature", "tippecanoe": { "layer": "2AFCA0AC4B381583918191573", "minzoom": 2, "maxzoom": 8 }, "properties": { "halo": 0.8, "title": "萨米人", "fontsize": 12, "tyid": "304001", "oid": "103:1576575177150", "color": "#262626" }, "geometry": { "type": "Point", "coordinates": [ 25.400391, 68.171555 ] } }
{"year": "BC174",  "type": "Feature", "tippecanoe": { "layer": "2AFCA0AC4B381583918191573", "minzoom": 2, "maxzoom": 8 }, "properties": { "halo": 0.8, "title": "乌斯特波卢伊文化", "fontsize": 12, "tyid": "304002", "oid": "103:1576575177247", "color": "#262626" }, "geometry": { "type": "Point", "coordinates": [ 70.664062, 69.687618 ] } }
{"year": "BC174",  "type": "Feature", "tippecanoe": { "layer": "2AFCA0AC4B381583918191573", "minzoom": 2, "maxzoom": 8 }, "properties": { "halo": 0.8, "title": "原始日耳曼人", "fontsize": 12, "tyid": "304001", "oid": "103:1576575176942", "color": "#262626" }, "geometry": { "type": "Point", "coordinates": [ 12.480469, 60.326948 ] } }
{"year": "BC174",  "type": "Feature", "tippecanoe": { "layer": "2AFCA0AC4B381583918191573", "minzoom": 2, "maxzoom": 8 }, "properties": { "halo": 0.8, "title": "贝尔盖人", "fontsize": 12, "tyid": "304001", "oid": "103:1576575177328", "color": "#262626" }, "geometry": { "type": "Point", "coordinates": [ 4.833984, 49.724479 ] } }
{"year": "BC174",  "type": "Feature", "tippecanoe": { "layer": "2AFCA0AC4B381583918191573", "minzoom": 2, "maxzoom": 8 }, "properties": { "halo": 0.8, "title": "山外高卢人", "fontsize": 12, "tyid": "304001", "oid": "103:1576575177317", "color": "#262626" }, "geometry": { "type": "Point", "coordinates": [ 1.582031, 46.558860 ] } }
{"year": "BC174",  "type": "Feature", "tippecanoe": { "layer": "2AFCA0AC4B381583918191573", "minzoom": 2, "maxzoom": 8 }, "properties": { "halo": 0.8, "title": "日耳曼人", "fontsize": 12, "tyid": "304001", "oid": "103:1576575177407", "color": "#262626" }, "geometry": { "type": "Point", "coordinates": [ 12.392578, 51.944265 ] } }
{"year": "BC174",  "type": "Feature", "tippecanoe": { "layer": "2AFCA0AC4B381583918191573", "minzoom": 2, "maxzoom": 8 }, "properties": { "halo": 0.8, "title": "罗马共和国", "fontsize": 12, "tyid": "304000", "oid": "103:1576575177354", "color": "#202020" }, "geometry": { "type": "Point", "coordinates": [ 12.832031, 42.747012 ] } }
{"year": "BC174",  "type": "Feature", "tippecanoe": { "layer": "2AFCA0AC4B381583918191573", "minzoom": 2, "maxzoom": 8 }, "properties": { "halo": 0.8, "title": "凯尔特人", "fontsize": 12, "tyid": "304001", "oid": "103:1576575177175", "color": "#262626" }, "geometry": { "type": "Point", "coordinates": [ 19.072266, 47.517201 ] } }
{"year": "BC174",  "type": "Feature", "tippecanoe": { "layer": "2AFCA0AC4B381583918191573", "minzoom": 2, "maxzoom": 8 }, "properties": { "halo": 0.8, "title": "迪亚科夫文化", "fontsize": 12, "tyid": "304002", "oid": "103:1576575177230", "color": "#262626" }, "geometry": { "type": "Point", "coordinates": [ 37.968750, 56.800878 ] } }
{"year": "BC174",  "type": "Feature", "tippecanoe": { "layer": "2AFCA0AC4B381583918191573", "minzoom": 2, "maxzoom": 8 }, "properties": { "halo": 0.8, "title": "第聂伯河与德维纳河文化", "fontsize": 12, "tyid": "304001", "oid": "103:1576575177069", "color": "#262626" }, "geometry": { "type": "Point", "coordinates": [ 31.816406, 55.677584 ] } }
{"year": "BC174",  "type": "Feature", "tippecanoe": { "layer": "2AFCA0AC4B381583918191573", "minzoom": 2, "maxzoom": 8 }, "properties": { "halo": 0.8, "title": "扎鲁宾西文化", "fontsize": 12, "tyid": "304002", "oid": "103:1576575177424", "color": "#262626" }, "geometry": { "type": "Point", "coordinates": [ 29.707031, 51.289406 ] } }
{"year": "BC174",  "type": "Feature", "tippecanoe": { "layer": "2AFCA0AC4B381583918191573", "minzoom": 2, "maxzoom": 8 }, "properties": { "halo": 0.8, "title": "达契亚人", "fontsize": 12, "tyid": "304001", "oid": "103:1576575177525", "color": "#262626" }, "geometry": { "type": "Point", "coordinates": [ 24.609375, 46.012224 ] } }
{"year": "BC174",  "type": "Feature", "tippecanoe": { "layer": "2AFCA0AC4B381583918191573", "minzoom": 2, "maxzoom": 8 }, "properties": { "halo": 0.8, "title": "戈罗杰茨文化", "fontsize": 12, "tyid": "304002", "oid": "103:1576575177080", "color": "#262626" }, "geometry": { "type": "Point", "coordinates": [ 44.384766, 54.521081 ] } }
{"year": "BC174",  "type": "Feature", "tippecanoe": { "layer": "2AFCA0AC4B381583918191573", "minzoom": 2, "maxzoom": 8 }, "properties": { "halo": 0.8, "title": "萨尔马提亚人", "fontsize": 12, "tyid": "304001", "oid": "103:1576575177420", "color": "#262626" }, "geometry": { "type": "Point", "coordinates": [ 43.066406, 50.401515 ] } }
{"year": "BC174",  "type": "Feature", "tippecanoe": { "layer": "2AFCA0AC4B381583918191573", "minzoom": 2, "maxzoom": 8 }, "properties": { "halo": 0.8, "title": "努米底亚王国", "fontsize": 12, "tyid": "304000", "oid": "103:1576575177465", "color": "#202020" }, "geometry": { "type": "Point", "coordinates": [ 6.328125, 36.031332 ] } }
{"year": "BC174",  "type": "Feature", "tippecanoe": { "layer": "2AFCA0AC4B381583918191573", "minzoom": 2, "maxzoom": 8 }, "properties": { "halo": 0.8, "title": "柏柏尔人诸部", "fontsize": 12, "tyid": "304001", "oid": "103:1576575176969", "color": "#262626" }, "geometry": { "type": "Point", "coordinates": [ 2.724609, 25.878994 ] } }
{"year": "BC174",  "type": "Feature", "tippecanoe": { "layer": "2AFCA0AC4B381583918191573", "minzoom": 2, "maxzoom": 8 }, "properties": { "halo": 0.8, "title": "加拉曼特人", "fontsize": 12, "tyid": "304001", "oid": "103:1576575177378", "color": "#262626" }, "geometry": { "type": "Point", "coordinates": [ 18.544922, 27.605671 ] } }
{"year": "BC174",  "type": "Feature", "tippecanoe": { "layer": "2AFCA0AC4B381583918191573", "minzoom": 2, "maxzoom": 8 }, "properties": { "halo": 0.8, "title": "诺克文化", "fontsize": 12, "tyid": "304002", "oid": "103:1576575177370", "color": "#262626" }, "geometry": { "type": "Point", "coordinates": [ 7.119141, 10.574222 ] } }
{"year": "BC174",  "type": "Feature", "tippecanoe": { "layer": "2AFCA0AC4B381583918191573", "minzoom": 2, "maxzoom": 8 }, "properties": { "halo": 0.8, "title": "萨奥文明", "fontsize": 12, "tyid": "304002", "oid": "103:1576575177163", "color": "#262626" }, "geometry": { "type": "Point", "coordinates": [ 14.941406, 13.239945 ] } }
{"year": "BC174",  "type": "Feature", "tippecanoe": { "layer": "2AFCA0AC4B381583918191573", "minzoom": 2, "maxzoom": 8 }, "properties": { "halo": 0.8, "title": "巴卡人", "fontsize": 12, "tyid": "304001", "oid": "103:1576575177269", "color": "#262626" }, "geometry": { "type": "Point", "coordinates": [ 18.105469, 5.441022 ] } }
{"year": "BC174",  "type": "Feature", "tippecanoe": { "layer": "2AFCA0AC4B381583918191573", "minzoom": 2, "maxzoom": 8 }, "properties": { "halo": 0.8, "title": "托勒密王国", "fontsize": 12, "tyid": "304000", "oid": "103:1576575177085", "color": "#202020" }, "geometry": { "type": "Point", "coordinates": [ 28.740234, 28.226970 ] } }
{"year": "BC174",  "type": "Feature", "tippecanoe": { "layer": "2AFCA0AC4B381583918191573", "minzoom": 2, "maxzoom": 8 }, "properties": { "halo": 0.8, "title": "利黑延王国", "fontsize": 12, "tyid": "304000", "oid": "103:1576575177434", "color": "#202020" }, "geometry": { "type": "Point", "coordinates": [ 38.847656, 25.958045 ] } }
{"year": "BC174",  "type": "Feature", "tippecanoe": { "layer": "2AFCA0AC4B381583918191573", "minzoom": 2, "maxzoom": 8 }, "properties": { "halo": 0.8, "title": "凯达尔联盟", "fontsize": 12, "tyid": "304001", "oid": "103:1576575176980", "color": "#262626" }, "geometry": { "type": "Point", "coordinates": [ 42.275391, 29.535230 ] } }
{"year": "BC174",  "type": "Feature", "tippecanoe": { "layer": "2AFCA0AC4B381583918191573", "minzoom": 2, "maxzoom": 8 }, "properties": { "halo": 0.8, "title": "北非贝都因人", "fontsize": 12, "tyid": "304001", "oid": "103:1576575177234", "color": "#262626" }, "geometry": { "type": "Point", "coordinates": [ 22.675781, 20.715015 ] } }
{"year": "BC174",  "type": "Feature", "tippecanoe": { "layer": "2AFCA0AC4B381583918191573", "minzoom": 2, "maxzoom": 8 }, "properties": { "halo": 0.8, "title": "富尔人", "fontsize": 12, "tyid": "304001", "oid": "103:1576575177474", "color": "#262626" }, "geometry": { "type": "Point", "coordinates": [ 26.015625, 12.983148 ] } }
{"year": "BC174",  "type": "Feature", "tippecanoe": { "layer": "2AFCA0AC4B381583918191573", "minzoom": 2, "maxzoom": 8 }, "properties": { "halo": 0.8, "title": "库施王国", "fontsize": 12, "tyid": "304000", "oid": "103:1576575177347", "color": "#202020" }, "geometry": { "type": "Point", "coordinates": [ 32.255859, 17.644022 ] } }
{"year": "BC174",  "type": "Feature", "tippecanoe": { "layer": "2AFCA0AC4B381583918191573", "minzoom": 2, "maxzoom": 8 }, "properties": { "halo": 0.8, "title": "卢欧诸部", "fontsize": 12, "tyid": "304001", "oid": "103:1576575177397", "color": "#262626" }, "geometry": { "type": "Point", "coordinates": [ 33.574219, 9.622414 ] } }
{"year": "BC174",  "type": "Feature", "tippecanoe": { "layer": "2AFCA0AC4B381583918191573", "minzoom": 2, "maxzoom": 8 }, "properties": { "halo": 0.8, "title": "尼罗特人", "fontsize": 12, "tyid": "304001", "oid": "103:1576575177037", "color": "#262626" }, "geometry": { "type": "Point", "coordinates": [ 33.310547, 1.230374 ] } }
{"year": "BC174",  "type": "Feature", "tippecanoe": { "layer": "2AFCA0AC4B381583918191573", "minzoom": 2, "maxzoom": 8 }, "properties": { "halo": 0.8, "title": "赛莫德人", "fontsize": 12, "tyid": "304001", "oid": "103:1576575177077", "color": "#262626" }, "geometry": { "type": "Point", "coordinates": [ 42.626953, 21.698265 ] } }
{"year": "BC174",  "type": "Feature", "tippecanoe": { "layer": "2AFCA0AC4B381583918191573", "minzoom": 2, "maxzoom": 8 }, "properties": { "halo": 0.8, "title": "库希特人", "fontsize": 12, "tyid": "304001", "oid": "103:1576575177343", "color": "#262626" }, "geometry": { "type": "Point", "coordinates": [ 44.121094, 4.477856 ] } }
{"year": "BC174",  "type": "Feature", "tippecanoe": { "layer": "2AFCA0AC4B381583918191573", "minzoom": 2, "maxzoom": 8 }, "properties": { "halo": 0.8, "title": "彼尔姆人", "fontsize": 12, "tyid": "304001", "oid": "103:1576575177375", "color": "#262626" }, "geometry": { "type": "Point", "coordinates": [ 55.371094, 57.844751 ] } }
{"year": "BC174",  "type": "Feature", "tippecanoe": { "layer": "2AFCA0AC4B381583918191573", "minzoom": 2, "maxzoom": 8 }, "properties": { "halo": 0.8, "title": "东马扎尔人", "fontsize": 12, "tyid": "304001", "oid": "103:1576575177013", "color": "#262626" }, "geometry": { "type": "Point", "coordinates": [ 59.238281, 61.396719 ] } }
{"year": "BC174",  "type": "Feature", "tippecanoe": { "layer": "2AFCA0AC4B381583918191573", "minzoom": 2, "maxzoom": 8 }, "properties": { "halo": 0.8, "title": "奥苏伊人", "fontsize": 12, "tyid": "304001", "oid": "103:1576575177537", "color": "#262626" }, "geometry": { "type": "Point", "coordinates": [ 45.263672, 45.521744 ] } }
{"year": "BC174",  "type": "Feature", "tippecanoe": { "layer": "2AFCA0AC4B381583918191573", "minzoom": 2, "maxzoom": 8 }, "properties": { "halo": 0.8, "title": "萨迦蒂安文化", "fontsize": 12, "tyid": "304002", "oid": "103:1576575177165", "color": "#262626" }, "geometry": { "type": "Point", "coordinates": [ 65.390625, 55.379110 ] } }
{"year": "BC174",  "type": "Feature", "tippecanoe": { "layer": "2AFCA0AC4B381583918191573", "minzoom": 2, "maxzoom": 8 }, "properties": { "halo": 0.8, "title": "阿兰人", "fontsize": 12, "tyid": "304001", "oid": "103:1576575177028", "color": "#262626" }, "geometry": { "type": "Point", "coordinates": [ 56.953125, 47.989922 ] } }
{"year": "BC174",  "type": "Feature", "tippecanoe": { "layer": "2AFCA0AC4B381583918191573", "minzoom": 2, "maxzoom": 8 }, "properties": { "halo": 0.8, "title": "马萨格泰人", "fontsize": 12, "tyid": "304001", "oid": "103:1576575177527", "color": "#262626" }, "geometry": { "type": "Point", "coordinates": [ 64.160156, 45.951150 ] } }
{"year": "BC174",  "type": "Feature", "tippecanoe": { "layer": "2AFCA0AC4B381583918191573", "minzoom": 2, "maxzoom": 8 }, "properties": { "halo": 0.8, "title": "乌戈尔人", "fontsize": 12, "tyid": "304001", "oid": "103:1576575177099", "color": "#262626" }, "geometry": { "type": "Point", "coordinates": [ 77.080078, 57.088515 ] } }
{"year": "BC174",  "type": "Feature", "tippecanoe": { "layer": "2AFCA0AC4B381583918191573", "minzoom": 2, "maxzoom": 8 }, "properties": { "halo": 0.8, "title": "库莱文化", "fontsize": 12, "tyid": "304002", "oid": "103:1576575177168", "color": "#262626" }, "geometry": { "type": "Point", "coordinates": [ 84.023438, 59.130863 ] } }
{"year": "BC174",  "type": "Feature", "tippecanoe": { "layer": "2AFCA0AC4B381583918191573", "minzoom": 2, "maxzoom": 8 }, "properties": { "halo": 0.8, "title": "斯基泰人", "fontsize": 12, "tyid": "304001", "oid": "103:1576575177429", "color": "#262626" }, "geometry": { "type": "Point", "coordinates": [ 71.630859, 45.089036 ] } }
{"year": "BC174",  "type": "Feature", "tippecanoe": { "layer": "2AFCA0AC4B381583918191573", "minzoom": 2, "maxzoom": 8 }, "properties": { "halo": 0.8, "title": "塔加尔文化", "fontsize": 12, "tyid": "304002", "oid": "103:1576575176960", "color": "#262626" }, "geometry": { "type": "Point", "coordinates": [ 83.496094, 51.998410 ] } }
{"year": "BC174",  "type": "Feature", "tippecanoe": { "layer": "2AFCA0AC4B381583918191573", "minzoom": 2, "maxzoom": 8 }, "properties": { "halo": 0.8, "title": "塞琉古帝国", "fontsize": 12, "tyid": "304000", "oid": "103:1576575177329", "color": "#202020" }, "geometry": { "type": "Point", "coordinates": [ 54.580078, 32.398516 ] } }
{"year": "BC174",  "type": "Feature", "tippecanoe": { "layer": "2AFCA0AC4B381583918191573", "minzoom": 2, "maxzoom": 8 }, "properties": { "halo": 0.8, "title": "贝都因人", "fontsize": 12, "tyid": "304001", "oid": "103:1576575176982", "color": "#262626" }, "geometry": { "type": "Point", "coordinates": [ 49.482422, 22.024546 ] } }
{"year": "BC174",  "type": "Feature", "tippecanoe": { "layer": "2AFCA0AC4B381583918191573", "minzoom": 2, "maxzoom": 8 }, "properties": { "halo": 0.8, "title": "帕提亚帝国", "fontsize": 12, "tyid": "304000", "oid": "103:1576575177561", "color": "#202020" }, "geometry": { "type": "Point", "coordinates": [ 57.919922, 37.996163 ] } }
{"year": "BC174",  "type": "Feature", "tippecanoe": { "layer": "2AFCA0AC4B381583918191573", "minzoom": 2, "maxzoom": 8 }, "properties": { "halo": 0.8, "title": "马克鲁比亚王国", "fontsize": 12, "tyid": "304000", "oid": "103:1576575177195", "color": "#202020" }, "geometry": { "type": "Point", "coordinates": [ 49.130859, 9.102097 ] } }
{"year": "BC174",  "type": "Feature", "tippecanoe": { "layer": "2AFCA0AC4B381583918191573", "minzoom": 2, "maxzoom": 8 }, "properties": { "halo": 0.8, "title": "希腊-巴克特里亚王国", "fontsize": 12, "tyid": "304000", "oid": "103:1576575177089", "color": "#202020" }, "geometry": { "type": "Point", "coordinates": [ 68.378906, 38.891033 ] } }
{"year": "BC174",  "type": "Feature", "tippecanoe": { "layer": "2AFCA0AC4B381583918191573", "minzoom": 2, "maxzoom": 8 }, "properties": { "halo": 0.8, "title": "摩腊婆人", "fontsize": 12, "tyid": "304001", "oid": "103:1576575177103", "color": "#262626" }, "geometry": { "type": "Point", "coordinates": [ 73.037109, 26.509905 ] } }
{"year": "BC174",  "type": "Feature", "tippecanoe": { "layer": "2AFCA0AC4B381583918191573", "minzoom": 2, "maxzoom": 8 }, "properties": { "halo": 0.8, "title": "象雄王国", "fontsize": 12, "tyid": "304000", "oid": "103:1576575177311", "color": "#202020" }, "geometry": { "type": "Point", "coordinates": [ 82.089844, 31.802893 ] } }
{"year": "BC174",  "type": "Feature", "tippecanoe": { "layer": "2AFCA0AC4B381583918191573", "minzoom": 2, "maxzoom": 8 }, "properties": { "halo": 0.8, "title": "巽伽王朝", "fontsize": 12, "tyid": "304000", "oid": "103:1576575177382", "color": "#202020" }, "geometry": { "type": "Point", "coordinates": [ 79.628906, 24.766785 ] } }
{"year": "BC174",  "type": "Feature", "tippecanoe": { "layer": "2AFCA0AC4B381583918191573", "minzoom": 2, "maxzoom": 8 }, "properties": { "halo": 0.8, "title": "百乘王朝", "fontsize": 12, "tyid": "304000", "oid": "103:1576575177529", "color": "#202020" }, "geometry": { "type": "Point", "coordinates": [ 78.750000, 16.720385 ] } }
{"year": "BC174",  "type": "Feature", "tippecanoe": { "layer": "2AFCA0AC4B381583918191573", "minzoom": 2, "maxzoom": 8 }, "properties": { "halo": 0.8, "title": "坚昆", "fontsize": 12, "tyid": "304001", "oid": "103:1576575177000", "color": "#262626" }, "geometry": { "type": "Point", "coordinates": [ 95.449219, 54.521081 ] } }
{"year": "BC174",  "type": "Feature", "tippecanoe": { "layer": "2AFCA0AC4B381583918191573", "minzoom": 2, "maxzoom": 8 }, "properties": { "halo": 0.8, "title": "丁零", "fontsize": 12, "tyid": "304001", "oid": "103:1576575177098", "color": "#262626" }, "geometry": { "type": "Point", "coordinates": [ 111.181641, 53.225768 ] } }
{"year": "BC174",  "type": "Feature", "tippecanoe": { "layer": "2AFCA0AC4B381583918191573", "minzoom": 2, "maxzoom": 8 }, "properties": { "halo": 0.8, "title": "匈奴", "fontsize": 12, "tyid": "304001", "oid": "103:1576575177521", "color": "#262626" }, "geometry": { "type": "Point", "coordinates": [ 107.226562, 45.767523 ] } }
{"year": "BC174",  "type": "Feature", "tippecanoe": { "layer": "2AFCA0AC4B381583918191573", "minzoom": 2, "maxzoom": 8 }, "properties": { "halo": 0.8, "title": "通古斯人", "fontsize": 12, "tyid": "304001", "oid": "103:1576575177484", "color": "#262626" }, "geometry": { "type": "Point", "coordinates": [ 116.718750, 60.759160 ] } }
{"year": "BC174",  "type": "Feature", "tippecanoe": { "layer": "2AFCA0AC4B381583918191573", "minzoom": 2, "maxzoom": 8 }, "properties": { "halo": 0.8, "title": "鲜卑", "fontsize": 12, "tyid": "304001", "oid": "103:1576575177379", "color": "#262626" }, "geometry": { "type": "Point", "coordinates": [ 124.277344, 51.672555 ] } }
{"year": "BC174",  "type": "Feature", "tippecanoe": { "layer": "2AFCA0AC4B381583918191573", "minzoom": 2, "maxzoom": 8 }, "properties": { "halo": 0.8, "title": "濊貊", "fontsize": 12, "tyid": "304001", "oid": "103:1576575177238", "color": "#262626" }, "geometry": { "type": "Point", "coordinates": [ 126.650391, 41.640078 ] } }
{"year": "BC174",  "type": "Feature", "tippecanoe": { "layer": "2AFCA0AC4B381583918191573", "minzoom": 2, "maxzoom": 8 }, "properties": { "halo": 0.8, "title": "苏毗", "fontsize": 12, "tyid": "304001", "oid": "103:1576575177259", "color": "#262626" }, "geometry": { "type": "Point", "coordinates": [ 93.603516, 33.137551 ] } }
{"year": "BC174",  "type": "Feature", "tippecanoe": { "layer": "2AFCA0AC4B381583918191573", "minzoom": 2, "maxzoom": 8 }, "properties": { "halo": 0.8, "title": "古羌人", "fontsize": 12, "tyid": "304001", "oid": "103:1576575177023", "color": "#262626" }, "geometry": { "type": "Point", "coordinates": [ 100.107422, 32.324276 ] } }
{"year": "BC174",  "type": "Feature", "tippecanoe": { "layer": "2AFCA0AC4B381583918191573", "minzoom": 2, "maxzoom": 8 }, "properties": { "halo": 0.8, "title": "哀牢国", "fontsize": 12, "tyid": "304000", "oid": "103:1576575177351", "color": "#202020" }, "geometry": { "type": "Point", "coordinates": [ 100.283203, 22.674847 ] } }
{"year": "BC174",  "type": "Feature", "tippecanoe": { "layer": "2AFCA0AC4B381583918191573", "minzoom": 2, "maxzoom": 8 }, "properties": { "halo": 0.8, "title": "南越国", "fontsize": 12, "tyid": "304000", "oid": "103:1576575177402", "color": "#202020" }, "geometry": { "type": "Point", "coordinates": [ 109.951172, 22.998852 ] } }
{"year": "BC174",  "type": "Feature", "tippecanoe": { "layer": "2AFCA0AC4B381583918191573", "minzoom": 2, "maxzoom": 8 }, "properties": { "halo": 0.8, "title": "西汉", "fontsize": 12, "tyid": "304000", "oid": "103:1576575177003", "color": "#202020" }, "geometry": { "type": "Point", "coordinates": [ 113.466797, 33.211116 ] } }
{"year": "BC174",  "type": "Feature", "tippecanoe": { "layer": "2AFCA0AC4B381583918191573", "minzoom": 2, "maxzoom": 8 }, "properties": { "halo": 0.8, "title": "南岛人", "fontsize": 12, "tyid": "304001", "oid": "103:1576575177263", "color": "#262626" }, "geometry": { "type": "Point", "coordinates": [ 114.169922, 0.878872 ] } }
{"year": "BC174",  "type": "Feature", "tippecanoe": { "layer": "2AFCA0AC4B381583918191573", "minzoom": 2, "maxzoom": 8 }, "properties": { "halo": 0.8, "title": "尤卡吉尔人", "fontsize": 12, "tyid": "304001", "oid": "103:1576575177144", "color": "#262626" }, "geometry": { "type": "Point", "coordinates": [ 155.214844, 64.886265 ] } }
{"year": "BC174",  "type": "Feature", "tippecanoe": { "layer": "2AFCA0AC4B381583918191573", "minzoom": 2, "maxzoom": 8 }, "properties": { "halo": 0.8, "title": "尼夫赫人", "fontsize": 12, "tyid": "304001", "oid": "103:1576575177043", "color": "#262626" }, "geometry": { "type": "Point", "coordinates": [ 138.779297, 51.890054 ] } }
{"year": "BC174",  "type": "Feature", "tippecanoe": { "layer": "2AFCA0AC4B381583918191573", "minzoom": 2, "maxzoom": 8 }, "properties": { "halo": 0.8, "title": "肃慎", "fontsize": 12, "tyid": "304001", "oid": "103:1576575177126", "color": "#262626" }, "geometry": { "type": "Point", "coordinates": [ 136.230469, 47.931066 ] } }
{"year": "BC174",  "type": "Feature", "tippecanoe": { "layer": "2AFCA0AC4B381583918191573", "minzoom": 2, "maxzoom": 8 }, "properties": { "halo": 0.8, "title": "科里亚克族", "fontsize": 12, "tyid": "304001", "oid": "103:1576575177453", "color": "#262626" }, "geometry": { "type": "Point", "coordinates": [ 166.904297, 62.390369 ] } }
{"year": "BC174",  "type": "Feature", "tippecanoe": { "layer": "2AFCA0AC4B381583918191573", "minzoom": 2, "maxzoom": 8 }, "properties": { "halo": 0.8, "title": "楚科奇人", "fontsize": 12, "tyid": "304001", "oid": "103:1576575177362", "color": "#262626" }, "geometry": { "type": "Point", "coordinates": [ 171.035156, 66.443107 ] } }
{"year": "BC174",  "type": "Feature", "tippecanoe": { "layer": "2AFCA0AC4B381583918191573", "minzoom": 2, "maxzoom": 8 }, "properties": { "halo": 0.8, "title": "弥生人", "fontsize": 12, "tyid": "304001", "oid": "103:1576575177122", "color": "#262626" }, "geometry": { "type": "Point", "coordinates": [ 139.218750, 36.668419 ] } }
{"year": "BC174",  "type": "Feature", "tippecanoe": { "layer": "2AFCA0AC4B381583918191573", "minzoom": 2, "maxzoom": 8 }, "properties": { "halo": 0.8, "title": "西北班图人诸部", "fontsize": 12, "tyid": "304001", "oid": "103:1576575177411", "color": "#262626" }, "geometry": { "type": "Point", "coordinates": [ 20.742188, -0.527336 ] } }
{"year": "BC174",  "type": "Feature", "tippecanoe": { "layer": "2AFCA0AC4B381583918191573", "minzoom": 2, "maxzoom": 8 }, "properties": { "halo": 0.8, "title": "西班图人诸部", "fontsize": 12, "tyid": "304001", "oid": "103:1576575177439", "color": "#262626" }, "geometry": { "type": "Point", "coordinates": [ 21.972656, -8.494105 ] } }
{"year": "BC174",  "type": "Feature", "tippecanoe": { "layer": "2AFCA0AC4B381583918191573", "minzoom": 2, "maxzoom": 8 }, "properties": { "halo": 0.8, "title": "东班图人诸部", "fontsize": 12, "tyid": "304001", "oid": "103:1576575177442", "color": "#262626" }, "geometry": { "type": "Point", "coordinates": [ 34.892578, -7.972198 ] } }
{"year": "BC174",  "type": "Feature", "tippecanoe": { "layer": "2AFCA0AC4B381583918191573", "minzoom": 2, "maxzoom": 8 }, "properties": { "halo": 0.8, "title": "科伊桑人", "fontsize": 12, "tyid": "304001", "oid": "103:1576575177443", "color": "#262626" }, "geometry": { "type": "Point", "coordinates": [ 23.466797, -22.350076 ] } }
{"year": "BC174",  "type": "Feature", "tippecanoe": { "layer": "2AFCA0AC4B381583918191573", "minzoom": 2, "maxzoom": 8 }, "properties": { "halo": 0.8, "title": "澳洲原住民", "fontsize": 12, "tyid": "304001", "oid": "103:1576575177499", "color": "#262626" }, "geometry": { "type": "Point", "coordinates": [ 134.296875, -25.562265 ] } }
{"year": "BC174",  "type": "Feature", "tippecanoe": { "layer": "2AFCA0AC4B381583918191573", "minzoom": 2, "maxzoom": 8 }, "properties": { "halo": 0.8, "title": "巴布亚人", "fontsize": 12, "tyid": "304001", "oid": "103:1576575177348", "color": "#262626" }, "geometry": { "type": "Point", "coordinates": [ 140.888672, -5.266008 ] } }
{"year": "BC174",  "type": "Feature", "tippecanoe": { "layer": "2AFCA0AC4DD81583918191570", "minzoom": 2, "maxzoom": 8 }, "properties": { "halo": 1.6, "title": "古白令海文化", "fontsize": 12, "tyid": "304002", "oid": "103:1576575177204", "color": "#0056E7" }, "geometry": { "type": "Point", "coordinates": [ -170.332031, 63.470145 ] } }
{"year": "BC174",  "type": "Feature", "tippecanoe": { "layer": "2AFCA0AC4DD81583918191570", "minzoom": 2, "maxzoom": 8 }, "properties": { "halo": 1.6, "title": "查普卡洛文化", "fontsize": 12, "tyid": "304002", "oid": "103:1576575177339", "color": "#0056E7" }, "geometry": { "type": "Point", "coordinates": [ -99.931641, 20.303418 ] } }
{"year": "BC174",  "type": "Feature", "tippecanoe": { "layer": "2AFCA0AC4DD81583918191570", "minzoom": 2, "maxzoom": 8 }, "properties": { "halo": 1.6, "title": "特奥蒂瓦坎", "fontsize": 12, "tyid": "304002", "oid": "103:1576575177139", "color": "#0056E7" }, "geometry": { "type": "Point", "coordinates": [ -99.404297, 19.808054 ] } }
{"year": "BC174",  "type": "Feature", "tippecanoe": { "layer": "2AFCA0AC4DD81583918191570", "minzoom": 2, "maxzoom": 8 }, "properties": { "halo": 1.6, "title": "米斯特克人", "fontsize": 12, "tyid": "304001", "oid": "103:1576575177395", "color": "#0056E7" }, "geometry": { "type": "Point", "coordinates": [ -98.349609, 17.224758 ] } }
{"year": "BC174",  "type": "Feature", "tippecanoe": { "layer": "2AFCA0AC4DD81583918191570", "minzoom": 2, "maxzoom": 8 }, "properties": { "halo": 1.6, "title": "特里克人", "fontsize": 12, "tyid": "304001", "oid": "103:1576575177091", "color": "#0056E7" }, "geometry": { "type": "Point", "coordinates": [ -97.294922, 17.644022 ] } }
{"year": "BC174",  "type": "Feature", "tippecanoe": { "layer": "2AFCA0AC4DD81583918191570", "minzoom": 2, "maxzoom": 8 }, "properties": { "halo": 1.6, "title": "麦克斯人", "fontsize": 12, "tyid": "304001", "oid": "103:1576575177522", "color": "#0056E7" }, "geometry": { "type": "Point", "coordinates": [ -96.328125, 18.062312 ] } }
{"year": "BC174",  "type": "Feature", "tippecanoe": { "layer": "2AFCA0AC4DD81583918191570", "minzoom": 2, "maxzoom": 8 }, "properties": { "halo": 1.6, "title": "后奥尔梅克文化", "fontsize": 12, "tyid": "304002", "oid": "103:1576575177202", "color": "#0056E7" }, "geometry": { "type": "Point", "coordinates": [ -95.625000, 18.479609 ] } }
{"year": "BC174",  "type": "Feature", "tippecanoe": { "layer": "2AFCA0AC4DD81583918191570", "minzoom": 2, "maxzoom": 8 }, "properties": { "halo": 1.6, "title": "祖赫人", "fontsize": 12, "tyid": "304001", "oid": "103:1576575177196", "color": "#0056E7" }, "geometry": { "type": "Point", "coordinates": [ -92.109375, 16.045813 ] } }
{"year": "BC174",  "type": "Feature", "tippecanoe": { "layer": "2AFCA0AC4DD81583918191570", "minzoom": 2, "maxzoom": 8 }, "properties": { "halo": 1.6, "title": "基切人", "fontsize": 12, "tyid": "304001", "oid": "103:1576575177082", "color": "#0056E7" }, "geometry": { "type": "Point", "coordinates": [ -90.966797, 15.029686 ] } }
{"year": "BC174",  "type": "Feature", "tippecanoe": { "layer": "2AFCA0AC4DD81583918191570", "minzoom": 2, "maxzoom": 8 }, "properties": { "halo": 1.6, "title": "阿尔托山文化", "fontsize": 12, "tyid": "304002", "oid": "103:1576575177061", "color": "#0056E7" }, "geometry": { "type": "Point", "coordinates": [ -91.054688, 14.349548 ] } }
{"year": "BC174",  "type": "Feature", "tippecanoe": { "layer": "2AFCA0AC4DD81583918191570", "minzoom": 2, "maxzoom": 8 }, "properties": { "halo": 1.6, "title": "玛纳索塔文化", "fontsize": 12, "tyid": "304002", "oid": "103:1576575177242", "color": "#0056E7" }, "geometry": { "type": "Point", "coordinates": [ -82.441406, 27.683528 ] } }
{"year": "BC174",  "type": "Feature", "tippecanoe": { "layer": "2AFCA0AC4DD81583918191570", "minzoom": 2, "maxzoom": 8 }, "properties": { "halo": 1.6, "title": "卡卢萨人", "fontsize": 12, "tyid": "304001", "oid": "103:1576575177112", "color": "#0056E7" }, "geometry": { "type": "Point", "coordinates": [ -81.650391, 27.137368 ] } }
{"year": "BC174",  "type": "Feature", "tippecanoe": { "layer": "2AFCA0AC4DD81583918191570", "minzoom": 2, "maxzoom": 8 }, "properties": { "halo": 1.6, "title": "圣约翰文化", "fontsize": 12, "tyid": "304002", "oid": "103:1576575177264", "color": "#0056E7" }, "geometry": { "type": "Point", "coordinates": [ -81.474609, 29.382175 ] } }
{"year": "BC174",  "type": "Feature", "tippecanoe": { "layer": "2AFCA0AC4DD81583918191570", "minzoom": 2, "maxzoom": 8 }, "properties": { "halo": 1.6, "title": "贝尔格莱德文化", "fontsize": 12, "tyid": "304002", "oid": "103:1576575176958", "color": "#0056E7" }, "geometry": { "type": "Point", "coordinates": [ -80.859375, 27.449790 ] } }
{"year": "BC174",  "type": "Feature", "tippecanoe": { "layer": "2AFCA0AC4DD81583918191570", "minzoom": 2, "maxzoom": 8 }, "properties": { "halo": 1.6, "title": "格莱兹文化", "fontsize": 12, "tyid": "304002", "oid": "103:1576575177222", "color": "#0056E7" }, "geometry": { "type": "Point", "coordinates": [ -80.771484, 26.037042 ] } }
{"year": "BC174",  "type": "Feature", "tippecanoe": { "layer": "2AFCA0AC4DD81583918191570", "minzoom": 2, "maxzoom": 8 }, "properties": { "halo": 1.6, "title": "德贵斯塔族", "fontsize": 12, "tyid": "304001", "oid": "103:1576575177205", "color": "#0056E7" }, "geometry": { "type": "Point", "coordinates": [ -80.419922, 25.562265 ] } }
{"year": "BC174",  "type": "Feature", "tippecanoe": { "layer": "2AFCA0AC4DD81583918191570", "minzoom": 2, "maxzoom": 8 }, "properties": { "halo": 1.6, "title": "雷卡人", "fontsize": 12, "tyid": "304001", "oid": "103:1576575177289", "color": "#0056E7" }, "geometry": { "type": "Point", "coordinates": [ -87.802734, 13.752725 ] } }
{"year": "BC174",  "type": "Feature", "tippecanoe": { "layer": "2AFCA0AC4DD81583918191570", "minzoom": 2, "maxzoom": 8 }, "properties": { "halo": 1.6, "title": "格兰科克勒文化", "fontsize": 12, "tyid": "304002", "oid": "103:1576575177113", "color": "#0056E7" }, "geometry": { "type": "Point", "coordinates": [ -80.507812, 8.581021 ] } }
{"year": "BC174",  "type": "Feature", "tippecanoe": { "layer": "2AFCA0AC4DD81583918191570", "minzoom": 2, "maxzoom": 8 }, "properties": { "halo": 1.6, "title": "泰罗纳", "fontsize": 12, "tyid": "304002", "oid": "103:1576575177178", "color": "#0056E7" }, "geometry": { "type": "Point", "coordinates": [ -73.564453, 10.833306 ] } }
{"year": "BC174",  "type": "Feature", "tippecanoe": { "layer": "2AFCA0AC4DD81583918191570", "minzoom": 2, "maxzoom": 8 }, "properties": { "halo": 1.6, "title": "伊拉玛文化", "fontsize": 12, "tyid": "304002", "oid": "103:1576575177004", "color": "#0056E7" }, "geometry": { "type": "Point", "coordinates": [ -76.201172, 4.302591 ] } }
{"year": "BC174",  "type": "Feature", "tippecanoe": { "layer": "2AFCA0AC4DD81583918191570", "minzoom": 2, "maxzoom": 8 }, "properties": { "halo": 1.6, "title": "卡利玛文化", "fontsize": 12, "tyid": "304002", "oid": "103:1576575177455", "color": "#0056E7" }, "geometry": { "type": "Point", "coordinates": [ -76.728516, 4.214943 ] } }
{"year": "BC174",  "type": "Feature", "tippecanoe": { "layer": "2AFCA0AC4DD81583918191570", "minzoom": 2, "maxzoom": 8 }, "properties": { "halo": 1.6, "title": "马拉加纳文化", "fontsize": 12, "tyid": "304002", "oid": "103:1576575177216", "color": "#0056E7" }, "geometry": { "type": "Point", "coordinates": [ -76.289062, 3.425692 ] } }
{"year": "BC174",  "type": "Feature", "tippecanoe": { "layer": "2AFCA0AC4DD81583918191570", "minzoom": 2, "maxzoom": 8 }, "properties": { "halo": 1.6, "title": "科罗索文化", "fontsize": 12, "tyid": "304002", "oid": "103:1576575177266", "color": "#0056E7" }, "geometry": { "type": "Point", "coordinates": [ -66.533203, 18.229351 ] } }
{"year": "BC174",  "type": "Feature", "tippecanoe": { "layer": "2AFCA0AC4DD81583918191570", "minzoom": 2, "maxzoom": 8 }, "properties": { "halo": 1.6, "title": "大庄园文化", "fontsize": 12, "tyid": "304002", "oid": "103:1576575177132", "color": "#0056E7" }, "geometry": { "type": "Point", "coordinates": [ -65.917969, 18.396230 ] } }
{"year": "BC174",  "type": "Feature", "tippecanoe": { "layer": "2AFCA0AC4DD81583918191570", "minzoom": 2, "maxzoom": 8 }, "properties": { "halo": 1.6, "title": "萨拉杜文化", "fontsize": 12, "tyid": "304002", "oid": "103:1576575177511", "color": "#0056E7" }, "geometry": { "type": "Point", "coordinates": [ -61.699219, 16.214675 ] } }
{"year": "BC174",  "type": "Feature", "tippecanoe": { "layer": "2AFCA0AC4DD81583918191570", "minzoom": 2, "maxzoom": 8 }, "properties": { "halo": 1.6, "title": "坎塔布里人", "fontsize": 12, "tyid": "304001", "oid": "103:1576575177075", "color": "#0056E7" }, "geometry": { "type": "Point", "coordinates": [ -4.394531, 43.068888 ] } }
{"year": "BC174",  "type": "Feature", "tippecanoe": { "layer": "2AFCA0AC4DD81583918191570", "minzoom": 2, "maxzoom": 8 }, "properties": { "halo": 1.6, "title": "特罗莫吉人", "fontsize": 12, "tyid": "304001", "oid": "103:1576575177274", "color": "#0056E7" }, "geometry": { "type": "Point", "coordinates": [ -3.691406, 42.228517 ] } }
{"year": "BC174",  "type": "Feature", "tippecanoe": { "layer": "2AFCA0AC4DD81583918191570", "minzoom": 2, "maxzoom": 8 }, "properties": { "halo": 1.6, "title": "奥特里冈人", "fontsize": 12, "tyid": "304001", "oid": "103:1576575177560", "color": "#0056E7" }, "geometry": { "type": "Point", "coordinates": [ -3.251953, 42.875964 ] } }
{"year": "BC174",  "type": "Feature", "tippecanoe": { "layer": "2AFCA0AC4DD81583918191570", "minzoom": 2, "maxzoom": 8 }, "properties": { "halo": 1.6, "title": "卡斯蒂利人", "fontsize": 12, "tyid": "304001", "oid": "103:1576575176989", "color": "#0056E7" }, "geometry": { "type": "Point", "coordinates": [ -2.812500, 43.068888 ] } }
{"year": "BC174",  "type": "Feature", "tippecanoe": { "layer": "2AFCA0AC4DD81583918191570", "minzoom": 2, "maxzoom": 8 }, "properties": { "halo": 1.6, "title": "瓦杜里人", "fontsize": 12, "tyid": "304001", "oid": "103:1576575177102", "color": "#0056E7" }, "geometry": { "type": "Point", "coordinates": [ -2.285156, 42.940339 ] } }
{"year": "BC174",  "type": "Feature", "tippecanoe": { "layer": "2AFCA0AC4DD81583918191570", "minzoom": 2, "maxzoom": 8 }, "properties": { "halo": 1.6, "title": "伯罗内人", "fontsize": 12, "tyid": "304001", "oid": "103:1576575177129", "color": "#0056E7" }, "geometry": { "type": "Point", "coordinates": [ -2.548828, 42.293564 ] } }
{"year": "BC174",  "type": "Feature", "tippecanoe": { "layer": "2AFCA0AC4DD81583918191570", "minzoom": 2, "maxzoom": 8 }, "properties": { "halo": 1.6, "title": "巴斯克人", "fontsize": 12, "tyid": "304001", "oid": "103:1576575177515", "color": "#0056E7" }, "geometry": { "type": "Point", "coordinates": [ -1.494141, 42.811522 ] } }
{"year": "BC174",  "type": "Feature", "tippecanoe": { "layer": "2AFCA0AC4DD81583918191570", "minzoom": 2, "maxzoom": 8 }, "properties": { "halo": 1.6, "title": "伊塞塔尼人", "fontsize": 12, "tyid": "304001", "oid": "103:1576575176963", "color": "#0056E7" }, "geometry": { "type": "Point", "coordinates": [ -1.054688, 42.293564 ] } }
{"year": "BC174",  "type": "Feature", "tippecanoe": { "layer": "2AFCA0AC4DD81583918191570", "minzoom": 2, "maxzoom": 8 }, "properties": { "halo": 1.6, "title": "关切人", "fontsize": 12, "tyid": "304001", "oid": "103:1576575177046", "color": "#0056E7" }, "geometry": { "type": "Point", "coordinates": [ -16.611328, 28.304381 ] } }
{"year": "BC174",  "type": "Feature", "tippecanoe": { "layer": "2AFCA0AC4DD81583918191570", "minzoom": 2, "maxzoom": 8 }, "properties": { "halo": 1.6, "title": "图尔杜利奥皮迪尼人", "fontsize": 12, "tyid": "304001", "oid": "103:1576575177487", "color": "#0056E7" }, "geometry": { "type": "Point", "coordinates": [ -8.789062, 39.909736 ] } }
{"year": "BC174",  "type": "Feature", "tippecanoe": { "layer": "2AFCA0AC4DD81583918191570", "minzoom": 2, "maxzoom": 8 }, "properties": { "halo": 1.6, "title": "西尼特人", "fontsize": 12, "tyid": "304001", "oid": "103:1576575177373", "color": "#0056E7" }, "geometry": { "type": "Point", "coordinates": [ -7.998047, 37.649034 ] } }
{"year": "BC174",  "type": "Feature", "tippecanoe": { "layer": "2AFCA0AC4DD81583918191570", "minzoom": 2, "maxzoom": 8 }, "properties": { "halo": 1.6, "title": "奥雷塔尼人", "fontsize": 12, "tyid": "304001", "oid": "103:1576575177345", "color": "#0056E7" }, "geometry": { "type": "Point", "coordinates": [ -3.339844, 38.754083 ] } }
{"year": "BC174",  "type": "Feature", "tippecanoe": { "layer": "2AFCA0AC4DD81583918191570", "minzoom": 2, "maxzoom": 8 }, "properties": { "halo": 1.6, "title": "瓜纳加拉文化", "fontsize": 12, "tyid": "304002", "oid": "103:1576575177369", "color": "#0056E7" }, "geometry": { "type": "Point", "coordinates": [ -80.595703, -1.669686 ] } }
{"year": "BC174",  "type": "Feature", "tippecanoe": { "layer": "2AFCA0AC4DD81583918191570", "minzoom": 2, "maxzoom": 8 }, "properties": { "halo": 1.6, "title": "巴伊亚文化", "fontsize": 12, "tyid": "304002", "oid": "103:1576575177509", "color": "#0056E7" }, "geometry": { "type": "Point", "coordinates": [ -80.068359, -0.527336 ] } }
{"year": "BC174",  "type": "Feature", "tippecanoe": { "layer": "2AFCA0AC4DD81583918191570", "minzoom": 2, "maxzoom": 8 }, "properties": { "halo": 1.6, "title": "萨利纳尔文化", "fontsize": 12, "tyid": "304002", "oid": "103:1576575177001", "color": "#0056E7" }, "geometry": { "type": "Point", "coordinates": [ -78.925781, -7.885147 ] } }
{"year": "BC174",  "type": "Feature", "tippecanoe": { "layer": "2AFCA0AC4DD81583918191570", "minzoom": 2, "maxzoom": 8 }, "properties": { "halo": 1.6, "title": "维鲁文化", "fontsize": 12, "tyid": "304002", "oid": "103:1576575177162", "color": "#0056E7" }, "geometry": { "type": "Point", "coordinates": [ -78.837891, -8.320212 ] } }
{"year": "BC174",  "type": "Feature", "tippecanoe": { "layer": "2AFCA0AC4DD81583918191570", "minzoom": 2, "maxzoom": 8 }, "properties": { "halo": 1.6, "title": "瑞克文化", "fontsize": 12, "tyid": "304002", "oid": "103:1576575177558", "color": "#0056E7" }, "geometry": { "type": "Point", "coordinates": [ -77.607422, -9.622414 ] } }
{"year": "BC174",  "type": "Feature", "tippecanoe": { "layer": "2AFCA0AC4DD81583918191570", "minzoom": 2, "maxzoom": 8 }, "properties": { "halo": 1.6, "title": "加伊纳索文化", "fontsize": 12, "tyid": "304002", "oid": "103:1576575177507", "color": "#0056E7" }, "geometry": { "type": "Point", "coordinates": [ -77.080078, -11.092166 ] } }
{"year": "BC174",  "type": "Feature", "tippecanoe": { "layer": "2AFCA0AC4DD81583918191570", "minzoom": 2, "maxzoom": 8 }, "properties": { "halo": 1.6, "title": "托帕拉文化", "fontsize": 12, "tyid": "304002", "oid": "103:1576575177143", "color": "#0056E7" }, "geometry": { "type": "Point", "coordinates": [ -75.937500, -13.581921 ] } }
{"year": "BC174",  "type": "Feature", "tippecanoe": { "layer": "2AFCA0AC4DD81583918191570", "minzoom": 2, "maxzoom": 8 }, "properties": { "halo": 1.6, "title": "华帕文化", "fontsize": 12, "tyid": "304002", "oid": "103:1576575176972", "color": "#0056E7" }, "geometry": { "type": "Point", "coordinates": [ -74.179688, -13.581921 ] } }
{"year": "BC174",  "type": "Feature", "tippecanoe": { "layer": "2AFCA0AC4DD81583918191570", "minzoom": 2, "maxzoom": 8 }, "properties": { "halo": 1.6, "title": "帕拉卡斯文化", "fontsize": 12, "tyid": "304002", "oid": "103:1576575177225", "color": "#0056E7" }, "geometry": { "type": "Point", "coordinates": [ -75.585938, -14.434680 ] } }
{"year": "BC174",  "type": "Feature", "tippecanoe": { "layer": "2AFCA0AC4DD81583918191570", "minzoom": 2, "maxzoom": 8 }, "properties": { "halo": 1.6, "title": "塔夫文化", "fontsize": 12, "tyid": "304002", "oid": "103:1576575177156", "color": "#0056E7" }, "geometry": { "type": "Point", "coordinates": [ -65.654297, -26.980829 ] } }
{"year": "BC174",  "type": "Feature", "tippecanoe": { "layer": "2AFCA0AC4DD81583918191570", "minzoom": 2, "maxzoom": 8 }, "properties": { "halo": 1.6, "title": "豪什人", "fontsize": 12, "tyid": "304001", "oid": "103:1576575177546", "color": "#0056E7" }, "geometry": { "type": "Point", "coordinates": [ -65.917969, -54.724620 ] } }
{"year": "BC174",  "type": "Feature", "tippecanoe": { "layer": "2AFCA0AC4DD81583918191570", "minzoom": 2, "maxzoom": 8 }, "properties": { "halo": 1.6, "title": "阿洛布罗基人", "fontsize": 12, "tyid": "304001", "oid": "103:1576575177321", "color": "#0056E7" }, "geometry": { "type": "Point", "coordinates": [ 5.537109, 45.706179 ] } }
{"year": "BC174",  "type": "Feature", "tippecanoe": { "layer": "2AFCA0AC4DD81583918191570", "minzoom": 2, "maxzoom": 8 }, "properties": { "halo": 1.8, "title": "马萨利亚", "fontsize": 12, "tyid": "304000", "oid": "103:1576575177285", "color": "#0056E7" }, "geometry": { "type": "Point", "coordinates": [ 5.449219, 43.325178 ] } }
{"year": "BC174",  "type": "Feature", "tippecanoe": { "layer": "2AFCA0AC4DD81583918191570", "minzoom": 2, "maxzoom": 8 }, "properties": { "halo": 1.8, "title": "帕莱波利斯", "fontsize": 12, "tyid": "304000", "oid": "103:1576575177569", "color": "#0056E7" }, "geometry": { "type": "Point", "coordinates": [ 3.076172, 42.163403 ] } }
{"year": "BC174",  "type": "Feature", "tippecanoe": { "layer": "2AFCA0AC4DD81583918191570", "minzoom": 2, "maxzoom": 8 }, "properties": { "halo": 1.6, "title": "萨拉西人", "fontsize": 12, "tyid": "304001", "oid": "103:1576575177312", "color": "#0056E7" }, "geometry": { "type": "Point", "coordinates": [ 6.943359, 45.521744 ] } }
{"year": "BC174",  "type": "Feature", "tippecanoe": { "layer": "2AFCA0AC4DD81583918191570", "minzoom": 2, "maxzoom": 8 }, "properties": { "halo": 1.6, "title": "西杜里人", "fontsize": 12, "tyid": "304001", "oid": "103:1576575177333", "color": "#0056E7" }, "geometry": { "type": "Point", "coordinates": [ 7.470703, 46.195042 ] } }
{"year": "BC174",  "type": "Feature", "tippecanoe": { "layer": "2AFCA0AC4DD81583918191570", "minzoom": 2, "maxzoom": 8 }, "properties": { "halo": 1.6, "title": "勒庞提人", "fontsize": 12, "tyid": "304001", "oid": "103:1576575177151", "color": "#0056E7" }, "geometry": { "type": "Point", "coordinates": [ 8.437500, 46.134170 ] } }
{"year": "BC174",  "type": "Feature", "tippecanoe": { "layer": "2AFCA0AC4DD81583918191570", "minzoom": 2, "maxzoom": 8 }, "properties": { "halo": 1.6, "title": "卡莫尼卡人", "fontsize": 12, "tyid": "304001", "oid": "103:1576575177024", "color": "#0056E7" }, "geometry": { "type": "Point", "coordinates": [ 10.195312, 46.012224 ] } }
{"year": "BC174",  "type": "Feature", "tippecanoe": { "layer": "2AFCA0AC4DD81583918191570", "minzoom": 2, "maxzoom": 8 }, "properties": { "halo": 1.8, "title": "摩诺伊科", "fontsize": 12, "tyid": "304000", "oid": "103:1576575177032", "color": "#0056E7" }, "geometry": { "type": "Point", "coordinates": [ 7.382812, 43.771094 ] } }
{"year": "BC174",  "type": "Feature", "tippecanoe": { "layer": "2AFCA0AC4DD81583918191570", "minzoom": 2, "maxzoom": 8 }, "properties": { "halo": 1.6, "title": "威尼蒂人[亚得里亚海]", "fontsize": 12, "tyid": "304001", "oid": "103:1576575177172", "color": "#0056E7" }, "geometry": { "type": "Point", "coordinates": [ 12.216797, 46.012224 ] } }
{"year": "BC174",  "type": "Feature", "tippecanoe": { "layer": "2AFCA0AC4DD81583918191570", "minzoom": 2, "maxzoom": 8 }, "properties": { "halo": 1.8, "title": "奥德索斯", "fontsize": 12, "tyid": "304000", "oid": "103:1576575177105", "color": "#0056E7" }, "geometry": { "type": "Point", "coordinates": [ 27.861328, 43.261206 ] } }
{"year": "BC174",  "type": "Feature", "tippecanoe": { "layer": "2AFCA0AC4DD81583918191570", "minzoom": 2, "maxzoom": 8 }, "properties": { "halo": 1.8, "title": "安恰罗斯", "fontsize": 12, "tyid": "304000", "oid": "103:1576575177035", "color": "#0056E7" }, "geometry": { "type": "Point", "coordinates": [ 27.509766, 42.617791 ] } }
{"year": "BC174",  "type": "Feature", "tippecanoe": { "layer": "2AFCA0AC4DD81583918191570", "minzoom": 2, "maxzoom": 8 }, "properties": { "halo": 1.8, "title": "梅森布里亚", "fontsize": 12, "tyid": "304000", "oid": "103:1576575177213", "color": "#0056E7" }, "geometry": { "type": "Point", "coordinates": [ 27.597656, 42.682435 ] } }
{"year": "BC174",  "type": "Feature", "tippecanoe": { "layer": "2AFCA0AC4DD81583918191570", "minzoom": 2, "maxzoom": 8 }, "properties": { "halo": 1.8, "title": "阿波罗尼亚·潘提卡", "fontsize": 12, "tyid": "304000", "oid": "103:1576575177284", "color": "#0056E7" }, "geometry": { "type": "Point", "coordinates": [ 27.597656, 42.423457 ] } }
{"year": "BC174",  "type": "Feature", "tippecanoe": { "layer": "2AFCA0AC4DD81583918191570", "minzoom": 2, "maxzoom": 8 }, "properties": { "halo": 1.8, "title": "埃吉索斯", "fontsize": 12, "tyid": "304000", "oid": "103:1576575177237", "color": "#0056E7" }, "geometry": { "type": "Point", "coordinates": [ 29.091797, 45.151053 ] } }
{"year": "BC174",  "type": "Feature", "tippecanoe": { "layer": "2AFCA0AC4DD81583918191570", "minzoom": 2, "maxzoom": 8 }, "properties": { "halo": 1.8, "title": "提拉斯", "fontsize": 12, "tyid": "304000", "oid": "103:1576575177214", "color": "#0056E7" }, "geometry": { "type": "Point", "coordinates": [ 30.234375, 46.134170 ] } }
{"year": "BC174",  "type": "Feature", "tippecanoe": { "layer": "2AFCA0AC4DD81583918191570", "minzoom": 2, "maxzoom": 8 }, "properties": { "halo": 1.6, "title": "奥里维亚", "fontsize": 12, "tyid": "304002", "oid": "103:1576575177547", "color": "#0056E7" }, "geometry": { "type": "Point", "coordinates": [ 31.816406, 46.679594 ] } }
{"year": "BC174",  "type": "Feature", "tippecanoe": { "layer": "2AFCA0AC4DD81583918191570", "minzoom": 2, "maxzoom": 8 }, "properties": { "halo": 1.8, "title": "克尔柯特", "fontsize": 12, "tyid": "304000", "oid": "103:1576575177427", "color": "#0056E7" }, "geometry": { "type": "Point", "coordinates": [ 33.398438, 45.274886 ] } }
{"year": "BC174",  "type": "Feature", "tippecanoe": { "layer": "2AFCA0AC4DD81583918191570", "minzoom": 2, "maxzoom": 8 }, "properties": { "halo": 1.8, "title": "希斯特里亚", "fontsize": 12, "tyid": "304000", "oid": "103:1576575177297", "color": "#0056E7" }, "geometry": { "type": "Point", "coordinates": [ 28.740234, 44.527843 ] } }
{"year": "BC174",  "type": "Feature", "tippecanoe": { "layer": "2AFCA0AC4DD81583918191570", "minzoom": 2, "maxzoom": 8 }, "properties": { "halo": 1.8, "title": "托米斯", "fontsize": 12, "tyid": "304000", "oid": "103:1576575177377", "color": "#0056E7" }, "geometry": { "type": "Point", "coordinates": [ 28.476562, 44.213710 ] } }
{"year": "BC174",  "type": "Feature", "tippecanoe": { "layer": "2AFCA0AC4DD81583918191570", "minzoom": 2, "maxzoom": 8 }, "properties": { "halo": 1.8, "title": "卡拉提斯", "fontsize": 12, "tyid": "304000", "oid": "103:1576575176941", "color": "#0056E7" }, "geometry": { "type": "Point", "coordinates": [ 28.564453, 43.834527 ] } }
{"year": "BC174",  "type": "Feature", "tippecanoe": { "layer": "2AFCA0AC4DD81583918191570", "minzoom": 2, "maxzoom": 8 }, "properties": { "halo": 1.8, "title": "迪奥尼索波利斯", "fontsize": 12, "tyid": "304000", "oid": "103:1576575177553", "color": "#0056E7" }, "geometry": { "type": "Point", "coordinates": [ 28.125000, 43.452919 ] } }
{"year": "BC174",  "type": "Feature", "tippecanoe": { "layer": "2AFCA0AC4DD81583918191570", "minzoom": 2, "maxzoom": 8 }, "properties": { "halo": 1.8, "title": "拜佐恩", "fontsize": 12, "tyid": "304000", "oid": "103:1576575177036", "color": "#0056E7" }, "geometry": { "type": "Point", "coordinates": [ 28.300781, 43.452919 ] } }
{"year": "BC174",  "type": "Feature", "tippecanoe": { "layer": "2AFCA0AC4DD81583918191570", "minzoom": 2, "maxzoom": 8 }, "properties": { "halo": 1.8, "title": "拜占庭", "fontsize": 12, "tyid": "304000", "oid": "103:1576575177104", "color": "#0056E7" }, "geometry": { "type": "Point", "coordinates": [ 28.740234, 41.178654 ] } }
{"year": "BC174",  "type": "Feature", "tippecanoe": { "layer": "2AFCA0AC4DD81583918191570", "minzoom": 2, "maxzoom": 8 }, "properties": { "halo": 1.8, "title": "克森尼索", "fontsize": 12, "tyid": "304000", "oid": "103:1576575177239", "color": "#0056E7" }, "geometry": { "type": "Point", "coordinates": [ 33.750000, 44.590467 ] } }
{"year": "BC174",  "type": "Feature", "tippecanoe": { "layer": "2AFCA0AC4DD81583918191570", "minzoom": 2, "maxzoom": 8 }, "properties": { "halo": 1.6, "title": "杜林人", "fontsize": 12, "tyid": "304001", "oid": "103:1576575177435", "color": "#0056E7" }, "geometry": { "type": "Point", "coordinates": [ 34.541016, 44.964798 ] } }
{"year": "BC174",  "type": "Feature", "tippecanoe": { "layer": "2AFCA0AC4DD81583918191570", "minzoom": 2, "maxzoom": 8 }, "properties": { "halo": 1.8, "title": "博斯普鲁斯王国", "fontsize": 12, "tyid": "304000", "oid": "103:1576575177040", "color": "#0056E7" }, "geometry": { "type": "Point", "coordinates": [ 37.441406, 45.026950 ] } }
{"year": "BC174",  "type": "Feature", "tippecanoe": { "layer": "2AFCA0AC4DD81583918191570", "minzoom": 2, "maxzoom": 8 }, "properties": { "halo": 1.6, "title": "辛迪人", "fontsize": 12, "tyid": "304001", "oid": "103:1576575177531", "color": "#0056E7" }, "geometry": { "type": "Point", "coordinates": [ 38.759766, 44.715514 ] } }
{"year": "BC174",  "type": "Feature", "tippecanoe": { "layer": "2AFCA0AC4DD81583918191570", "minzoom": 2, "maxzoom": 8 }, "properties": { "halo": 1.6, "title": "庞蒂克希腊人", "fontsize": 12, "tyid": "304001", "oid": "103:1576575177430", "color": "#0056E7" }, "geometry": { "type": "Point", "coordinates": [ 39.287109, 41.046217 ] } }
{"year": "BC174",  "type": "Feature", "tippecanoe": { "layer": "2AFCA0AC4DD81583918191570", "minzoom": 2, "maxzoom": 8 }, "properties": { "halo": 1.8, "title": "特里格莱特", "fontsize": 12, "tyid": "304000", "oid": "103:1576575176936", "color": "#0056E7" }, "geometry": { "type": "Point", "coordinates": [ 40.253906, 43.261206 ] } }
{"year": "BC174",  "type": "Feature", "tippecanoe": { "layer": "2AFCA0AC4DD81583918191570", "minzoom": 2, "maxzoom": 8 }, "properties": { "halo": 1.8, "title": "狄奥斯库里亚", "fontsize": 12, "tyid": "304000", "oid": "103:1576575177215", "color": "#0056E7" }, "geometry": { "type": "Point", "coordinates": [ 40.957031, 43.068888 ] } }
{"year": "BC174",  "type": "Feature", "tippecanoe": { "layer": "2AFCA0AC4DD81583918191570", "minzoom": 2, "maxzoom": 8 }, "properties": { "halo": 1.8, "title": "费西斯", "fontsize": 12, "tyid": "304000", "oid": "103:1576575177050", "color": "#0056E7" }, "geometry": { "type": "Point", "coordinates": [ 41.660156, 42.163403 ] } }
{"year": "BC174",  "type": "Feature", "tippecanoe": { "layer": "2AFCA0AC4DD81583918191570", "minzoom": 2, "maxzoom": 8 }, "properties": { "halo": 1.8, "title": "巴斯", "fontsize": 12, "tyid": "304000", "oid": "103:1576575176940", "color": "#0056E7" }, "geometry": { "type": "Point", "coordinates": [ 41.660156, 41.640078 ] } }
{"year": "BC174",  "type": "Feature", "tippecanoe": { "layer": "2AFCA0AC4DD81583918191570", "minzoom": 2, "maxzoom": 8 }, "properties": { "halo": 1.6, "title": "巴利阿里独立区", "fontsize": 12, "tyid": "304002", "oid": "103:1576575177159", "color": "#0056E7" }, "geometry": { "type": "Point", "coordinates": [ 2.900391, 39.639538 ] } }
{"year": "BC174",  "type": "Feature", "tippecanoe": { "layer": "2AFCA0AC4DD81583918191570", "minzoom": 2, "maxzoom": 8 }, "properties": { "halo": 1.8, "title": "阿卡尔纳尼亚同盟", "fontsize": 12, "tyid": "304000", "oid": "103:1576575177319", "color": "#0056E7" }, "geometry": { "type": "Point", "coordinates": [ 20.917969, 38.754083 ] } }
{"year": "BC174",  "type": "Feature", "tippecanoe": { "layer": "2AFCA0AC4DD81583918191570", "minzoom": 2, "maxzoom": 8 }, "properties": { "halo": 1.8, "title": "厄利斯", "fontsize": 12, "tyid": "304000", "oid": "103:1576575177171", "color": "#0056E7" }, "geometry": { "type": "Point", "coordinates": [ 21.445312, 37.788081 ] } }
{"year": "BC174",  "type": "Feature", "tippecanoe": { "layer": "2AFCA0AC4DD81583918191570", "minzoom": 2, "maxzoom": 8 }, "properties": { "halo": 1.8, "title": "埃托利亚同盟", "fontsize": 12, "tyid": "304000", "oid": "103:1576575177315", "color": "#0056E7" }, "geometry": { "type": "Point", "coordinates": [ 21.796875, 38.754083 ] } }
{"year": "BC174",  "type": "Feature", "tippecanoe": { "layer": "2AFCA0AC4DD81583918191570", "minzoom": 2, "maxzoom": 8 }, "properties": { "halo": 1.8, "title": "阿凯亚同盟", "fontsize": 12, "tyid": "304000", "oid": "103:1576575177189", "color": "#0056E7" }, "geometry": { "type": "Point", "coordinates": [ 22.324219, 37.788081 ] } }
{"year": "BC174",  "type": "Feature", "tippecanoe": { "layer": "2AFCA0AC4DD81583918191570", "minzoom": 2, "maxzoom": 8 }, "properties": { "halo": 1.8, "title": "古美西尼", "fontsize": 12, "tyid": "304000", "oid": "103:1576575177212", "color": "#0056E7" }, "geometry": { "type": "Point", "coordinates": [ 21.796875, 37.160317 ] } }
{"year": "BC174",  "type": "Feature", "tippecanoe": { "layer": "2AFCA0AC4DD81583918191570", "minzoom": 2, "maxzoom": 8 }, "properties": { "halo": 1.8, "title": "彼奥提亚同盟", "fontsize": 12, "tyid": "304000", "oid": "103:1576575177184", "color": "#0056E7" }, "geometry": { "type": "Point", "coordinates": [ 23.115234, 38.410558 ] } }
{"year": "BC174",  "type": "Feature", "tippecanoe": { "layer": "2AFCA0AC4DD81583918191570", "minzoom": 2, "maxzoom": 8 }, "properties": { "halo": 1.8, "title": "优卑亚同盟", "fontsize": 12, "tyid": "304000", "oid": "103:1576575177193", "color": "#0056E7" }, "geometry": { "type": "Point", "coordinates": [ 23.730469, 38.616870 ] } }
{"year": "BC174",  "type": "Feature", "tippecanoe": { "layer": "2AFCA0AC4DD81583918191570", "minzoom": 2, "maxzoom": 8 }, "properties": { "halo": 1.8, "title": "岛民同盟", "fontsize": 12, "tyid": "304000", "oid": "103:1576575177187", "color": "#0056E7" }, "geometry": { "type": "Point", "coordinates": [ 25.400391, 37.090240 ] } }
{"year": "BC174",  "type": "Feature", "tippecanoe": { "layer": "2AFCA0AC4DD81583918191570", "minzoom": 2, "maxzoom": 8 }, "properties": { "halo": 1.8, "title": "克里特", "fontsize": 12, "tyid": "304000", "oid": "103:1576575177209", "color": "#0056E7" }, "geometry": { "type": "Point", "coordinates": [ 24.785156, 35.245619 ] } }
{"year": "BC174",  "type": "Feature", "tippecanoe": { "layer": "2AFCA0AC4DD81583918191570", "minzoom": 2, "maxzoom": 8 }, "properties": { "halo": 1.8, "title": "罗德斯国", "fontsize": 12, "tyid": "304000", "oid": "103:1576575177357", "color": "#0056E7" }, "geometry": { "type": "Point", "coordinates": [ 28.300781, 36.949892 ] } }
{"year": "BC174",  "type": "Feature", "tippecanoe": { "layer": "2AFCA0AC4DD81583918191570", "minzoom": 2, "maxzoom": 8 }, "properties": { "halo": 1.8, "title": "以东王国", "fontsize": 12, "tyid": "304000", "oid": "103:1576575177111", "color": "#0056E7" }, "geometry": { "type": "Point", "coordinates": [ 35.595703, 30.751278 ] } }
{"year": "BC174",  "type": "Feature", "tippecanoe": { "layer": "2AFCA0AC4DD81583918191570", "minzoom": 2, "maxzoom": 8 }, "properties": { "halo": 1.6, "title": "列兹金人", "fontsize": 12, "tyid": "304001", "oid": "103:1576575177450", "color": "#0056E7" }, "geometry": { "type": "Point", "coordinates": [ 47.636719, 41.640078 ] } }
{"year": "BC174",  "type": "Feature", "tippecanoe": { "layer": "2AFCA0AC4DD81583918191570", "minzoom": 2, "maxzoom": 8 }, "properties": { "halo": 1.8, "title": "温宿国", "fontsize": 12, "tyid": "304000", "oid": "103:1576575177199", "color": "#0056E7" }, "geometry": { "type": "Point", "coordinates": [ 79.277344, 41.310824 ] } }
{"year": "BC174",  "type": "Feature", "tippecanoe": { "layer": "2AFCA0AC4DD81583918191570", "minzoom": 2, "maxzoom": 8 }, "properties": { "halo": 1.8, "title": "乌贪訾离国", "fontsize": 12, "tyid": "304000", "oid": "103:1576575177233", "color": "#0056E7" }, "geometry": { "type": "Point", "coordinates": [ 86.748047, 44.465151 ] } }
{"year": "BC174",  "type": "Feature", "tippecanoe": { "layer": "2AFCA0AC4DD81583918191570", "minzoom": 2, "maxzoom": 8 }, "properties": { "halo": 1.8, "title": "西且弥国", "fontsize": 12, "tyid": "304000", "oid": "103:1576575177524", "color": "#0056E7" }, "geometry": { "type": "Point", "coordinates": [ 86.220703, 43.834527 ] } }
{"year": "BC174",  "type": "Feature", "tippecanoe": { "layer": "2AFCA0AC4DD81583918191570", "minzoom": 2, "maxzoom": 8 }, "properties": { "halo": 1.8, "title": "东且弥国", "fontsize": 12, "tyid": "304000", "oid": "103:1576575177405", "color": "#0056E7" }, "geometry": { "type": "Point", "coordinates": [ 86.923828, 43.707594 ] } }
{"year": "BC174",  "type": "Feature", "tippecanoe": { "layer": "2AFCA0AC4DD81583918191570", "minzoom": 2, "maxzoom": 8 }, "properties": { "halo": 1.8, "title": "仑头国", "fontsize": 12, "tyid": "304000", "oid": "103:1576575177286", "color": "#0056E7" }, "geometry": { "type": "Point", "coordinates": [ 84.638672, 41.244772 ] } }
{"year": "BC174",  "type": "Feature", "tippecanoe": { "layer": "2AFCA0AC4DD81583918191570", "minzoom": 2, "maxzoom": 8 }, "properties": { "halo": 1.8, "title": "焉耆国", "fontsize": 12, "tyid": "304000", "oid": "103:1576575177304", "color": "#0056E7" }, "geometry": { "type": "Point", "coordinates": [ 85.957031, 41.902277 ] } }
{"year": "BC174",  "type": "Feature", "tippecanoe": { "layer": "2AFCA0AC4DD81583918191570", "minzoom": 2, "maxzoom": 8 }, "properties": { "halo": 1.8, "title": "劫国", "fontsize": 12, "tyid": "304000", "oid": "103:1576575177555", "color": "#0056E7" }, "geometry": { "type": "Point", "coordinates": [ 87.802734, 44.150681 ] } }
{"year": "BC174",  "type": "Feature", "tippecanoe": { "layer": "2AFCA0AC4DD81583918191570", "minzoom": 2, "maxzoom": 8 }, "properties": { "halo": 1.8, "title": "卑陆后国", "fontsize": 12, "tyid": "304000", "oid": "103:1576575177278", "color": "#0056E7" }, "geometry": { "type": "Point", "coordinates": [ 88.154297, 44.276671 ] } }
{"year": "BC174",  "type": "Feature", "tippecanoe": { "layer": "2AFCA0AC4DD81583918191570", "minzoom": 2, "maxzoom": 8 }, "properties": { "halo": 1.8, "title": "单桓国", "fontsize": 12, "tyid": "304000", "oid": "103:1576575177344", "color": "#0056E7" }, "geometry": { "type": "Point", "coordinates": [ 87.539062, 44.024422 ] } }
{"year": "BC174",  "type": "Feature", "tippecanoe": { "layer": "2AFCA0AC4DD81583918191570", "minzoom": 2, "maxzoom": 8 }, "properties": { "halo": 1.8, "title": "卑陆国", "fontsize": 12, "tyid": "304000", "oid": "103:1576575177291", "color": "#0056E7" }, "geometry": { "type": "Point", "coordinates": [ 88.066406, 43.961191 ] } }
{"year": "BC174",  "type": "Feature", "tippecanoe": { "layer": "2AFCA0AC4DD81583918191570", "minzoom": 2, "maxzoom": 8 }, "properties": { "halo": 1.8, "title": "孤胡国", "fontsize": 12, "tyid": "304000", "oid": "103:1576575177047", "color": "#0056E7" }, "geometry": { "type": "Point", "coordinates": [ 87.978516, 43.389082 ] } }
{"year": "BC174",  "type": "Feature", "tippecanoe": { "layer": "2AFCA0AC4DD81583918191570", "minzoom": 2, "maxzoom": 8 }, "properties": { "halo": 1.8, "title": "卡塔班王国", "fontsize": 12, "tyid": "304000", "oid": "103:1576575177446", "color": "#0056E7" }, "geometry": { "type": "Point", "coordinates": [ 45.791016, 14.859850 ] } }
{"year": "BC174",  "type": "Feature", "tippecanoe": { "layer": "2AFCA0AC4DD81583918191570", "minzoom": 2, "maxzoom": 8 }, "properties": { "halo": 1.8, "title": "难兜国", "fontsize": 12, "tyid": "304000", "oid": "103:1576575177415", "color": "#0056E7" }, "geometry": { "type": "Point", "coordinates": [ 74.091797, 36.949892 ] } }
{"year": "BC174",  "type": "Feature", "tippecanoe": { "layer": "2AFCA0AC4DD81583918191570", "minzoom": 2, "maxzoom": 8 }, "properties": { "halo": 1.8, "title": "依耐国", "fontsize": 12, "tyid": "304000", "oid": "103:1576575177300", "color": "#0056E7" }, "geometry": { "type": "Point", "coordinates": [ 75.849609, 38.616870 ] } }
{"year": "BC174",  "type": "Feature", "tippecanoe": { "layer": "2AFCA0AC4DD81583918191570", "minzoom": 2, "maxzoom": 8 }, "properties": { "halo": 1.8, "title": "蒲犁国", "fontsize": 12, "tyid": "304000", "oid": "103:1576575177283", "color": "#0056E7" }, "geometry": { "type": "Point", "coordinates": [ 75.146484, 37.718590 ] } }
{"year": "BC174",  "type": "Feature", "tippecanoe": { "layer": "2AFCA0AC4DD81583918191570", "minzoom": 2, "maxzoom": 8 }, "properties": { "halo": 1.8, "title": "疏勒国", "fontsize": 12, "tyid": "304000", "oid": "103:1576575177229", "color": "#0056E7" }, "geometry": { "type": "Point", "coordinates": [ 76.289062, 39.504041 ] } }
{"year": "BC174",  "type": "Feature", "tippecanoe": { "layer": "2AFCA0AC4DD81583918191570", "minzoom": 2, "maxzoom": 8 }, "properties": { "halo": 1.8, "title": "子合国", "fontsize": 12, "tyid": "304000", "oid": "103:1576575177034", "color": "#0056E7" }, "geometry": { "type": "Point", "coordinates": [ 76.376953, 37.718590 ] } }
{"year": "BC174",  "type": "Feature", "tippecanoe": { "layer": "2AFCA0AC4DD81583918191570", "minzoom": 2, "maxzoom": 8 }, "properties": { "halo": 1.8, "title": "皮山国", "fontsize": 12, "tyid": "304000", "oid": "103:1576575177340", "color": "#0056E7" }, "geometry": { "type": "Point", "coordinates": [ 78.574219, 37.509726 ] } }
{"year": "BC174",  "type": "Feature", "tippecanoe": { "layer": "2AFCA0AC4DD81583918191570", "minzoom": 2, "maxzoom": 8 }, "properties": { "halo": 1.8, "title": "戎卢国", "fontsize": 12, "tyid": "304000", "oid": "103:1576575177121", "color": "#0056E7" }, "geometry": { "type": "Point", "coordinates": [ 83.144531, 36.668419 ] } }
{"year": "BC174",  "type": "Feature", "tippecanoe": { "layer": "2AFCA0AC4DD81583918191570", "minzoom": 2, "maxzoom": 8 }, "properties": { "halo": 1.8, "title": "渠勒国", "fontsize": 12, "tyid": "304000", "oid": "103:1576575177051", "color": "#0056E7" }, "geometry": { "type": "Point", "coordinates": [ 80.947266, 36.385913 ] } }
{"year": "BC174",  "type": "Feature", "tippecanoe": { "layer": "2AFCA0AC4DD81583918191570", "minzoom": 2, "maxzoom": 8 }, "properties": { "halo": 1.8, "title": "小宛国", "fontsize": 12, "tyid": "304000", "oid": "103:1576575177384", "color": "#0056E7" }, "geometry": { "type": "Point", "coordinates": [ 85.078125, 37.090240 ] } }
{"year": "BC174",  "type": "Feature", "tippecanoe": { "layer": "2AFCA0AC4DD81583918191570", "minzoom": 2, "maxzoom": 8 }, "properties": { "halo": 1.8, "title": "罗昂", "fontsize": 12, "tyid": "304000", "oid": "103:1576575177065", "color": "#0056E7" }, "geometry": { "type": "Point", "coordinates": [ 89.208984, 29.152161 ] } }
{"year": "BC174",  "type": "Feature", "tippecanoe": { "layer": "2AFCA0AC4DD81583918191570", "minzoom": 2, "maxzoom": 8 }, "properties": { "halo": 1.8, "title": "藏", "fontsize": 12, "tyid": "304000", "oid": "103:1576575177506", "color": "#0056E7" }, "geometry": { "type": "Point", "coordinates": [ 89.736328, 28.844674 ] } }
{"year": "BC174",  "type": "Feature", "tippecanoe": { "layer": "2AFCA0AC4DD81583918191570", "minzoom": 2, "maxzoom": 8 }, "properties": { "halo": 1.8, "title": "卓木南木松", "fontsize": 12, "tyid": "304000", "oid": "103:1576575177056", "color": "#0056E7" }, "geometry": { "type": "Point", "coordinates": [ 88.945312, 27.839076 ] } }
{"year": "BC174",  "type": "Feature", "tippecanoe": { "layer": "2AFCA0AC4DD81583918191570", "minzoom": 2, "maxzoom": 8 }, "properties": { "halo": 1.8, "title": "牟湿迦王国", "fontsize": 12, "tyid": "304000", "oid": "103:1576575177510", "color": "#0056E7" }, "geometry": { "type": "Point", "coordinates": [ 75.234375, 12.811801 ] } }
{"year": "BC174",  "type": "Feature", "tippecanoe": { "layer": "2AFCA0AC4DD81583918191570", "minzoom": 2, "maxzoom": 8 }, "properties": { "halo": 1.8, "title": "阿伊王国", "fontsize": 12, "tyid": "304000", "oid": "103:1576575177486", "color": "#0056E7" }, "geometry": { "type": "Point", "coordinates": [ 77.080078, 8.667918 ] } }
{"year": "BC174",  "type": "Feature", "tippecanoe": { "layer": "2AFCA0AC4DD81583918191570", "minzoom": 2, "maxzoom": 8 }, "properties": { "halo": 1.6, "title": "滚兔岭文化", "fontsize": 12, "tyid": "304002", "oid": "103:1576575177295", "color": "#0056E7" }, "geometry": { "type": "Point", "coordinates": [ 130.957031, 46.498392 ] } }
{"year": "BC174",  "type": "Feature", "tippecanoe": { "layer": "2AFCA0AC4DD81583918191570", "minzoom": 2, "maxzoom": 8 }, "properties": { "halo": 1.8, "title": "吉", "fontsize": 12, "tyid": "304000", "oid": "103:1576575177093", "color": "#0056E7" }, "geometry": { "type": "Point", "coordinates": [ 91.406250, 29.764377 ] } }
{"year": "BC174",  "type": "Feature", "tippecanoe": { "layer": "2AFCA0AC4DD81583918191570", "minzoom": 2, "maxzoom": 8 }, "properties": { "halo": 1.8, "title": "琛", "fontsize": 12, "tyid": "304000", "oid": "103:1576575177250", "color": "#0056E7" }, "geometry": { "type": "Point", "coordinates": [ 91.230469, 29.382175 ] } }
{"year": "BC174",  "type": "Feature", "tippecanoe": { "layer": "2AFCA0AC4DD81583918191570", "minzoom": 2, "maxzoom": 8 }, "properties": { "halo": 1.8, "title": "悉补野", "fontsize": 12, "tyid": "304000", "oid": "103:1576575177052", "color": "#0056E7" }, "geometry": { "type": "Point", "coordinates": [ 91.845703, 29.152161 ] } }
{"year": "BC174",  "type": "Feature", "tippecanoe": { "layer": "2AFCA0AC4DD81583918191570", "minzoom": 2, "maxzoom": 8 }, "properties": { "halo": 1.8, "title": "俄玉邦噶", "fontsize": 12, "tyid": "304000", "oid": "103:1576575177117", "color": "#0056E7" }, "geometry": { "type": "Point", "coordinates": [ 92.548828, 29.152161 ] } }
{"year": "BC174",  "type": "Feature", "tippecanoe": { "layer": "2AFCA0AC4DD81583918191570", "minzoom": 2, "maxzoom": 8 }, "properties": { "halo": 1.8, "title": "娘", "fontsize": 12, "tyid": "304000", "oid": "103:1576575177518", "color": "#0056E7" }, "geometry": { "type": "Point", "coordinates": [ 93.339844, 29.916852 ] } }
{"year": "BC174",  "type": "Feature", "tippecanoe": { "layer": "2AFCA0AC4DD81583918191570", "minzoom": 2, "maxzoom": 8 }, "properties": { "halo": 1.8, "title": "贡", "fontsize": 12, "tyid": "304000", "oid": "103:1576575177260", "color": "#0056E7" }, "geometry": { "type": "Point", "coordinates": [ 94.482422, 29.688053 ] } }
{"year": "BC174",  "type": "Feature", "tippecanoe": { "layer": "2AFCA0AC4DD81583918191570", "minzoom": 2, "maxzoom": 8 }, "properties": { "halo": 1.8, "title": "达", "fontsize": 12, "tyid": "304000", "oid": "103:1576575177108", "color": "#0056E7" }, "geometry": { "type": "Point", "coordinates": [ 93.603516, 29.152161 ] } }
{"year": "BC174",  "type": "Feature", "tippecanoe": { "layer": "2AFCA0AC4DD81583918191570", "minzoom": 2, "maxzoom": 8 }, "properties": { "halo": 1.6, "title": "徙", "fontsize": 12, "tyid": "304001", "oid": "103:1576575177120", "color": "#0056E7" }, "geometry": { "type": "Point", "coordinates": [ 102.392578, 30.069094 ] } }
{"year": "BC174",  "type": "Feature", "tippecanoe": { "layer": "2AFCA0AC4DD81583918191570", "minzoom": 2, "maxzoom": 8 }, "properties": { "halo": 1.8, "title": "冉駹羌", "fontsize": 12, "tyid": "304000", "oid": "103:1576575177257", "color": "#0056E7" }, "geometry": { "type": "Point", "coordinates": [ 103.535156, 31.653381 ] } }
{"year": "BC174",  "type": "Feature", "tippecanoe": { "layer": "2AFCA0AC4DD81583918191570", "minzoom": 2, "maxzoom": 8 }, "properties": { "halo": 1.6, "title": "筰都", "fontsize": 12, "tyid": "304001", "oid": "103:1576575177241", "color": "#0056E7" }, "geometry": { "type": "Point", "coordinates": [ 102.744141, 29.075375 ] } }
{"year": "BC174",  "type": "Feature", "tippecanoe": { "layer": "2AFCA0AC4DD81583918191570", "minzoom": 2, "maxzoom": 8 }, "properties": { "halo": 1.6, "title": "靡莫", "fontsize": 12, "tyid": "304001", "oid": "103:1576575177463", "color": "#0056E7" }, "geometry": { "type": "Point", "coordinates": [ 103.886719, 25.799891 ] } }
{"year": "BC174",  "type": "Feature", "tippecanoe": { "layer": "2AFCA0AC4DD81583918191570", "minzoom": 2, "maxzoom": 8 }, "properties": { "halo": 1.6, "title": "劳浸", "fontsize": 12, "tyid": "304001", "oid": "103:1576575177280", "color": "#0056E7" }, "geometry": { "type": "Point", "coordinates": [ 103.710938, 24.926295 ] } }
{"year": "BC174",  "type": "Feature", "tippecanoe": { "layer": "2AFCA0AC4DD81583918191570", "minzoom": 2, "maxzoom": 8 }, "properties": { "halo": 1.6, "title": "且兰", "fontsize": 12, "tyid": "304001", "oid": "103:1576575177243", "color": "#0056E7" }, "geometry": { "type": "Point", "coordinates": [ 107.841797, 26.431228 ] } }
{"year": "BC174",  "type": "Feature", "tippecanoe": { "layer": "2AFCA0AC4DD81583918191570", "minzoom": 2, "maxzoom": 8 }, "properties": { "halo": 1.6, "title": "石坛文化", "fontsize": 12, "tyid": "304002", "oid": "103:1576575176947", "color": "#0056E7" }, "geometry": { "type": "Point", "coordinates": [ 103.359375, 19.559790 ] } }
{"year": "BC174",  "type": "Feature", "tippecanoe": { "layer": "2AFCA0AC4DD81583918191570", "minzoom": 2, "maxzoom": 8 }, "properties": { "halo": 1.6, "title": "营埔文化", "fontsize": 12, "tyid": "304002", "oid": "103:1576575177574", "color": "#0056E7" }, "geometry": { "type": "Point", "coordinates": [ 120.673828, 24.287027 ] } }
{"year": "BC174",  "type": "Feature", "tippecanoe": { "layer": "2AFCA0AC4DD81583918191570", "minzoom": 2, "maxzoom": 8 }, "properties": { "halo": 1.6, "title": "龟山文化", "fontsize": 12, "tyid": "304002", "oid": "103:1576575177573", "color": "#0056E7" }, "geometry": { "type": "Point", "coordinates": [ 120.585938, 22.674847 ] } }
{"year": "BC174",  "type": "Feature", "tippecanoe": { "layer": "2AFCA0AC4DD81583918191570", "minzoom": 2, "maxzoom": 8 }, "properties": { "halo": 1.6, "title": "十三行文化", "fontsize": 12, "tyid": "304002", "oid": "103:1576575177570", "color": "#0056E7" }, "geometry": { "type": "Point", "coordinates": [ 121.464844, 24.846565 ] } }
{"year": "BC174",  "type": "Feature", "tippecanoe": { "layer": "2AFCA0AC4DD81583918191570", "minzoom": 2, "maxzoom": 8 }, "properties": { "halo": 1.6, "title": "麒麟文化", "fontsize": 12, "tyid": "304002", "oid": "103:1576575177572", "color": "#0056E7" }, "geometry": { "type": "Point", "coordinates": [ 121.201172, 23.322080 ] } }
{"year": "BC174",  "type": "Feature", "tippecanoe": { "layer": "2AFCA0AC4DD81583918191570", "minzoom": 2, "maxzoom": 8 }, "properties": { "halo": 1.6, "title": "托雷斯海峡岛民", "fontsize": 12, "tyid": "304001", "oid": "103:1576575177413", "color": "#0056E7" }, "geometry": { "type": "Point", "coordinates": [ 142.382812, -11.264612 ] } }
{"year": "BC174",  "type": "Feature", "tippecanoe": { "layer": "2AFCA19BC4E01583918191555", "minzoom": 2, "maxzoom": 8 }, "properties": { "halo": 0.8, "title": "古白令海文化", "fontsize": 12, "tyid": "304002", "oid": "103:1576575177204", "color": "#262626" }, "geometry": { "type": "Point", "coordinates": [ -170.332031, 63.470145 ] } }
{"year": "BC174",  "type": "Feature", "tippecanoe": { "layer": "2AFCA19BC4E01583918191555", "minzoom": 2, "maxzoom": 8 }, "properties": { "halo": 0.8, "title": "查普卡洛文化", "fontsize": 12, "tyid": "304002", "oid": "103:1576575177339", "color": "#262626" }, "geometry": { "type": "Point", "coordinates": [ -99.931641, 20.303418 ] } }
{"year": "BC174",  "type": "Feature", "tippecanoe": { "layer": "2AFCA19BC4E01583918191555", "minzoom": 2, "maxzoom": 8 }, "properties": { "halo": 0.8, "title": "特奥蒂瓦坎", "fontsize": 12, "tyid": "304002", "oid": "103:1576575177139", "color": "#262626" }, "geometry": { "type": "Point", "coordinates": [ -99.404297, 19.808054 ] } }
{"year": "BC174",  "type": "Feature", "tippecanoe": { "layer": "2AFCA19BC4E01583918191555", "minzoom": 2, "maxzoom": 8 }, "properties": { "halo": 0.8, "title": "米斯特克人", "fontsize": 12, "tyid": "304001", "oid": "103:1576575177395", "color": "#262626" }, "geometry": { "type": "Point", "coordinates": [ -98.349609, 17.224758 ] } }
{"year": "BC174",  "type": "Feature", "tippecanoe": { "layer": "2AFCA19BC4E01583918191555", "minzoom": 2, "maxzoom": 8 }, "properties": { "halo": 0.8, "title": "特里克人", "fontsize": 12, "tyid": "304001", "oid": "103:1576575177091", "color": "#262626" }, "geometry": { "type": "Point", "coordinates": [ -97.294922, 17.644022 ] } }
{"year": "BC174",  "type": "Feature", "tippecanoe": { "layer": "2AFCA19BC4E01583918191555", "minzoom": 2, "maxzoom": 8 }, "properties": { "halo": 0.8, "title": "麦克斯人", "fontsize": 12, "tyid": "304001", "oid": "103:1576575177522", "color": "#262626" }, "geometry": { "type": "Point", "coordinates": [ -96.328125, 18.062312 ] } }
{"year": "BC174",  "type": "Feature", "tippecanoe": { "layer": "2AFCA19BC4E01583918191555", "minzoom": 2, "maxzoom": 8 }, "properties": { "halo": 0.8, "title": "后奥尔梅克文化", "fontsize": 12, "tyid": "304002", "oid": "103:1576575177202", "color": "#262626" }, "geometry": { "type": "Point", "coordinates": [ -95.625000, 18.479609 ] } }
{"year": "BC174",  "type": "Feature", "tippecanoe": { "layer": "2AFCA19BC4E01583918191555", "minzoom": 2, "maxzoom": 8 }, "properties": { "halo": 0.8, "title": "祖赫人", "fontsize": 12, "tyid": "304001", "oid": "103:1576575177196", "color": "#262626" }, "geometry": { "type": "Point", "coordinates": [ -92.109375, 16.045813 ] } }
{"year": "BC174",  "type": "Feature", "tippecanoe": { "layer": "2AFCA19BC4E01583918191555", "minzoom": 2, "maxzoom": 8 }, "properties": { "halo": 0.8, "title": "基切人", "fontsize": 12, "tyid": "304001", "oid": "103:1576575177082", "color": "#262626" }, "geometry": { "type": "Point", "coordinates": [ -90.966797, 15.029686 ] } }
{"year": "BC174",  "type": "Feature", "tippecanoe": { "layer": "2AFCA19BC4E01583918191555", "minzoom": 2, "maxzoom": 8 }, "properties": { "halo": 0.8, "title": "阿尔托山文化", "fontsize": 12, "tyid": "304002", "oid": "103:1576575177061", "color": "#262626" }, "geometry": { "type": "Point", "coordinates": [ -91.054688, 14.349548 ] } }
{"year": "BC174",  "type": "Feature", "tippecanoe": { "layer": "2AFCA19BC4E01583918191555", "minzoom": 2, "maxzoom": 8 }, "properties": { "halo": 0.8, "title": "玛纳索塔文化", "fontsize": 12, "tyid": "304002", "oid": "103:1576575177242", "color": "#262626" }, "geometry": { "type": "Point", "coordinates": [ -82.441406, 27.683528 ] } }
{"year": "BC174",  "type": "Feature", "tippecanoe": { "layer": "2AFCA19BC4E01583918191555", "minzoom": 2, "maxzoom": 8 }, "properties": { "halo": 0.8, "title": "卡卢萨人", "fontsize": 12, "tyid": "304001", "oid": "103:1576575177112", "color": "#262626" }, "geometry": { "type": "Point", "coordinates": [ -81.650391, 27.137368 ] } }
{"year": "BC174",  "type": "Feature", "tippecanoe": { "layer": "2AFCA19BC4E01583918191555", "minzoom": 2, "maxzoom": 8 }, "properties": { "halo": 0.8, "title": "圣约翰文化", "fontsize": 12, "tyid": "304002", "oid": "103:1576575177264", "color": "#262626" }, "geometry": { "type": "Point", "coordinates": [ -81.474609, 29.382175 ] } }
{"year": "BC174",  "type": "Feature", "tippecanoe": { "layer": "2AFCA19BC4E01583918191555", "minzoom": 2, "maxzoom": 8 }, "properties": { "halo": 0.8, "title": "贝尔格莱德文化", "fontsize": 12, "tyid": "304002", "oid": "103:1576575176958", "color": "#262626" }, "geometry": { "type": "Point", "coordinates": [ -80.859375, 27.449790 ] } }
{"year": "BC174",  "type": "Feature", "tippecanoe": { "layer": "2AFCA19BC4E01583918191555", "minzoom": 2, "maxzoom": 8 }, "properties": { "halo": 0.8, "title": "格莱兹文化", "fontsize": 12, "tyid": "304002", "oid": "103:1576575177222", "color": "#262626" }, "geometry": { "type": "Point", "coordinates": [ -80.771484, 26.037042 ] } }
{"year": "BC174",  "type": "Feature", "tippecanoe": { "layer": "2AFCA19BC4E01583918191555", "minzoom": 2, "maxzoom": 8 }, "properties": { "halo": 0.8, "title": "德贵斯塔族", "fontsize": 12, "tyid": "304001", "oid": "103:1576575177205", "color": "#262626" }, "geometry": { "type": "Point", "coordinates": [ -80.419922, 25.562265 ] } }
{"year": "BC174",  "type": "Feature", "tippecanoe": { "layer": "2AFCA19BC4E01583918191555", "minzoom": 2, "maxzoom": 8 }, "properties": { "halo": 0.8, "title": "雷卡人", "fontsize": 12, "tyid": "304001", "oid": "103:1576575177289", "color": "#262626" }, "geometry": { "type": "Point", "coordinates": [ -87.802734, 13.752725 ] } }
{"year": "BC174",  "type": "Feature", "tippecanoe": { "layer": "2AFCA19BC4E01583918191555", "minzoom": 2, "maxzoom": 8 }, "properties": { "halo": 0.8, "title": "格兰科克勒文化", "fontsize": 12, "tyid": "304002", "oid": "103:1576575177113", "color": "#262626" }, "geometry": { "type": "Point", "coordinates": [ -80.507812, 8.581021 ] } }
{"year": "BC174",  "type": "Feature", "tippecanoe": { "layer": "2AFCA19BC4E01583918191555", "minzoom": 2, "maxzoom": 8 }, "properties": { "halo": 0.8, "title": "泰罗纳", "fontsize": 12, "tyid": "304002", "oid": "103:1576575177178", "color": "#262626" }, "geometry": { "type": "Point", "coordinates": [ -73.564453, 10.833306 ] } }
{"year": "BC174",  "type": "Feature", "tippecanoe": { "layer": "2AFCA19BC4E01583918191555", "minzoom": 2, "maxzoom": 8 }, "properties": { "halo": 0.8, "title": "伊拉玛文化", "fontsize": 12, "tyid": "304002", "oid": "103:1576575177004", "color": "#262626" }, "geometry": { "type": "Point", "coordinates": [ -76.201172, 4.302591 ] } }
{"year": "BC174",  "type": "Feature", "tippecanoe": { "layer": "2AFCA19BC4E01583918191555", "minzoom": 2, "maxzoom": 8 }, "properties": { "halo": 0.8, "title": "卡利玛文化", "fontsize": 12, "tyid": "304002", "oid": "103:1576575177455", "color": "#262626" }, "geometry": { "type": "Point", "coordinates": [ -76.728516, 4.214943 ] } }
{"year": "BC174",  "type": "Feature", "tippecanoe": { "layer": "2AFCA19BC4E01583918191555", "minzoom": 2, "maxzoom": 8 }, "properties": { "halo": 0.8, "title": "马拉加纳文化", "fontsize": 12, "tyid": "304002", "oid": "103:1576575177216", "color": "#262626" }, "geometry": { "type": "Point", "coordinates": [ -76.289062, 3.425692 ] } }
{"year": "BC174",  "type": "Feature", "tippecanoe": { "layer": "2AFCA19BC4E01583918191555", "minzoom": 2, "maxzoom": 8 }, "properties": { "halo": 0.8, "title": "科罗索文化", "fontsize": 12, "tyid": "304002", "oid": "103:1576575177266", "color": "#262626" }, "geometry": { "type": "Point", "coordinates": [ -66.533203, 18.229351 ] } }
{"year": "BC174",  "type": "Feature", "tippecanoe": { "layer": "2AFCA19BC4E01583918191555", "minzoom": 2, "maxzoom": 8 }, "properties": { "halo": 0.8, "title": "大庄园文化", "fontsize": 12, "tyid": "304002", "oid": "103:1576575177132", "color": "#262626" }, "geometry": { "type": "Point", "coordinates": [ -65.917969, 18.396230 ] } }
{"year": "BC174",  "type": "Feature", "tippecanoe": { "layer": "2AFCA19BC4E01583918191555", "minzoom": 2, "maxzoom": 8 }, "properties": { "halo": 0.8, "title": "萨拉杜文化", "fontsize": 12, "tyid": "304002", "oid": "103:1576575177511", "color": "#262626" }, "geometry": { "type": "Point", "coordinates": [ -61.699219, 16.214675 ] } }
{"year": "BC174",  "type": "Feature", "tippecanoe": { "layer": "2AFCA19BC4E01583918191555", "minzoom": 2, "maxzoom": 8 }, "properties": { "halo": 0.8, "title": "坎塔布里人", "fontsize": 12, "tyid": "304001", "oid": "103:1576575177075", "color": "#262626" }, "geometry": { "type": "Point", "coordinates": [ -4.394531, 43.068888 ] } }
{"year": "BC174",  "type": "Feature", "tippecanoe": { "layer": "2AFCA19BC4E01583918191555", "minzoom": 2, "maxzoom": 8 }, "properties": { "halo": 0.8, "title": "特罗莫吉人", "fontsize": 12, "tyid": "304001", "oid": "103:1576575177274", "color": "#262626" }, "geometry": { "type": "Point", "coordinates": [ -3.691406, 42.228517 ] } }
{"year": "BC174",  "type": "Feature", "tippecanoe": { "layer": "2AFCA19BC4E01583918191555", "minzoom": 2, "maxzoom": 8 }, "properties": { "halo": 0.8, "title": "奥特里冈人", "fontsize": 12, "tyid": "304001", "oid": "103:1576575177560", "color": "#262626" }, "geometry": { "type": "Point", "coordinates": [ -3.251953, 42.875964 ] } }
{"year": "BC174",  "type": "Feature", "tippecanoe": { "layer": "2AFCA19BC4E01583918191555", "minzoom": 2, "maxzoom": 8 }, "properties": { "halo": 0.8, "title": "卡斯蒂利人", "fontsize": 12, "tyid": "304001", "oid": "103:1576575176989", "color": "#262626" }, "geometry": { "type": "Point", "coordinates": [ -2.812500, 43.068888 ] } }
{"year": "BC174",  "type": "Feature", "tippecanoe": { "layer": "2AFCA19BC4E01583918191555", "minzoom": 2, "maxzoom": 8 }, "properties": { "halo": 0.8, "title": "瓦杜里人", "fontsize": 12, "tyid": "304001", "oid": "103:1576575177102", "color": "#262626" }, "geometry": { "type": "Point", "coordinates": [ -2.285156, 42.940339 ] } }
{"year": "BC174",  "type": "Feature", "tippecanoe": { "layer": "2AFCA19BC4E01583918191555", "minzoom": 2, "maxzoom": 8 }, "properties": { "halo": 0.8, "title": "伯罗内人", "fontsize": 12, "tyid": "304001", "oid": "103:1576575177129", "color": "#262626" }, "geometry": { "type": "Point", "coordinates": [ -2.548828, 42.293564 ] } }
{"year": "BC174",  "type": "Feature", "tippecanoe": { "layer": "2AFCA19BC4E01583918191555", "minzoom": 2, "maxzoom": 8 }, "properties": { "halo": 0.8, "title": "巴斯克人", "fontsize": 12, "tyid": "304001", "oid": "103:1576575177515", "color": "#262626" }, "geometry": { "type": "Point", "coordinates": [ -1.494141, 42.811522 ] } }
{"year": "BC174",  "type": "Feature", "tippecanoe": { "layer": "2AFCA19BC4E01583918191555", "minzoom": 2, "maxzoom": 8 }, "properties": { "halo": 0.8, "title": "伊塞塔尼人", "fontsize": 12, "tyid": "304001", "oid": "103:1576575176963", "color": "#262626" }, "geometry": { "type": "Point", "coordinates": [ -1.054688, 42.293564 ] } }
{"year": "BC174",  "type": "Feature", "tippecanoe": { "layer": "2AFCA19BC4E01583918191555", "minzoom": 2, "maxzoom": 8 }, "properties": { "halo": 0.8, "title": "关切人", "fontsize": 12, "tyid": "304001", "oid": "103:1576575177046", "color": "#262626" }, "geometry": { "type": "Point", "coordinates": [ -16.611328, 28.304381 ] } }
{"year": "BC174",  "type": "Feature", "tippecanoe": { "layer": "2AFCA19BC4E01583918191555", "minzoom": 2, "maxzoom": 8 }, "properties": { "halo": 0.8, "title": "图尔杜利奥皮迪尼人", "fontsize": 12, "tyid": "304001", "oid": "103:1576575177487", "color": "#262626" }, "geometry": { "type": "Point", "coordinates": [ -8.789062, 39.909736 ] } }
{"year": "BC174",  "type": "Feature", "tippecanoe": { "layer": "2AFCA19BC4E01583918191555", "minzoom": 2, "maxzoom": 8 }, "properties": { "halo": 0.8, "title": "西尼特人", "fontsize": 12, "tyid": "304001", "oid": "103:1576575177373", "color": "#262626" }, "geometry": { "type": "Point", "coordinates": [ -7.998047, 37.649034 ] } }
{"year": "BC174",  "type": "Feature", "tippecanoe": { "layer": "2AFCA19BC4E01583918191555", "minzoom": 2, "maxzoom": 8 }, "properties": { "halo": 0.8, "title": "奥雷塔尼人", "fontsize": 12, "tyid": "304001", "oid": "103:1576575177345", "color": "#262626" }, "geometry": { "type": "Point", "coordinates": [ -3.339844, 38.754083 ] } }
{"year": "BC174",  "type": "Feature", "tippecanoe": { "layer": "2AFCA19BC4E01583918191555", "minzoom": 2, "maxzoom": 8 }, "properties": { "halo": 0.8, "title": "瓜纳加拉文化", "fontsize": 12, "tyid": "304002", "oid": "103:1576575177369", "color": "#262626" }, "geometry": { "type": "Point", "coordinates": [ -80.595703, -1.669686 ] } }
{"year": "BC174",  "type": "Feature", "tippecanoe": { "layer": "2AFCA19BC4E01583918191555", "minzoom": 2, "maxzoom": 8 }, "properties": { "halo": 0.8, "title": "巴伊亚文化", "fontsize": 12, "tyid": "304002", "oid": "103:1576575177509", "color": "#262626" }, "geometry": { "type": "Point", "coordinates": [ -80.068359, -0.527336 ] } }
{"year": "BC174",  "type": "Feature", "tippecanoe": { "layer": "2AFCA19BC4E01583918191555", "minzoom": 2, "maxzoom": 8 }, "properties": { "halo": 0.8, "title": "萨利纳尔文化", "fontsize": 12, "tyid": "304002", "oid": "103:1576575177001", "color": "#262626" }, "geometry": { "type": "Point", "coordinates": [ -78.925781, -7.885147 ] } }
{"year": "BC174",  "type": "Feature", "tippecanoe": { "layer": "2AFCA19BC4E01583918191555", "minzoom": 2, "maxzoom": 8 }, "properties": { "halo": 0.8, "title": "维鲁文化", "fontsize": 12, "tyid": "304002", "oid": "103:1576575177162", "color": "#262626" }, "geometry": { "type": "Point", "coordinates": [ -78.837891, -8.320212 ] } }
{"year": "BC174",  "type": "Feature", "tippecanoe": { "layer": "2AFCA19BC4E01583918191555", "minzoom": 2, "maxzoom": 8 }, "properties": { "halo": 0.8, "title": "瑞克文化", "fontsize": 12, "tyid": "304002", "oid": "103:1576575177558", "color": "#262626" }, "geometry": { "type": "Point", "coordinates": [ -77.607422, -9.622414 ] } }
{"year": "BC174",  "type": "Feature", "tippecanoe": { "layer": "2AFCA19BC4E01583918191555", "minzoom": 2, "maxzoom": 8 }, "properties": { "halo": 0.8, "title": "加伊纳索文化", "fontsize": 12, "tyid": "304002", "oid": "103:1576575177507", "color": "#262626" }, "geometry": { "type": "Point", "coordinates": [ -77.080078, -11.092166 ] } }
{"year": "BC174",  "type": "Feature", "tippecanoe": { "layer": "2AFCA19BC4E01583918191555", "minzoom": 2, "maxzoom": 8 }, "properties": { "halo": 0.8, "title": "托帕拉文化", "fontsize": 12, "tyid": "304002", "oid": "103:1576575177143", "color": "#262626" }, "geometry": { "type": "Point", "coordinates": [ -75.937500, -13.581921 ] } }
{"year": "BC174",  "type": "Feature", "tippecanoe": { "layer": "2AFCA19BC4E01583918191555", "minzoom": 2, "maxzoom": 8 }, "properties": { "halo": 0.8, "title": "华帕文化", "fontsize": 12, "tyid": "304002", "oid": "103:1576575176972", "color": "#262626" }, "geometry": { "type": "Point", "coordinates": [ -74.179688, -13.581921 ] } }
{"year": "BC174",  "type": "Feature", "tippecanoe": { "layer": "2AFCA19BC4E01583918191555", "minzoom": 2, "maxzoom": 8 }, "properties": { "halo": 0.8, "title": "帕拉卡斯文化", "fontsize": 12, "tyid": "304002", "oid": "103:1576575177225", "color": "#262626" }, "geometry": { "type": "Point", "coordinates": [ -75.585938, -14.434680 ] } }
{"year": "BC174",  "type": "Feature", "tippecanoe": { "layer": "2AFCA19BC4E01583918191555", "minzoom": 2, "maxzoom": 8 }, "properties": { "halo": 0.8, "title": "塔夫文化", "fontsize": 12, "tyid": "304002", "oid": "103:1576575177156", "color": "#262626" }, "geometry": { "type": "Point", "coordinates": [ -65.654297, -26.980829 ] } }
{"year": "BC174",  "type": "Feature", "tippecanoe": { "layer": "2AFCA19BC4E01583918191555", "minzoom": 2, "maxzoom": 8 }, "properties": { "halo": 0.8, "title": "豪什人", "fontsize": 12, "tyid": "304001", "oid": "103:1576575177546", "color": "#262626" }, "geometry": { "type": "Point", "coordinates": [ -65.917969, -54.724620 ] } }
{"year": "BC174",  "type": "Feature", "tippecanoe": { "layer": "2AFCA19BC4E01583918191555", "minzoom": 2, "maxzoom": 8 }, "properties": { "halo": 0.8, "title": "阿洛布罗基人", "fontsize": 12, "tyid": "304001", "oid": "103:1576575177321", "color": "#262626" }, "geometry": { "type": "Point", "coordinates": [ 5.537109, 45.706179 ] } }
{"year": "BC174",  "type": "Feature", "tippecanoe": { "layer": "2AFCA19BC4E01583918191555", "minzoom": 2, "maxzoom": 8 }, "properties": { "halo": 0.8, "title": "马萨利亚", "fontsize": 12, "tyid": "304000", "oid": "103:1576575177285", "color": "#202020" }, "geometry": { "type": "Point", "coordinates": [ 5.449219, 43.325178 ] } }
{"year": "BC174",  "type": "Feature", "tippecanoe": { "layer": "2AFCA19BC4E01583918191555", "minzoom": 2, "maxzoom": 8 }, "properties": { "halo": 0.8, "title": "帕莱波利斯", "fontsize": 12, "tyid": "304000", "oid": "103:1576575177569", "color": "#202020" }, "geometry": { "type": "Point", "coordinates": [ 3.076172, 42.163403 ] } }
{"year": "BC174",  "type": "Feature", "tippecanoe": { "layer": "2AFCA19BC4E01583918191555", "minzoom": 2, "maxzoom": 8 }, "properties": { "halo": 0.8, "title": "萨拉西人", "fontsize": 12, "tyid": "304001", "oid": "103:1576575177312", "color": "#262626" }, "geometry": { "type": "Point", "coordinates": [ 6.943359, 45.521744 ] } }
{"year": "BC174",  "type": "Feature", "tippecanoe": { "layer": "2AFCA19BC4E01583918191555", "minzoom": 2, "maxzoom": 8 }, "properties": { "halo": 0.8, "title": "西杜里人", "fontsize": 12, "tyid": "304001", "oid": "103:1576575177333", "color": "#262626" }, "geometry": { "type": "Point", "coordinates": [ 7.470703, 46.195042 ] } }
{"year": "BC174",  "type": "Feature", "tippecanoe": { "layer": "2AFCA19BC4E01583918191555", "minzoom": 2, "maxzoom": 8 }, "properties": { "halo": 0.8, "title": "勒庞提人", "fontsize": 12, "tyid": "304001", "oid": "103:1576575177151", "color": "#262626" }, "geometry": { "type": "Point", "coordinates": [ 8.437500, 46.134170 ] } }
{"year": "BC174",  "type": "Feature", "tippecanoe": { "layer": "2AFCA19BC4E01583918191555", "minzoom": 2, "maxzoom": 8 }, "properties": { "halo": 0.8, "title": "卡莫尼卡人", "fontsize": 12, "tyid": "304001", "oid": "103:1576575177024", "color": "#262626" }, "geometry": { "type": "Point", "coordinates": [ 10.195312, 46.012224 ] } }
{"year": "BC174",  "type": "Feature", "tippecanoe": { "layer": "2AFCA19BC4E01583918191555", "minzoom": 2, "maxzoom": 8 }, "properties": { "halo": 0.8, "title": "摩诺伊科", "fontsize": 12, "tyid": "304000", "oid": "103:1576575177032", "color": "#202020" }, "geometry": { "type": "Point", "coordinates": [ 7.382812, 43.771094 ] } }
{"year": "BC174",  "type": "Feature", "tippecanoe": { "layer": "2AFCA19BC4E01583918191555", "minzoom": 2, "maxzoom": 8 }, "properties": { "halo": 0.8, "title": "威尼蒂人[亚得里亚海]", "fontsize": 12, "tyid": "304001", "oid": "103:1576575177172", "color": "#262626" }, "geometry": { "type": "Point", "coordinates": [ 12.216797, 46.012224 ] } }
{"year": "BC174",  "type": "Feature", "tippecanoe": { "layer": "2AFCA19BC4E01583918191555", "minzoom": 2, "maxzoom": 8 }, "properties": { "halo": 0.8, "title": "奥德索斯", "fontsize": 12, "tyid": "304000", "oid": "103:1576575177105", "color": "#202020" }, "geometry": { "type": "Point", "coordinates": [ 27.861328, 43.261206 ] } }
{"year": "BC174",  "type": "Feature", "tippecanoe": { "layer": "2AFCA19BC4E01583918191555", "minzoom": 2, "maxzoom": 8 }, "properties": { "halo": 0.8, "title": "安恰罗斯", "fontsize": 12, "tyid": "304000", "oid": "103:1576575177035", "color": "#202020" }, "geometry": { "type": "Point", "coordinates": [ 27.509766, 42.617791 ] } }
{"year": "BC174",  "type": "Feature", "tippecanoe": { "layer": "2AFCA19BC4E01583918191555", "minzoom": 2, "maxzoom": 8 }, "properties": { "halo": 0.8, "title": "梅森布里亚", "fontsize": 12, "tyid": "304000", "oid": "103:1576575177213", "color": "#202020" }, "geometry": { "type": "Point", "coordinates": [ 27.597656, 42.682435 ] } }
{"year": "BC174",  "type": "Feature", "tippecanoe": { "layer": "2AFCA19BC4E01583918191555", "minzoom": 2, "maxzoom": 8 }, "properties": { "halo": 0.8, "title": "阿波罗尼亚·潘提卡", "fontsize": 12, "tyid": "304000", "oid": "103:1576575177284", "color": "#202020" }, "geometry": { "type": "Point", "coordinates": [ 27.597656, 42.423457 ] } }
{"year": "BC174",  "type": "Feature", "tippecanoe": { "layer": "2AFCA19BC4E01583918191555", "minzoom": 2, "maxzoom": 8 }, "properties": { "halo": 0.8, "title": "埃吉索斯", "fontsize": 12, "tyid": "304000", "oid": "103:1576575177237", "color": "#202020" }, "geometry": { "type": "Point", "coordinates": [ 29.091797, 45.151053 ] } }
{"year": "BC174",  "type": "Feature", "tippecanoe": { "layer": "2AFCA19BC4E01583918191555", "minzoom": 2, "maxzoom": 8 }, "properties": { "halo": 0.8, "title": "提拉斯", "fontsize": 12, "tyid": "304000", "oid": "103:1576575177214", "color": "#202020" }, "geometry": { "type": "Point", "coordinates": [ 30.234375, 46.134170 ] } }
{"year": "BC174",  "type": "Feature", "tippecanoe": { "layer": "2AFCA19BC4E01583918191555", "minzoom": 2, "maxzoom": 8 }, "properties": { "halo": 0.8, "title": "奥里维亚", "fontsize": 12, "tyid": "304002", "oid": "103:1576575177547", "color": "#262626" }, "geometry": { "type": "Point", "coordinates": [ 31.816406, 46.679594 ] } }
{"year": "BC174",  "type": "Feature", "tippecanoe": { "layer": "2AFCA19BC4E01583918191555", "minzoom": 2, "maxzoom": 8 }, "properties": { "halo": 0.8, "title": "克尔柯特", "fontsize": 12, "tyid": "304000", "oid": "103:1576575177427", "color": "#202020" }, "geometry": { "type": "Point", "coordinates": [ 33.398438, 45.274886 ] } }
{"year": "BC174",  "type": "Feature", "tippecanoe": { "layer": "2AFCA19BC4E01583918191555", "minzoom": 2, "maxzoom": 8 }, "properties": { "halo": 0.8, "title": "希斯特里亚", "fontsize": 12, "tyid": "304000", "oid": "103:1576575177297", "color": "#202020" }, "geometry": { "type": "Point", "coordinates": [ 28.740234, 44.527843 ] } }
{"year": "BC174",  "type": "Feature", "tippecanoe": { "layer": "2AFCA19BC4E01583918191555", "minzoom": 2, "maxzoom": 8 }, "properties": { "halo": 0.8, "title": "托米斯", "fontsize": 12, "tyid": "304000", "oid": "103:1576575177377", "color": "#202020" }, "geometry": { "type": "Point", "coordinates": [ 28.476562, 44.213710 ] } }
{"year": "BC174",  "type": "Feature", "tippecanoe": { "layer": "2AFCA19BC4E01583918191555", "minzoom": 2, "maxzoom": 8 }, "properties": { "halo": 0.8, "title": "卡拉提斯", "fontsize": 12, "tyid": "304000", "oid": "103:1576575176941", "color": "#202020" }, "geometry": { "type": "Point", "coordinates": [ 28.564453, 43.834527 ] } }
{"year": "BC174",  "type": "Feature", "tippecanoe": { "layer": "2AFCA19BC4E01583918191555", "minzoom": 2, "maxzoom": 8 }, "properties": { "halo": 0.8, "title": "迪奥尼索波利斯", "fontsize": 12, "tyid": "304000", "oid": "103:1576575177553", "color": "#202020" }, "geometry": { "type": "Point", "coordinates": [ 28.125000, 43.452919 ] } }
{"year": "BC174",  "type": "Feature", "tippecanoe": { "layer": "2AFCA19BC4E01583918191555", "minzoom": 2, "maxzoom": 8 }, "properties": { "halo": 0.8, "title": "拜佐恩", "fontsize": 12, "tyid": "304000", "oid": "103:1576575177036", "color": "#202020" }, "geometry": { "type": "Point", "coordinates": [ 28.300781, 43.452919 ] } }
{"year": "BC174",  "type": "Feature", "tippecanoe": { "layer": "2AFCA19BC4E01583918191555", "minzoom": 2, "maxzoom": 8 }, "properties": { "halo": 0.8, "title": "拜占庭", "fontsize": 12, "tyid": "304000", "oid": "103:1576575177104", "color": "#202020" }, "geometry": { "type": "Point", "coordinates": [ 28.740234, 41.178654 ] } }
{"year": "BC174",  "type": "Feature", "tippecanoe": { "layer": "2AFCA19BC4E01583918191555", "minzoom": 2, "maxzoom": 8 }, "properties": { "halo": 0.8, "title": "克森尼索", "fontsize": 12, "tyid": "304000", "oid": "103:1576575177239", "color": "#202020" }, "geometry": { "type": "Point", "coordinates": [ 33.750000, 44.590467 ] } }
{"year": "BC174",  "type": "Feature", "tippecanoe": { "layer": "2AFCA19BC4E01583918191555", "minzoom": 2, "maxzoom": 8 }, "properties": { "halo": 0.8, "title": "杜林人", "fontsize": 12, "tyid": "304001", "oid": "103:1576575177435", "color": "#262626" }, "geometry": { "type": "Point", "coordinates": [ 34.541016, 44.964798 ] } }
{"year": "BC174",  "type": "Feature", "tippecanoe": { "layer": "2AFCA19BC4E01583918191555", "minzoom": 2, "maxzoom": 8 }, "properties": { "halo": 0.8, "title": "博斯普鲁斯王国", "fontsize": 12, "tyid": "304000", "oid": "103:1576575177040", "color": "#202020" }, "geometry": { "type": "Point", "coordinates": [ 37.441406, 45.026950 ] } }
{"year": "BC174",  "type": "Feature", "tippecanoe": { "layer": "2AFCA19BC4E01583918191555", "minzoom": 2, "maxzoom": 8 }, "properties": { "halo": 0.8, "title": "辛迪人", "fontsize": 12, "tyid": "304001", "oid": "103:1576575177531", "color": "#262626" }, "geometry": { "type": "Point", "coordinates": [ 38.759766, 44.715514 ] } }
{"year": "BC174",  "type": "Feature", "tippecanoe": { "layer": "2AFCA19BC4E01583918191555", "minzoom": 2, "maxzoom": 8 }, "properties": { "halo": 0.8, "title": "庞蒂克希腊人", "fontsize": 12, "tyid": "304001", "oid": "103:1576575177430", "color": "#262626" }, "geometry": { "type": "Point", "coordinates": [ 39.287109, 41.046217 ] } }
{"year": "BC174",  "type": "Feature", "tippecanoe": { "layer": "2AFCA19BC4E01583918191555", "minzoom": 2, "maxzoom": 8 }, "properties": { "halo": 0.8, "title": "特里格莱特", "fontsize": 12, "tyid": "304000", "oid": "103:1576575176936", "color": "#202020" },