{ "type": "Feature", "tippecanoe": { "layer": "7F5D7CF7EEF01585559477309", "minzoom": 2, "maxzoom": 8 }, "properties": { "opacity": 1, "oid": "103:1582721307215", "tyid": "410000", "width": 3, "centroid": "{\"type\":\"Point\",\"coordinates\":[102.890655519,50.32448578]}", "color": "#A11300" }, "geometry": { "type": "MultiLineString", "coordinates": [ [ [ 108.017578, 21.616579 ], [ 106.611328, 22.024546 ], [ 106.523438, 22.512557 ], [ 106.699219, 22.836946 ], [ 105.820312, 22.998852 ], [ 105.205078, 23.402765 ], [ 103.886719, 22.512557 ], [ 103.535156, 22.836946 ], [ 103.183594, 22.105999 ], [ 102.480469, 22.512557 ], [ 101.777344, 21.861499 ], [ 101.689453, 21.207459 ], [ 101.162109, 21.207459 ], [ 100.986328, 21.779905 ], [ 100.195312, 21.534847 ], [ 99.843750, 22.105999 ], [ 99.140625, 22.187405 ], [ 99.228516, 22.917923 ], [ 98.437500, 23.079732 ], [ 98.701172, 23.402765 ], [ 98.349609, 23.966176 ], [ 98.525391, 24.206890 ], [ 97.294922, 23.805450 ], [ 97.470703, 25.324167 ], [ 98.261719, 26.431228 ], [ 98.701172, 26.667096 ], [ 98.613281, 27.605671 ], [ 98.261719, 27.605671 ], [ 98.085938, 28.226970 ], [ 97.558594, 28.536275 ], [ 97.031250, 27.761330 ], [ 96.240234, 28.304381 ], [ 95.625000, 28.304381 ], [ 94.218750, 27.605671 ], [ 93.691406, 27.059126 ], [ 92.988281, 26.902477 ], [ 92.021484, 26.902477 ], [ 92.109375, 27.371767 ], [ 91.494141, 27.605671 ], [ 91.494141, 27.916767 ], [ 90.791016, 28.071980 ] ], [ [ 130.605469, 42.293564 ], [ 130.166016, 42.940339 ], [ 129.814453, 43.004647 ], [ 129.638672, 42.488302 ], [ 129.287109, 42.423457 ], [ 128.847656, 42.032974 ], [ 127.968750, 42.032974 ], [ 128.232422, 41.574361 ], [ 128.056641, 41.442726 ], [ 127.177734, 41.508577 ], [ 126.826172, 41.836828 ], [ 125.947266, 40.913513 ], [ 124.804688, 40.513799 ], [ 124.277344, 40.044438 ] ], [ [ 135.263672, 54.775346 ], [ 132.978516, 54.162434 ], [ 130.517578, 54.110943 ], [ 131.835938, 54.927142 ], [ 131.044922, 55.677584 ], [ 129.462891, 55.776573 ], [ 128.759766, 55.528631 ], [ 127.705078, 55.727110 ], [ 126.123047, 55.627996 ], [ 125.859375, 55.825973 ], [ 124.804688, 55.924586 ], [ 123.134766, 54.775346 ], [ 121.376953, 54.265224 ], [ 121.025391, 54.521081 ], [ 120.234375, 54.162434 ], [ 119.267578, 54.007769 ], [ 119.003906, 53.383328 ], [ 119.179688, 53.120405 ], [ 120.058594, 53.488046 ], [ 121.201172, 53.540307 ], [ 121.376953, 53.383328 ], [ 120.761719, 53.278353 ], [ 119.970703, 52.802761 ], [ 120.058594, 52.589701 ], [ 120.673828, 52.536273 ], [ 120.673828, 51.998410 ], [ 120.058594, 51.672555 ], [ 119.091797, 50.401515 ], [ 119.355469, 50.401515 ], [ 119.267578, 50.120578 ], [ 118.037109, 49.610710 ], [ 116.191406, 50.064192 ], [ 115.312500, 49.951220 ], [ 114.960938, 50.233152 ], [ 114.257812, 50.289339 ], [ 112.675781, 49.496675 ], [ 110.654297, 49.152970 ], [ 108.457031, 49.382373 ], [ 107.929688, 49.724479 ], [ 107.929688, 49.951220 ], [ 107.050781, 50.064192 ], [ 106.523438, 50.345460 ], [ 105.292969, 50.513427 ], [ 103.974609, 50.176898 ], [ 103.271484, 50.233152 ], [ 102.216797, 50.625073 ], [ 102.041016, 51.399206 ], [ 98.964844, 52.106505 ], [ 98.613281, 52.482780 ], [ 98.876953, 52.908902 ], [ 99.140625, 52.961875 ], [ 98.789062, 53.173119 ], [ 98.173828, 53.120405 ], [ 96.767578, 53.800651 ], [ 96.416016, 53.592505 ], [ 94.658203, 53.435719 ], [ 94.394531, 52.961875 ], [ 94.130859, 52.908902 ], [ 93.515625, 52.214339 ], [ 92.812500, 51.890054 ], [ 91.054688, 51.890054 ], [ 90.175781, 52.696361 ], [ 87.802734, 53.383328 ], [ 86.396484, 53.173119 ], [ 86.132812, 52.908902 ], [ 83.056641, 51.618017 ], [ 82.617188, 51.179343 ], [ 83.056641, 50.958427 ], [ 83.232422, 50.513427 ], [ 82.529297, 49.724479 ], [ 82.529297, 49.325122 ], [ 81.298828, 48.690960 ], [ 81.035156, 48.166085 ], [ 79.628906, 47.694974 ], [ 79.453125, 46.800059 ], [ 78.750000, 46.800059 ], [ 78.750000, 46.619261 ], [ 78.574219, 46.800059 ], [ 78.222656, 46.498392 ], [ 77.783203, 46.679594 ], [ 74.531250, 46.800059 ], [ 73.564453, 46.134170 ], [ 73.388672, 45.706179 ], [ 72.070312, 44.964798 ], [ 70.488281, 44.402392 ], [ 69.521484, 43.452919 ], [ 70.927734, 42.293564 ], [ 73.212891, 42.163403 ], [ 73.916016, 41.836828 ], [ 74.003906, 41.574361 ], [ 73.300781, 41.508577 ], [ 73.828125, 41.046217 ], [ 73.212891, 40.847060 ], [ 72.949219, 40.446947 ], [ 73.125000, 40.044438 ], [ 72.773438, 39.842286 ], [ 72.861328, 39.368279 ], [ 72.421875, 39.436193 ], [ 72.070312, 39.095963 ], [ 72.246094, 38.548165 ], [ 71.894531, 38.272689 ], [ 72.158203, 37.649034 ], [ 71.718750, 36.738884 ], [ 73.476562, 37.509726 ], [ 73.740234, 37.439974 ], [ 73.740234, 37.160317 ], [ 74.531250, 37.090240 ], [ 75.673828, 36.385913 ], [ 75.761719, 36.031332 ], [ 74.882812, 35.817813 ], [ 75.322266, 35.173808 ], [ 75.146484, 34.669359 ], [ 76.113281, 33.578015 ], [ 77.080078, 32.990236 ], [ 77.080078, 32.472695 ], [ 77.871094, 31.802893 ], [ 78.662109, 31.728167 ], [ 79.013672, 31.052934 ], [ 79.892578, 30.826781 ], [ 80.683594, 30.145127 ], [ 82.001953, 30.145127 ], [ 83.583984, 29.228890 ], [ 83.935547, 29.305561 ], [ 84.462891, 28.536275 ], [ 85.605469, 28.226970 ], [ 85.869141, 27.916767 ], [ 87.714844, 27.839076 ], [ 88.681641, 28.071980 ], [ 88.945312, 27.215556 ], [ 89.560547, 28.226970 ], [ 90.791016, 28.071980 ] ] ] } }
{ "type": "Feature", "tippecanoe": { "layer": "7F5D7CF7EEF01585559477309", "minzoom": 2, "maxzoom": 8 }, "properties": { "opacity": 1, "oid": "103:1582721307213", "tyid": "410000", "width": 3, "centroid": "{\"type\":\"Point\",\"coordinates\":[118.9965612163,11.9748626986]}", "color": "#A11300" }, "geometry": { "type": "MultiLineString", "coordinates": [ [ [ 122.695312, 24.447150 ], [ 122.431641, 23.402765 ] ], [ [ 120.849609, 20.550509 ], [ 121.728516, 21.616579 ] ], [ [ 119.355469, 17.727759 ], [ 119.794922, 18.895893 ] ], [ [ 118.916016, 14.689881 ], [ 118.916016, 16.045813 ] ], [ [ 118.476562, 10.833306 ], [ 119.003906, 12.039321 ] ], [ [ 115.312500, 7.013668 ], [ 116.191406, 8.059230 ] ], [ [ 111.708984, 3.425692 ], [ 112.939453, 3.864255 ] ], [ [ 108.281250, 5.965754 ], [ 108.193359, 7.362467 ] ], [ [ 110.039062, 11.264612 ], [ 110.214844, 12.468760 ] ], [ [ 109.775391, 15.029686 ], [ 109.248047, 16.214675 ] ] ] } }
{ "type": "Feature", "tippecanoe": { "layer": "7F5D7CF954701585559477341", "minzoom": 2, "maxzoom": 8 }, "properties": { "title": "拉霍亚文化", "color": "#0056E7", "oid": "103:1585278519499", "tyid": "304002", "fontsize": 12, "halo": 1.6 }, "geometry": { "type": "Point", "coordinates": [ -118.916016, 34.597042 ] } }
{ "type": "Feature", "tippecanoe": { "layer": "7F5D7CF954701585559477341", "minzoom": 2, "maxzoom": 8 }, "properties": { "title": "古普韦布洛人", "color": "#0056E7", "oid": "103:1585278519353", "tyid": "304001", "fontsize": 12, "halo": 1.6 }, "geometry": { "type": "Point", "coordinates": [ -110.126953, 36.949892 ] } }
{ "type": "Feature", "tippecanoe": { "layer": "7F5D7CF954701585559477341", "minzoom": 2, "maxzoom": 8 }, "properties": { "title": "科奇斯文化", "color": "#0056E7", "oid": "103:1585278519606", "tyid": "304002", "fontsize": 12, "halo": 1.6 }, "geometry": { "type": "Point", "coordinates": [ -110.039062, 32.249974 ] } }
{ "type": "Feature", "tippecanoe": { "layer": "7F5D7CF954701585559477341", "minzoom": 2, "maxzoom": 8 }, "properties": { "title": "奇瓦瓦文化", "color": "#0056E7", "oid": "103:1585278519408", "tyid": "304002", "fontsize": 12, "halo": 1.6 }, "geometry": { "type": "Point", "coordinates": [ -107.226562, 32.768800 ] } }
{ "type": "Feature", "tippecanoe": { "layer": "7F5D7CF954701585559477341", "minzoom": 2, "maxzoom": 8 }, "properties": { "title": "奥沙拉文化", "color": "#0056E7", "oid": "103:1585278519214", "tyid": "304002", "fontsize": 12, "halo": 1.6 }, "geometry": { "type": "Point", "coordinates": [ -106.699219, 37.579413 ] } }
{ "type": "Feature", "tippecanoe": { "layer": "7F5D7CF954701585559477341", "minzoom": 2, "maxzoom": 8 }, "properties": { "title": "瓜伊库拉人", "color": "#0056E7", "oid": "103:1585278519202", "tyid": "304001", "fontsize": 12, "halo": 1.6 }, "geometry": { "type": "Point", "coordinates": [ -111.269531, 24.846565 ] } }
{ "type": "Feature", "tippecanoe": { "layer": "7F5D7CF954701585559477341", "minzoom": 2, "maxzoom": 8 }, "properties": { "title": "福切马里尼文化", "color": "#0056E7", "oid": "103:1585278519481", "tyid": "304002", "fontsize": 12, "halo": 1.6 }, "geometry": { "type": "Point", "coordinates": [ -94.306641, 33.358062 ] } }
{ "type": "Feature", "tippecanoe": { "layer": "7F5D7CF954701585559477341", "minzoom": 2, "maxzoom": 8 }, "properties": { "title": "楚拉时期", "color": "#0056E7", "oid": "103:1585278519547", "tyid": "304002", "fontsize": 12, "halo": 1.6 }, "geometry": { "type": "Point", "coordinates": [ -92.021484, 32.472695 ] } }
{ "type": "Feature", "tippecanoe": { "layer": "7F5D7CF954701585559477341", "minzoom": 2, "maxzoom": 8 }, "properties": { "title": "华斯塔克文明", "color": "#0056E7", "oid": "103:1585278519406", "tyid": "304002", "fontsize": 12, "halo": 1.6 }, "geometry": { "type": "Point", "coordinates": [ -98.613281, 22.105999 ] } }
{ "type": "Feature", "tippecanoe": { "layer": "7F5D7CF954701585559477341", "minzoom": 2, "maxzoom": 8 }, "properties": { "title": "奇蒂玛察人", "color": "#0056E7", "oid": "103:1585278519229", "tyid": "304001", "fontsize": 12, "halo": 1.6 }, "geometry": { "type": "Point", "coordinates": [ -91.054688, 30.372875 ] } }
{ "type": "Feature", "tippecanoe": { "layer": "7F5D7CF954701585559477341", "minzoom": 2, "maxzoom": 8 }, "properties": { "title": "特切特兰文化", "color": "#0056E7", "oid": "103:1585278519241", "tyid": "304002", "fontsize": 12, "halo": 1.6 }, "geometry": { "type": "Point", "coordinates": [ -104.326172, 20.468189 ] } }
{ "type": "Feature", "tippecanoe": { "layer": "7F5D7CF954701585559477341", "minzoom": 2, "maxzoom": 8 }, "properties": { "title": "埃尔欧朋文化", "color": "#0056E7", "oid": "103:1585278519559", "tyid": "304002", "fontsize": 12, "halo": 1.6 }, "geometry": { "type": "Point", "coordinates": [ -101.865234, 19.642588 ] } }
{ "type": "Feature", "tippecanoe": { "layer": "7F5D7CF954701585559477341", "minzoom": 2, "maxzoom": 8 }, "properties": { "title": "梅斯卡拉文化", "color": "#0056E7", "oid": "103:1585278519649", "tyid": "304002", "fontsize": 12, "halo": 1.6 }, "geometry": { "type": "Point", "coordinates": [ -100.810547, 17.895114 ] } }
{ "type": "Feature", "tippecanoe": { "layer": "7F5D7CF954701585559477341", "minzoom": 2, "maxzoom": 8 }, "properties": { "title": "萨波特克文明", "color": "#0056E7", "oid": "103:1585278519173", "tyid": "304002", "fontsize": 12, "halo": 1.6 }, "geometry": { "type": "Point", "coordinates": [ -96.064453, 16.636192 ] } }
{ "type": "Feature", "tippecanoe": { "layer": "7F5D7CF954701585559477341", "minzoom": 2, "maxzoom": 8 }, "properties": { "title": "德普特福德文化", "color": "#0056E7", "oid": "103:1585278519450", "tyid": "304002", "fontsize": 12, "halo": 1.6 }, "geometry": { "type": "Point", "coordinates": [ -79.628906, 33.358062 ] } }
{ "type": "Feature", "tippecanoe": { "layer": "7F5D7CF954701585559477341", "minzoom": 2, "maxzoom": 8 }, "properties": { "title": "切格文特文化", "color": "#0056E7", "oid": "103:1585278519355", "tyid": "304002", "fontsize": 12, "halo": 1.6 }, "geometry": { "type": "Point", "coordinates": [ -89.208984, 30.600094 ] } }
{ "type": "Feature", "tippecanoe": { "layer": "7F5D7CF954701585559477341", "minzoom": 2, "maxzoom": 8 }, "properties": { "title": "玛雅文明[前古典时期]", "color": "#0056E7", "oid": "103:1585278519153", "tyid": "304002", "fontsize": 12, "halo": 1.6 }, "geometry": { "type": "Point", "coordinates": [ -89.296875, 17.140790 ] } }
{ "type": "Feature", "tippecanoe": { "layer": "7F5D7CF954701585559477341", "minzoom": 2, "maxzoom": 8 }, "properties": { "title": "拉托利塔文化", "color": "#0056E7", "oid": "103:1585278519362", "tyid": "304002", "fontsize": 12, "halo": 1.6 }, "geometry": { "type": "Point", "coordinates": [ -78.046875, 1.757537 ] } }
{ "type": "Feature", "tippecanoe": { "layer": "7F5D7CF954701585559477341", "minzoom": 2, "maxzoom": 8 }, "properties": { "title": "埃雷拉时期", "color": "#0056E7", "oid": "103:1585278519446", "tyid": "304002", "fontsize": 12, "halo": 1.6 }, "geometry": { "type": "Point", "coordinates": [ -73.476562, 5.441022 ] } }
{ "type": "Feature", "tippecanoe": { "layer": "7F5D7CF954701585559477341", "minzoom": 2, "maxzoom": 8 }, "properties": { "title": "伊奈里人", "color": "#0056E7", "oid": "103:1585278519650", "tyid": "304001", "fontsize": 12, "halo": 1.6 }, "geometry": { "type": "Point", "coordinates": [ -61.787109, 8.754795 ] } }
{ "type": "Feature", "tippecanoe": { "layer": "7F5D7CF954701585559477341", "minzoom": 2, "maxzoom": 8 }, "properties": { "title": "皮克特人", "color": "#0056E7", "oid": "103:1585278519334", "tyid": "304001", "fontsize": 12, "halo": 1.6 }, "geometry": { "type": "Point", "coordinates": [ -4.042969, 56.704506 ] } }
{ "type": "Feature", "tippecanoe": { "layer": "7F5D7CF954701585559477341", "minzoom": 2, "maxzoom": 8 }, "properties": { "title": "盖尔人", "color": "#0056E7", "oid": "103:1585278519432", "tyid": "304001", "fontsize": 12, "halo": 1.6 }, "geometry": { "type": "Point", "coordinates": [ -7.910156, 53.435719 ] } }
{ "type": "Feature", "tippecanoe": { "layer": "7F5D7CF954701585559477341", "minzoom": 2, "maxzoom": 8 }, "properties": { "title": "加利西亚人", "color": "#0056E7", "oid": "103:1585278519396", "tyid": "304001", "fontsize": 12, "halo": 1.6 }, "geometry": { "type": "Point", "coordinates": [ -7.998047, 42.488302 ] } }
{ "type": "Feature", "tippecanoe": { "layer": "7F5D7CF954701585559477341", "minzoom": 2, "maxzoom": 8 }, "properties": { "title": "阿斯图尔人", "color": "#0056E7", "oid": "103:1585278519167", "tyid": "304001", "fontsize": 12, "halo": 1.6 }, "geometry": { "type": "Point", "coordinates": [ -6.152344, 42.553080 ] } }
{ "type": "Feature", "tippecanoe": { "layer": "7F5D7CF954701585559477341", "minzoom": 2, "maxzoom": 8 }, "properties": { "title": "瓦凯伊人", "color": "#0056E7", "oid": "103:1585278519636", "tyid": "304001", "fontsize": 12, "halo": 1.6 }, "geometry": { "type": "Point", "coordinates": [ -4.658203, 41.640078 ] } }
{ "type": "Feature", "tippecanoe": { "layer": "7F5D7CF954701585559477341", "minzoom": 2, "maxzoom": 8 }, "properties": { "title": "阿奎丹人", "color": "#0056E7", "oid": "103:1585278519151", "tyid": "304001", "fontsize": 12, "halo": 1.6 }, "geometry": { "type": "Point", "coordinates": [ -0.175781, 43.834527 ] } }
{ "type": "Feature", "tippecanoe": { "layer": "7F5D7CF954701585559477341", "minzoom": 2, "maxzoom": 8 }, "properties": { "title": "卢西塔利亚人", "color": "#0056E7", "oid": "103:1585278519162", "tyid": "304001", "fontsize": 12, "halo": 1.6 }, "geometry": { "type": "Point", "coordinates": [ -7.646484, 40.313043 ] } }
{ "type": "Feature", "tippecanoe": { "layer": "7F5D7CF954701585559477341", "minzoom": 2, "maxzoom": 8 }, "properties": { "title": "凯蒂奇人", "color": "#0056E7", "oid": "103:1585278519170", "tyid": "304001", "fontsize": 12, "halo": 1.6 }, "geometry": { "type": "Point", "coordinates": [ -7.646484, 38.959409 ] } }
{ "type": "Feature", "tippecanoe": { "layer": "7F5D7CF954701585559477341", "minzoom": 2, "maxzoom": 8 }, "properties": { "title": "维托内人", "color": "#0056E7", "oid": "103:1585278519619", "tyid": "304001", "fontsize": 12, "halo": 1.6 }, "geometry": { "type": "Point", "coordinates": [ -5.800781, 40.313043 ] } }
{ "type": "Feature", "tippecanoe": { "layer": "7F5D7CF954701585559477341", "minzoom": 2, "maxzoom": 8 }, "properties": { "title": "图尔杜利人", "color": "#0056E7", "oid": "103:1585278519168", "tyid": "304001", "fontsize": 12, "halo": 1.6 }, "geometry": { "type": "Point", "coordinates": [ -5.976562, 38.616870 ] } }
{ "type": "Feature", "tippecanoe": { "layer": "7F5D7CF954701585559477341", "minzoom": 2, "maxzoom": 8 }, "properties": { "title": "卡佩塔尼人", "color": "#0056E7", "oid": "103:1585278519223", "tyid": "304001", "fontsize": 12, "halo": 1.6 }, "geometry": { "type": "Point", "coordinates": [ -3.955078, 39.977120 ] } }
{ "type": "Feature", "tippecanoe": { "layer": "7F5D7CF954701585559477341", "minzoom": 2, "maxzoom": 8 }, "properties": { "title": "凯尔特伊比利亚人", "color": "#0056E7", "oid": "103:1585278519249", "tyid": "304001", "fontsize": 12, "halo": 1.6 }, "geometry": { "type": "Point", "coordinates": [ -2.285156, 40.780541 ] } }
{ "type": "Feature", "tippecanoe": { "layer": "7F5D7CF954701585559477341", "minzoom": 2, "maxzoom": 8 }, "properties": { "title": "毛里塔尼亚王国", "color": "#0056E7", "oid": "103:1585278519548", "tyid": "304000", "fontsize": 12, "halo": 1.8 }, "geometry": { "type": "Point", "coordinates": [ -5.009766, 34.524661 ] } }
{ "type": "Feature", "tippecanoe": { "layer": "7F5D7CF954701585559477341", "minzoom": 2, "maxzoom": 8 }, "properties": { "title": "杰内-杰诺文化一期", "color": "#0056E7", "oid": "103:1585278519630", "tyid": "304002", "fontsize": 12, "halo": 1.6 }, "geometry": { "type": "Point", "coordinates": [ -4.482422, 13.667338 ] } }
{ "type": "Feature", "tippecanoe": { "layer": "7F5D7CF954701585559477341", "minzoom": 2, "maxzoom": 8 }, "properties": { "title": "楚真文化", "color": "#0056E7", "oid": "103:1585278519413", "tyid": "304002", "fontsize": 12, "halo": 1.6 }, "geometry": { "type": "Point", "coordinates": [ -70.576172, -16.299051 ] } }
{ "type": "Feature", "tippecanoe": { "layer": "7F5D7CF954701585559477341", "minzoom": 2, "maxzoom": 8 }, "properties": { "title": "普卡拉文化", "color": "#0056E7", "oid": "103:1585278519662", "tyid": "304002", "fontsize": 12, "halo": 1.6 }, "geometry": { "type": "Point", "coordinates": [ -69.873047, -14.604847 ] } }
{ "type": "Feature", "tippecanoe": { "layer": "7F5D7CF954701585559477341", "minzoom": 2, "maxzoom": 8 }, "properties": { "title": "艾马拉人", "color": "#0056E7", "oid": "103:1585278519451", "tyid": "304001", "fontsize": 12, "halo": 1.6 }, "geometry": { "type": "Point", "coordinates": [ -68.291016, -17.224758 ] } }
{ "type": "Feature", "tippecanoe": { "layer": "7F5D7CF954701585559477341", "minzoom": 2, "maxzoom": 8 }, "properties": { "title": "昌戈人", "color": "#0056E7", "oid": "103:1585278519239", "tyid": "304001", "fontsize": 12, "halo": 1.6 }, "geometry": { "type": "Point", "coordinates": [ -69.960938, -23.725012 ] } }
{ "type": "Feature", "tippecanoe": { "layer": "7F5D7CF954701585559477341", "minzoom": 2, "maxzoom": 8 }, "properties": { "title": "阿拉米托文化", "color": "#0056E7", "oid": "103:1585278519646", "tyid": "304002", "fontsize": 12, "halo": 1.6 }, "geometry": { "type": "Point", "coordinates": [ -67.851562, -26.588527 ] } }
{ "type": "Feature", "tippecanoe": { "layer": "7F5D7CF954701585559477341", "minzoom": 2, "maxzoom": 8 }, "properties": { "title": "埃尔莫尔文化", "color": "#0056E7", "oid": "103:1585278519544", "tyid": "304002", "fontsize": 12, "halo": 1.6 }, "geometry": { "type": "Point", "coordinates": [ -70.927734, -30.675715 ] } }
{ "type": "Feature", "tippecanoe": { "layer": "7F5D7CF954701585559477341", "minzoom": 2, "maxzoom": 8 }, "properties": { "title": "安西尔塔文化", "color": "#0056E7", "oid": "103:1585278519236", "tyid": "304002", "fontsize": 12, "halo": 1.6 }, "geometry": { "type": "Point", "coordinates": [ -68.818359, -31.353637 ] } }
{ "type": "Feature", "tippecanoe": { "layer": "7F5D7CF954701585559477341", "minzoom": 2, "maxzoom": 8 }, "properties": { "title": "巴托文化", "color": "#0056E7", "oid": "103:1585278519296", "tyid": "304002", "fontsize": 12, "halo": 1.6 }, "geometry": { "type": "Point", "coordinates": [ -70.839844, -33.431441 ] } }
{ "type": "Feature", "tippecanoe": { "layer": "7F5D7CF954701585559477341", "minzoom": 2, "maxzoom": 8 }, "properties": { "title": "马普切人", "color": "#0056E7", "oid": "103:1585278519157", "tyid": "304001", "fontsize": 12, "halo": 1.6 }, "geometry": { "type": "Point", "coordinates": [ -71.455078, -38.959409 ] } }
{ "type": "Feature", "tippecanoe": { "layer": "7F5D7CF954701585559477341", "minzoom": 2, "maxzoom": 8 }, "properties": { "title": "希德拉里卡文化", "color": "#0056E7", "oid": "103:1585278519609", "tyid": "304002", "fontsize": 12, "halo": 1.6 }, "geometry": { "type": "Point", "coordinates": [ -66.005859, -12.297068 ] } }
{ "type": "Feature", "tippecanoe": { "layer": "7F5D7CF954701585559477341", "minzoom": 2, "maxzoom": 8 }, "properties": { "title": "摩克索人", "color": "#0056E7", "oid": "103:1585278519624", "tyid": "304001", "fontsize": 12, "halo": 1.6 }, "geometry": { "type": "Point", "coordinates": [ -65.830078, -13.923404 ] } }
{ "type": "Feature", "tippecanoe": { "layer": "7F5D7CF954701585559477341", "minzoom": 2, "maxzoom": 8 }, "properties": { "title": "瓦卡拉尼文化", "color": "#0056E7", "oid": "103:1585278519610", "tyid": "304002", "fontsize": 12, "halo": 1.6 }, "geometry": { "type": "Point", "coordinates": [ -64.951172, -17.811456 ] } }
{ "type": "Feature", "tippecanoe": { "layer": "7F5D7CF954701585559477341", "minzoom": 2, "maxzoom": 8 }, "properties": { "title": "康多拉瓦西文化", "color": "#0056E7", "oid": "103:1585278519221", "tyid": "304002", "fontsize": 12, "halo": 1.6 }, "geometry": { "type": "Point", "coordinates": [ -66.708984, -27.293689 ] } }
{ "type": "Feature", "tippecanoe": { "layer": "7F5D7CF954701585559477341", "minzoom": 2, "maxzoom": 8 }, "properties": { "title": "拉斯梅塞德斯文化", "color": "#0056E7", "oid": "103:1585278519710", "tyid": "304002", "fontsize": 12, "halo": 1.6 }, "geometry": { "type": "Point", "coordinates": [ -63.808594, -27.605671 ] } }
{ "type": "Feature", "tippecanoe": { "layer": "7F5D7CF954701585559477341", "minzoom": 2, "maxzoom": 8 }, "properties": { "title": "查鲁亚人", "color": "#0056E7", "oid": "103:1585278519670", "tyid": "304001", "fontsize": 12, "halo": 1.6 }, "geometry": { "type": "Point", "coordinates": [ -57.128906, -32.398516 ] } }
{ "type": "Feature", "tippecanoe": { "layer": "7F5D7CF954701585559477341", "minzoom": 2, "maxzoom": 8 }, "properties": { "title": "特胡尔切人", "color": "#0056E7", "oid": "103:1585278519205", "tyid": "304001", "fontsize": 12, "halo": 1.6 }, "geometry": { "type": "Point", "coordinates": [ -70.751953, -50.176898 ] } }
{ "type": "Feature", "tippecanoe": { "layer": "7F5D7CF954701585559477341", "minzoom": 2, "maxzoom": 8 }, "properties": { "title": "塞尔克南人", "color": "#0056E7", "oid": "103:1585278519728", "tyid": "304001", "fontsize": 12, "halo": 1.6 }, "geometry": { "type": "Point", "coordinates": [ -68.378906, -53.696706 ] } }
{ "type": "Feature", "tippecanoe": { "layer": "7F5D7CF954701585559477341", "minzoom": 2, "maxzoom": 8 }, "properties": { "title": "雅干人", "color": "#0056E7", "oid": "103:1585278519184", "tyid": "304001", "fontsize": 12, "halo": 1.6 }, "geometry": { "type": "Point", "coordinates": [ -68.554688, -54.521081 ] } }
{ "type": "Feature", "tippecanoe": { "layer": "7F5D7CF954701585559477341", "minzoom": 2, "maxzoom": 8 }, "properties": { "title": "赫尔维蒂人", "color": "#0056E7", "oid": "103:1585278519155", "tyid": "304001", "fontsize": 12, "halo": 1.6 }, "geometry": { "type": "Point", "coordinates": [ 7.207031, 46.920255 ] } }
{ "type": "Feature", "tippecanoe": { "layer": "7F5D7CF954701585559477341", "minzoom": 2, "maxzoom": 8 }, "properties": { "title": "蕾蒂人", "color": "#0056E7", "oid": "103:1585278519464", "tyid": "304001", "fontsize": 12, "halo": 1.6 }, "geometry": { "type": "Point", "coordinates": [ 11.074219, 46.860191 ] } }
{ "type": "Feature", "tippecanoe": { "layer": "7F5D7CF954701585559477341", "minzoom": 2, "maxzoom": 8 }, "properties": { "title": "沃康蒂人", "color": "#0056E7", "oid": "103:1585278519148", "tyid": "304001", "fontsize": 12, "halo": 1.6 }, "geometry": { "type": "Point", "coordinates": [ 5.800781, 44.653024 ] } }
{ "type": "Feature", "tippecanoe": { "layer": "7F5D7CF954701585559477341", "minzoom": 2, "maxzoom": 8 }, "properties": { "title": "利古里亚人", "color": "#0056E7", "oid": "103:1585278519434", "tyid": "304002", "fontsize": 12, "halo": 1.6 }, "geometry": { "type": "Point", "coordinates": [ 7.382812, 44.087585 ] } }
{ "type": "Feature", "tippecanoe": { "layer": "7F5D7CF954701585559477341", "minzoom": 2, "maxzoom": 8 }, "properties": { "title": "西波罗的海坟文化", "color": "#0056E7", "oid": "103:1585278519268", "tyid": "304002", "fontsize": 12, "halo": 1.6 }, "geometry": { "type": "Point", "coordinates": [ 21.708984, 54.213861 ] } }
{ "type": "Feature", "tippecanoe": { "layer": "7F5D7CF954701585559477341", "minzoom": 2, "maxzoom": 8 }, "properties": { "title": "普热沃斯克文化", "color": "#0056E7", "oid": "103:1585278519279", "tyid": "304002", "fontsize": 12, "halo": 1.6 }, "geometry": { "type": "Point", "coordinates": [ 20.126953, 51.069017 ] } }
{ "type": "Feature", "tippecanoe": { "layer": "7F5D7CF954701585559477341", "minzoom": 2, "maxzoom": 8 }, "properties": { "title": "伊利里亚诸王国", "color": "#0056E7", "oid": "103:1585278519726", "tyid": "304000", "fontsize": 12, "halo": 1.8 }, "geometry": { "type": "Point", "coordinates": [ 17.050781, 44.339565 ] } }
{ "type": "Feature", "tippecanoe": { "layer": "7F5D7CF954701585559477341", "minzoom": 2, "maxzoom": 8 }, "properties": { "title": "阿尔迪安王国", "color": "#0056E7", "oid": "103:1585278519573", "tyid": "304000", "fontsize": 12, "halo": 1.8 }, "geometry": { "type": "Point", "coordinates": [ 19.072266, 42.617791 ] } }
{ "type": "Feature", "tippecanoe": { "layer": "7F5D7CF954701585559477341", "minzoom": 2, "maxzoom": 8 }, "properties": { "title": "潘诺尼亚人", "color": "#0056E7", "oid": "103:1585278519565", "tyid": "304001", "fontsize": 12, "halo": 1.6 }, "geometry": { "type": "Point", "coordinates": [ 19.775391, 44.590467 ] } }
{ "type": "Feature", "tippecanoe": { "layer": "7F5D7CF954701585559477341", "minzoom": 2, "maxzoom": 8 }, "properties": { "title": "达尔达尼亚王国", "color": "#0056E7", "oid": "103:1585278519339", "tyid": "304000", "fontsize": 12, "halo": 1.8 }, "geometry": { "type": "Point", "coordinates": [ 21.445312, 42.617791 ] } }
{ "type": "Feature", "tippecanoe": { "layer": "7F5D7CF954701585559477341", "minzoom": 2, "maxzoom": 8 }, "properties": { "title": "古爱沙尼亚人", "color": "#0056E7", "oid": "103:1585278519193", "tyid": "304001", "fontsize": 12, "halo": 1.6 }, "geometry": { "type": "Point", "coordinates": [ 25.576172, 58.995311 ] } }
{ "type": "Feature", "tippecanoe": { "layer": "7F5D7CF954701585559477341", "minzoom": 2, "maxzoom": 8 }, "properties": { "title": "利沃尼亚人", "color": "#0056E7", "oid": "103:1585278519171", "tyid": "304001", "fontsize": 12, "halo": 1.6 }, "geometry": { "type": "Point", "coordinates": [ 26.279297, 57.231503 ] } }
{ "type": "Feature", "tippecanoe": { "layer": "7F5D7CF954701585559477341", "minzoom": 2, "maxzoom": 8 }, "properties": { "title": "沃茨人", "color": "#0056E7", "oid": "103:1585278519536", "tyid": "304001", "fontsize": 12, "halo": 1.6 }, "geometry": { "type": "Point", "coordinates": [ 29.794922, 59.040555 ] } }
{ "type": "Feature", "tippecanoe": { "layer": "7F5D7CF954701585559477341", "minzoom": 2, "maxzoom": 8 }, "properties": { "title": "卡累利阿文化", "color": "#0056E7", "oid": "103:1585278519195", "tyid": "304002", "fontsize": 12, "halo": 1.6 }, "geometry": { "type": "Point", "coordinates": [ 33.925781, 63.074866 ] } }
{ "type": "Feature", "tippecanoe": { "layer": "7F5D7CF954701585559477341", "minzoom": 2, "maxzoom": 8 }, "properties": { "title": "阴影陶文化", "color": "#0056E7", "oid": "103:1585278519399", "tyid": "304002", "fontsize": 12, "halo": 1.6 }, "geometry": { "type": "Point", "coordinates": [ 24.785156, 55.627996 ] } }
{ "type": "Feature", "tippecanoe": { "layer": "7F5D7CF954701585559477341", "minzoom": 2, "maxzoom": 8 }, "properties": { "title": "米洛格勒文化", "color": "#0056E7", "oid": "103:1585278519277", "tyid": "304002", "fontsize": 12, "halo": 1.6 }, "geometry": { "type": "Point", "coordinates": [ 26.718750, 53.435719 ] } }
{ "type": "Feature", "tippecanoe": { "layer": "7F5D7CF954701585559477341", "minzoom": 2, "maxzoom": 8 }, "properties": { "title": "维内德人", "color": "#0056E7", "oid": "103:1585278519286", "tyid": "304001", "fontsize": 12, "halo": 1.6 }, "geometry": { "type": "Point", "coordinates": [ 24.609375, 51.234407 ] } }
{ "type": "Feature", "tippecanoe": { "layer": "7F5D7CF954701585559477341", "minzoom": 2, "maxzoom": 8 }, "properties": { "title": "奥德里西亚王国", "color": "#0056E7", "oid": "103:1585278519301", "tyid": "304000", "fontsize": 12, "halo": 1.8 }, "geometry": { "type": "Point", "coordinates": [ 25.136719, 42.682435 ] } }
{ "type": "Feature", "tippecanoe": { "layer": "7F5D7CF954701585559477341", "minzoom": 2, "maxzoom": 8 }, "properties": { "title": "盖塔人", "color": "#0056E7", "oid": "103:1585278519428", "tyid": "304001", "fontsize": 12, "halo": 1.6 }, "geometry": { "type": "Point", "coordinates": [ 27.246094, 44.213710 ] } }
{ "type": "Feature", "tippecanoe": { "layer": "7F5D7CF954701585559477341", "minzoom": 2, "maxzoom": 8 }, "properties": { "title": "帕夫拉哥尼亚独立区", "color": "#0056E7", "oid": "103:1585278519551", "tyid": "304002", "fontsize": 12, "halo": 1.6 }, "geometry": { "type": "Point", "coordinates": [ 33.486328, 41.178654 ] } }
{ "type": "Feature", "tippecanoe": { "layer": "7F5D7CF954701585559477341", "minzoom": 2, "maxzoom": 8 }, "properties": { "title": "上奥卡文化", "color": "#0056E7", "oid": "103:1585278519142", "tyid": "304002", "fontsize": 12, "halo": 1.6 }, "geometry": { "type": "Point", "coordinates": [ 37.353516, 53.540307 ] } }
{ "type": "Feature", "tippecanoe": { "layer": "7F5D7CF954701585559477341", "minzoom": 2, "maxzoom": 8 }, "properties": { "title": "尤赫诺夫文化", "color": "#0056E7", "oid": "103:1585278519165", "tyid": "304002", "fontsize": 12, "halo": 1.6 }, "geometry": { "type": "Point", "coordinates": [ 34.716797, 52.214339 ] } }
{ "type": "Feature", "tippecanoe": { "layer": "7F5D7CF954701585559477341", "minzoom": 2, "maxzoom": 8 }, "properties": { "title": "梅田人", "color": "#0056E7", "oid": "103:1585278519694", "tyid": "304001", "fontsize": 12, "halo": 1.6 }, "geometry": { "type": "Point", "coordinates": [ 38.144531, 45.644768 ] } }
{ "type": "Feature", "tippecanoe": { "layer": "7F5D7CF954701585559477341", "minzoom": 2, "maxzoom": 8 }, "properties": { "title": "西雷斯人", "color": "#0056E7", "oid": "103:1585278519692", "tyid": "304001", "fontsize": 12, "halo": 1.6 }, "geometry": { "type": "Point", "coordinates": [ 41.308594, 45.460131 ] } }
{ "type": "Feature", "tippecanoe": { "layer": "7F5D7CF954701585559477341", "minzoom": 2, "maxzoom": 8 }, "properties": { "title": "切尔克斯人", "color": "#0056E7", "oid": "103:1585278519700", "tyid": "304001", "fontsize": 12, "halo": 1.6 }, "geometry": { "type": "Point", "coordinates": [ 42.011719, 43.707594 ] } }
{ "type": "Feature", "tippecanoe": { "layer": "7F5D7CF954701585559477341", "minzoom": 2, "maxzoom": 8 }, "properties": { "title": "科尔基斯王国", "color": "#0056E7", "oid": "103:1585278519550", "tyid": "304000", "fontsize": 12, "halo": 1.8 }, "geometry": { "type": "Point", "coordinates": [ 42.539062, 42.617791 ] } }
{ "type": "Feature", "tippecanoe": { "layer": "7F5D7CF954701585559477341", "minzoom": 2, "maxzoom": 8 }, "properties": { "title": "高加索伊比利亚王国", "color": "#0056E7", "oid": "103:1585278519319", "tyid": "304000", "fontsize": 12, "halo": 1.8 }, "geometry": { "type": "Point", "coordinates": [ 44.912109, 41.771312 ] } }
{ "type": "Feature", "tippecanoe": { "layer": "7F5D7CF954701585559477341", "minzoom": 2, "maxzoom": 8 }, "properties": { "title": "马萨希利", "color": "#0056E7", "oid": "103:1585278519164", "tyid": "304001", "fontsize": 12, "halo": 1.6 }, "geometry": { "type": "Point", "coordinates": [ 3.867188, 36.031332 ] } }
{ "type": "Feature", "tippecanoe": { "layer": "7F5D7CF954701585559477341", "minzoom": 2, "maxzoom": 8 }, "properties": { "title": "马希利联盟", "color": "#0056E7", "oid": "103:1585278519631", "tyid": "304002", "fontsize": 12, "halo": 1.6 }, "geometry": { "type": "Point", "coordinates": [ 7.910156, 35.460670 ] } }
{ "type": "Feature", "tippecanoe": { "layer": "7F5D7CF954701585559477341", "minzoom": 2, "maxzoom": 8 }, "properties": { "title": "迦太基帝国", "color": "#0056E7", "oid": "103:1585278519308", "tyid": "304000", "fontsize": 12, "halo": 1.8 }, "geometry": { "type": "Point", "coordinates": [ 9.843750, 36.597889 ] } }
{ "type": "Feature", "tippecanoe": { "layer": "7F5D7CF954701585559477341", "minzoom": 2, "maxzoom": 8 }, "properties": { "title": "伊庇鲁斯联盟", "color": "#0056E7", "oid": "103:1585278519571", "tyid": "304000", "fontsize": 12, "halo": 1.8 }, "geometry": { "type": "Point", "coordinates": [ 20.478516, 39.977120 ] } }
{ "type": "Feature", "tippecanoe": { "layer": "7F5D7CF954701585559477341", "minzoom": 2, "maxzoom": 8 }, "properties": { "title": "安提柯王朝", "color": "#0056E7", "oid": "103:1585278519341", "tyid": "304000", "fontsize": 12, "halo": 1.8 }, "geometry": { "type": "Point", "coordinates": [ 21.708984, 40.446947 ] } }
{ "type": "Feature", "tippecanoe": { "layer": "7F5D7CF954701585559477341", "minzoom": 2, "maxzoom": 8 }, "properties": { "title": "加拉曼特王国", "color": "#0056E7", "oid": "103:1585278519357", "tyid": "304000", "fontsize": 12, "halo": 1.8 }, "geometry": { "type": "Point", "coordinates": [ 13.886719, 26.902477 ] } }
{ "type": "Feature", "tippecanoe": { "layer": "7F5D7CF954701585559477341", "minzoom": 2, "maxzoom": 8 }, "properties": { "title": "约鲁巴人", "color": "#0056E7", "oid": "103:1585278519209", "tyid": "304001", "fontsize": 12, "halo": 1.6 }, "geometry": { "type": "Point", "coordinates": [ 3.427734, 7.536764 ] } }
{ "type": "Feature", "tippecanoe": { "layer": "7F5D7CF954701585559477341", "minzoom": 2, "maxzoom": 8 }, "properties": { "title": "伊博人", "color": "#0056E7", "oid": "103:1585278519207", "tyid": "304001", "fontsize": 12, "halo": 1.6 }, "geometry": { "type": "Point", "coordinates": [ 7.998047, 5.965754 ] } }
{ "type": "Feature", "tippecanoe": { "layer": "7F5D7CF954701585559477341", "minzoom": 2, "maxzoom": 8 }, "properties": { "title": "比提尼亚王国", "color": "#0056E7", "oid": "103:1585278519666", "tyid": "304000", "fontsize": 12, "halo": 1.8 }, "geometry": { "type": "Point", "coordinates": [ 30.410156, 40.713956 ] } }
{ "type": "Feature", "tippecanoe": { "layer": "7F5D7CF954701585559477341", "minzoom": 2, "maxzoom": 8 }, "properties": { "title": "加拉提亚高卢人", "color": "#0056E7", "oid": "103:1585278519554", "tyid": "304001", "fontsize": 12, "halo": 1.6 }, "geometry": { "type": "Point", "coordinates": [ 32.695312, 39.774769 ] } }
{ "type": "Feature", "tippecanoe": { "layer": "7F5D7CF954701585559477341", "minzoom": 2, "maxzoom": 8 }, "properties": { "title": "纳巴泰人", "color": "#0056E7", "oid": "103:1585278519557", "tyid": "304001", "fontsize": 12, "halo": 1.6 }, "geometry": { "type": "Point", "coordinates": [ 33.486328, 28.844674 ] } }
{ "type": "Feature", "tippecanoe": { "layer": "7F5D7CF954701585559477341", "minzoom": 2, "maxzoom": 8 }, "properties": { "title": "卡帕多西亚王国", "color": "#0056E7", "oid": "103:1585278519401", "tyid": "304000", "fontsize": 12, "halo": 1.8 }, "geometry": { "type": "Point", "coordinates": [ 35.771484, 38.616870 ] } }
{ "type": "Feature", "tippecanoe": { "layer": "7F5D7CF954701585559477341", "minzoom": 2, "maxzoom": 8 }, "properties": { "title": "本都王国", "color": "#0056E7", "oid": "103:1585278519243", "tyid": "304000", "fontsize": 12, "halo": 1.8 }, "geometry": { "type": "Point", "coordinates": [ 36.738281, 40.446947 ] } }
{ "type": "Feature", "tippecanoe": { "layer": "7F5D7CF954701585559477341", "minzoom": 2, "maxzoom": 8 }, "properties": { "title": "小亚美尼亚王国", "color": "#0056E7", "oid": "103:1585278519552", "tyid": "304000", "fontsize": 12, "halo": 1.8 }, "geometry": { "type": "Point", "coordinates": [ 38.935547, 40.111689 ] } }
{ "type": "Feature", "tippecanoe": { "layer": "7F5D7CF954701585559477341", "minzoom": 2, "maxzoom": 8 }, "properties": { "title": "塔努联盟", "color": "#0056E7", "oid": "103:1585278519322", "tyid": "304002", "fontsize": 12, "halo": 1.6 }, "geometry": { "type": "Point", "coordinates": [ 39.287109, 32.694866 ] } }
{ "type": "Feature", "tippecanoe": { "layer": "7F5D7CF954701585559477341", "minzoom": 2, "maxzoom": 8 }, "properties": { "title": "索芬尼王国", "color": "#0056E7", "oid": "103:1585278519140", "tyid": "304000", "fontsize": 12, "halo": 1.8 }, "geometry": { "type": "Point", "coordinates": [ 39.902344, 38.548165 ] } }
{ "type": "Feature", "tippecanoe": { "layer": "7F5D7CF954701585559477341", "minzoom": 2, "maxzoom": 8 }, "properties": { "title": "大亚美尼亚王国", "color": "#0056E7", "oid": "103:1585278519244", "tyid": "304000", "fontsize": 12, "halo": 1.8 }, "geometry": { "type": "Point", "coordinates": [ 42.626953, 39.639538 ] } }
{ "type": "Feature", "tippecanoe": { "layer": "7F5D7CF954701585559477341", "minzoom": 2, "maxzoom": 8 }, "properties": { "title": "纳巴泰王国", "color": "#0056E7", "oid": "103:1585278519320", "tyid": "304000", "fontsize": 12, "halo": 1.8 }, "geometry": { "type": "Point", "coordinates": [ 36.914062, 31.052934 ] } }
{ "type": "Feature", "tippecanoe": { "layer": "7F5D7CF954701585559477341", "minzoom": 2, "maxzoom": 8 }, "properties": { "title": "贝扎人", "color": "#0056E7", "oid": "103:1585278519660", "tyid": "304001", "fontsize": 12, "halo": 1.6 }, "geometry": { "type": "Point", "coordinates": [ 35.771484, 16.214675 ] } }
{ "type": "Feature", "tippecanoe": { "layer": "7F5D7CF954701585559477341", "minzoom": 2, "maxzoom": 8 }, "properties": { "title": "原始-阿克苏姆铁器时代", "color": "#0056E7", "oid": "103:1585278519628", "tyid": "304002", "fontsize": 12, "halo": 1.6 }, "geometry": { "type": "Point", "coordinates": [ 39.111328, 13.923404 ] } }
{ "type": "Feature", "tippecanoe": { "layer": "7F5D7CF954701585559477341", "minzoom": 2, "maxzoom": 8 }, "properties": { "title": "高原诸小王国", "color": "#0056E7", "oid": "103:1585278519325", "tyid": "304002", "fontsize": 12, "halo": 1.6 }, "geometry": { "type": "Point", "coordinates": [ 41.835938, 12.726084 ] } }
{ "type": "Feature", "tippecanoe": { "layer": "7F5D7CF954701585559477341", "minzoom": 2, "maxzoom": 8 }, "properties": { "title": "迈因王国", "color": "#0056E7", "oid": "103:1585278519326", "tyid": "304000", "fontsize": 12, "halo": 1.8 }, "geometry": { "type": "Point", "coordinates": [ 44.824219, 16.299051 ] } }
{ "type": "Feature", "tippecanoe": { "layer": "7F5D7CF954701585559477341", "minzoom": 2, "maxzoom": 8 }, "properties": { "title": "塞巴王国", "color": "#0056E7", "oid": "103:1585278519558", "tyid": "304000", "fontsize": 12, "halo": 1.8 }, "geometry": { "type": "Point", "coordinates": [ 44.033203, 14.689881 ] } }
{ "type": "Feature", "tippecanoe": { "layer": "7F5D7CF954701585559477341", "minzoom": 2, "maxzoom": 8 }, "properties": { "title": "安纳尼诺文化", "color": "#0056E7", "oid": "103:1585278519689", "tyid": "304002", "fontsize": 12, "halo": 1.6 }, "geometry": { "type": "Point", "coordinates": [ 50.625000, 56.413901 ] } }
{ "type": "Feature", "tippecanoe": { "layer": "7F5D7CF954701585559477341", "minzoom": 2, "maxzoom": 8 }, "properties": { "title": "大益人", "color": "#0056E7", "oid": "103:1585278519541", "tyid": "304001", "fontsize": 12, "halo": 1.6 }, "geometry": { "type": "Point", "coordinates": [ 55.458984, 41.178654 ] } }
{ "type": "Feature", "tippecanoe": { "layer": "7F5D7CF954701585559477341", "minzoom": 2, "maxzoom": 8 }, "properties": { "title": "驩潜国", "color": "#0056E7", "oid": "103:1585278519527", "tyid": "304000", "fontsize": 12, "halo": 1.8 }, "geometry": { "type": "Point", "coordinates": [ 60.117188, 42.488302 ] } }
{ "type": "Feature", "tippecanoe": { "layer": "7F5D7CF954701585559477341", "minzoom": 2, "maxzoom": 8 }, "properties": { "title": "塞迦人", "color": "#0056E7", "oid": "103:1585278519390", "tyid": "304001", "fontsize": 12, "halo": 1.6 }, "geometry": { "type": "Point", "coordinates": [ 62.929688, 42.098222 ] } }
{ "type": "Feature", "tippecanoe": { "layer": "7F5D7CF954701585559477341", "minzoom": 2, "maxzoom": 8 }, "properties": { "title": "龟兹国", "color": "#0056E7", "oid": "103:1585278519364", "tyid": "304000", "fontsize": 12, "halo": 1.8 }, "geometry": { "type": "Point", "coordinates": [ 82.792969, 41.442726 ] } }
{ "type": "Feature", "tippecanoe": { "layer": "7F5D7CF954701585559477341", "minzoom": 2, "maxzoom": 8 }, "properties": { "title": "车师国", "color": "#0056E7", "oid": "103:1585278519199", "tyid": "304000", "fontsize": 12, "halo": 1.8 }, "geometry": { "type": "Point", "coordinates": [ 89.560547, 43.197167 ] } }
{ "type": "Feature", "tippecanoe": { "layer": "7F5D7CF954701585559477341", "minzoom": 2, "maxzoom": 8 }, "properties": { "title": "危须国", "color": "#0056E7", "oid": "103:1585278519531", "tyid": "304000", "fontsize": 12, "halo": 1.8 }, "geometry": { "type": "Point", "coordinates": [ 87.363281, 42.423457 ] } }
{ "type": "Feature", "tippecanoe": { "layer": "7F5D7CF954701585559477341", "minzoom": 2, "maxzoom": 8 }, "properties": { "title": "墨山国", "color": "#0056E7", "oid": "103:1585278519633", "tyid": "304000", "fontsize": 12, "halo": 1.8 }, "geometry": { "type": "Point", "coordinates": [ 88.593750, 41.310824 ] } }
{ "type": "Feature", "tippecanoe": { "layer": "7F5D7CF954701585559477341", "minzoom": 2, "maxzoom": 8 }, "properties": { "title": "阿特罗帕特尼王国", "color": "#0056E7", "oid": "103:1585278519242", "tyid": "304000", "fontsize": 12, "halo": 1.8 }, "geometry": { "type": "Point", "coordinates": [ 47.021484, 38.134557 ] } }
{ "type": "Feature", "tippecanoe": { "layer": "7F5D7CF954701585559477341", "minzoom": 2, "maxzoom": 8 }, "properties": { "title": "高加索阿尔巴尼亚人", "color": "#0056E7", "oid": "103:1585278519315", "tyid": "304001", "fontsize": 12, "halo": 1.6 }, "geometry": { "type": "Point", "coordinates": [ 47.988281, 40.580585 ] } }
{ "type": "Feature", "tippecanoe": { "layer": "7F5D7CF954701585559477341", "minzoom": 2, "maxzoom": 8 }, "properties": { "title": "格拉", "color": "#0056E7", "oid": "103:1585278519603", "tyid": "304002", "fontsize": 12, "halo": 1.6 }, "geometry": { "type": "Point", "coordinates": [ 51.240234, 25.403585 ] } }
{ "type": "Feature", "tippecanoe": { "layer": "7F5D7CF954701585559477341", "minzoom": 2, "maxzoom": 8 }, "properties": { "title": "马干", "color": "#0056E7", "oid": "103:1585278519144", "tyid": "304002", "fontsize": 12, "halo": 1.6 }, "geometry": { "type": "Point", "coordinates": [ 57.744141, 23.241346 ] } }
{ "type": "Feature", "tippecanoe": { "layer": "7F5D7CF954701585559477341", "minzoom": 2, "maxzoom": 8 }, "properties": { "title": "奥桑王国", "color": "#0056E7", "oid": "103:1585278519723", "tyid": "304000", "fontsize": 12, "halo": 1.8 }, "geometry": { "type": "Point", "coordinates": [ 45.966797, 13.923404 ] } }
{ "type": "Feature", "tippecanoe": { "layer": "7F5D7CF954701585559477341", "minzoom": 2, "maxzoom": 8 }, "properties": { "title": "阿德王国", "color": "#0056E7", "oid": "103:1585278519600", "tyid": "304000", "fontsize": 12, "halo": 1.8 }, "geometry": { "type": "Point", "coordinates": [ 52.382812, 18.646245 ] } }
{ "type": "Feature", "tippecanoe": { "layer": "7F5D7CF954701585559477341", "minzoom": 2, "maxzoom": 8 }, "properties": { "title": "哈德拉毛王国", "color": "#0056E7", "oid": "103:1585278519602", "tyid": "304000", "fontsize": 12, "halo": 1.8 }, "geometry": { "type": "Point", "coordinates": [ 50.976562, 16.299051 ] } }
{ "type": "Feature", "tippecanoe": { "layer": "7F5D7CF954701585559477341", "minzoom": 2, "maxzoom": 8 }, "properties": { "title": "幸军王", "color": "#0056E7", "oid": "103:1585278519487", "tyid": "304002", "fontsize": 12, "halo": 1.6 }, "geometry": { "type": "Point", "coordinates": [ 68.115234, 34.234512 ] } }
{ "type": "Feature", "tippecanoe": { "layer": "7F5D7CF954701585559477341", "minzoom": 2, "maxzoom": 8 }, "properties": { "title": "莎车国", "color": "#0056E7", "oid": "103:1585278519311", "tyid": "304000", "fontsize": 12, "halo": 1.8 }, "geometry": { "type": "Point", "coordinates": [ 77.431641, 38.822591 ] } }
{ "type": "Feature", "tippecanoe": { "layer": "7F5D7CF954701585559477341", "minzoom": 2, "maxzoom": 8 }, "properties": { "title": "西夜国", "color": "#0056E7", "oid": "103:1585278519584", "tyid": "304000", "fontsize": 12, "halo": 1.8 }, "geometry": { "type": "Point", "coordinates": [ 78.046875, 36.949892 ] } }
{ "type": "Feature", "tippecanoe": { "layer": "7F5D7CF954701585559477341", "minzoom": 2, "maxzoom": 8 }, "properties": { "title": "乌秅国", "color": "#0056E7", "oid": "103:1585278519180", "tyid": "304000", "fontsize": 12, "halo": 1.8 }, "geometry": { "type": "Point", "coordinates": [ 76.728516, 36.385913 ] } }
{ "type": "Feature", "tippecanoe": { "layer": "7F5D7CF954701585559477341", "minzoom": 2, "maxzoom": 8 }, "properties": { "title": "姑墨国", "color": "#0056E7", "oid": "103:1585278519442", "tyid": "304000", "fontsize": 12, "halo": 1.8 }, "geometry": { "type": "Point", "coordinates": [ 80.683594, 40.847060 ] } }
{ "type": "Feature", "tippecanoe": { "layer": "7F5D7CF954701585559477341", "minzoom": 2, "maxzoom": 8 }, "properties": { "title": "于阗国", "color": "#0056E7", "oid": "103:1585278519368", "tyid": "304000", "fontsize": 12, "halo": 1.8 }, "geometry": { "type": "Point", "coordinates": [ 80.156250, 38.272689 ] } }
{ "type": "Feature", "tippecanoe": { "layer": "7F5D7CF954701585559477341", "minzoom": 2, "maxzoom": 8 }, "properties": { "title": "扜弥国", "color": "#0056E7", "oid": "103:1585278519237", "tyid": "304000", "fontsize": 12, "halo": 1.8 }, "geometry": { "type": "Point", "coordinates": [ 81.914062, 38.616870 ] } }
{ "type": "Feature", "tippecanoe": { "layer": "7F5D7CF954701585559477341", "minzoom": 2, "maxzoom": 8 }, "properties": { "title": "精绝国", "color": "#0056E7", "oid": "103:1585278519532", "tyid": "304000", "fontsize": 12, "halo": 1.8 }, "geometry": { "type": "Point", "coordinates": [ 82.880859, 37.509726 ] } }
{ "type": "Feature", "tippecanoe": { "layer": "7F5D7CF954701585559477341", "minzoom": 2, "maxzoom": 8 }, "properties": { "title": "尉犁国", "color": "#0056E7", "oid": "103:1585278519203", "tyid": "304000", "fontsize": 12, "halo": 1.8 }, "geometry": { "type": "Point", "coordinates": [ 86.923828, 40.979898 ] } }
{ "type": "Feature", "tippecanoe": { "layer": "7F5D7CF954701585559477341", "minzoom": 2, "maxzoom": 8 }, "properties": { "title": "且末国", "color": "#0056E7", "oid": "103:1585278519426", "tyid": "304000", "fontsize": 12, "halo": 1.8 }, "geometry": { "type": "Point", "coordinates": [ 86.044922, 38.341656 ] } }
{ "type": "Feature", "tippecanoe": { "layer": "7F5D7CF954701585559477341", "minzoom": 2, "maxzoom": 8 }, "properties": { "title": "楼兰国", "color": "#0056E7", "oid": "103:1585278519663", "tyid": "304000", "fontsize": 12, "halo": 1.8 }, "geometry": { "type": "Point", "coordinates": [ 89.824219, 40.044438 ] } }
{ "type": "Feature", "tippecanoe": { "layer": "7F5D7CF954701585559477341", "minzoom": 2, "maxzoom": 8 }, "properties": { "title": "婼羌国", "color": "#0056E7", "oid": "103:1585278519231", "tyid": "304000", "fontsize": 12, "halo": 1.8 }, "geometry": { "type": "Point", "coordinates": [ 89.912109, 38.134557 ] } }
{ "type": "Feature", "tippecanoe": { "layer": "7F5D7CF954701585559477341", "minzoom": 2, "maxzoom": 8 }, "properties": { "title": "克拉底王国", "color": "#0056E7", "oid": "103:1585278519420", "tyid": "304000", "fontsize": 12, "halo": 1.8 }, "geometry": { "type": "Point", "coordinates": [ 84.199219, 28.071980 ] } }
{ "type": "Feature", "tippecanoe": { "layer": "7F5D7CF954701585559477341", "minzoom": 2, "maxzoom": 8 }, "properties": { "title": "阿西亚曼王国", "color": "#0056E7", "oid": "103:1585278519351", "tyid": "304000", "fontsize": 12, "halo": 1.8 }, "geometry": { "type": "Point", "coordinates": [ 77.519531, 11.781325 ] } }
{ "type": "Feature", "tippecanoe": { "layer": "7F5D7CF954701585559477341", "minzoom": 2, "maxzoom": 8 }, "properties": { "title": "哲罗国", "color": "#0056E7", "oid": "103:1585278519494", "tyid": "304000", "fontsize": 12, "halo": 1.8 }, "geometry": { "type": "Point", "coordinates": [ 76.464844, 10.314919 ] } }
{ "type": "Feature", "tippecanoe": { "layer": "7F5D7CF954701585559477341", "minzoom": 2, "maxzoom": 8 }, "properties": { "title": "潘地亚王国", "color": "#0056E7", "oid": "103:1585278519439", "tyid": "304000", "fontsize": 12, "halo": 1.8 }, "geometry": { "type": "Point", "coordinates": [ 77.958984, 9.535749 ] } }
{ "type": "Feature", "tippecanoe": { "layer": "7F5D7CF954701585559477341", "minzoom": 2, "maxzoom": 8 }, "properties": { "title": "质多王朝", "color": "#0056E7", "oid": "103:1585278519382", "tyid": "304000", "fontsize": 12, "halo": 1.8 }, "geometry": { "type": "Point", "coordinates": [ 84.375000, 20.385825 ] } }
{ "type": "Feature", "tippecanoe": { "layer": "7F5D7CF954701585559477341", "minzoom": 2, "maxzoom": 8 }, "properties": { "title": "朱罗国", "color": "#0056E7", "oid": "103:1585278519444", "tyid": "304000", "fontsize": 12, "halo": 1.8 }, "geometry": { "type": "Point", "coordinates": [ 78.750000, 11.178402 ] } }
{ "type": "Feature", "tippecanoe": { "layer": "7F5D7CF954701585559477341", "minzoom": 2, "maxzoom": 8 }, "properties": { "title": "阿努拉德普勒王国", "color": "#0056E7", "oid": "103:1585278519486", "tyid": "304000", "fontsize": 12, "halo": 1.8 }, "geometry": { "type": "Point", "coordinates": [ 80.683594, 7.623887 ] } }
{ "type": "Feature", "tippecanoe": { "layer": "7F5D7CF954701585559477341", "minzoom": 2, "maxzoom": 8 }, "properties": { "title": "塔施提克文化", "color": "#0056E7", "oid": "103:1585278519639", "tyid": "304002", "fontsize": 12, "halo": 1.6 }, "geometry": { "type": "Point", "coordinates": [ 90.000000, 54.418930 ] } }
{ "type": "Feature", "tippecanoe": { "layer": "7F5D7CF954701585559477341", "minzoom": 2, "maxzoom": 8 }, "properties": { "title": "蒲类国", "color": "#0056E7", "oid": "103:1585278519651", "tyid": "304000", "fontsize": 12, "halo": 1.8 }, "geometry": { "type": "Point", "coordinates": [ 92.109375, 44.087585 ] } }
{ "type": "Feature", "tippecanoe": { "layer": "7F5D7CF954701585559477341", "minzoom": 2, "maxzoom": 8 }, "properties": { "title": "乌桓", "color": "#0056E7", "oid": "103:1585278519714", "tyid": "304001", "fontsize": 12, "halo": 1.6 }, "geometry": { "type": "Point", "coordinates": [ 120.673828, 43.580391 ] } }
{ "type": "Feature", "tippecanoe": { "layer": "7F5D7CF954701585559477341", "minzoom": 2, "maxzoom": 8 }, "properties": { "title": "扶余", "color": "#0056E7", "oid": "103:1585278519354", "tyid": "304000", "fontsize": 12, "halo": 1.8 }, "geometry": { "type": "Point", "coordinates": [ 124.541016, 45.706179 ] } }
{ "type": "Feature", "tippecanoe": { "layer": "7F5D7CF954701585559477341", "minzoom": 2, "maxzoom": 8 }, "properties": { "title": "濊貊", "color": "#0056E7", "oid": "103:1585278519522", "tyid": "304001", "fontsize": 12, "halo": 1.6 }, "geometry": { "type": "Point", "coordinates": [ 126.650391, 41.640078 ] } }
{ "type": "Feature", "tippecanoe": { "layer": "7F5D7CF954701585559477341", "minzoom": 2, "maxzoom": 8 }, "properties": { "title": "巂", "color": "#0056E7", "oid": "103:1585278519509", "tyid": "304001", "fontsize": 12, "halo": 1.6 }, "geometry": { "type": "Point", "coordinates": [ 98.261719, 25.799891 ] } }
{ "type": "Feature", "tippecanoe": { "layer": "7F5D7CF954701585559477341", "minzoom": 2, "maxzoom": 8 }, "properties": { "title": "昆明", "color": "#0056E7", "oid": "103:1585278519182", "tyid": "304001", "fontsize": 12, "halo": 1.6 }, "geometry": { "type": "Point", "coordinates": [ 100.283203, 25.720735 ] } }
{ "type": "Feature", "tippecanoe": { "layer": "7F5D7CF954701585559477341", "minzoom": 2, "maxzoom": 8 }, "properties": { "title": "氐人", "color": "#0056E7", "oid": "103:1585278519476", "tyid": "304001", "fontsize": 12, "halo": 1.6 }, "geometry": { "type": "Point", "coordinates": [ 104.150391, 33.211116 ] } }
{ "type": "Feature", "tippecanoe": { "layer": "7F5D7CF954701585559477341", "minzoom": 2, "maxzoom": 8 }, "properties": { "title": "魏王豹", "color": "#0056E7", "oid": "103:1585278519644", "tyid": "304000", "fontsize": 12, "halo": 1.8 }, "geometry": { "type": "Point", "coordinates": [ 111.972656, 36.102376 ] } }
{ "type": "Feature", "tippecanoe": { "layer": "7F5D7CF954701585559477341", "minzoom": 2, "maxzoom": 8 }, "properties": { "title": "邛都", "color": "#0056E7", "oid": "103:1585278519515", "tyid": "304001", "fontsize": 12, "halo": 1.6 }, "geometry": { "type": "Point", "coordinates": [ 102.128906, 27.449790 ] } }
{ "type": "Feature", "tippecanoe": { "layer": "7F5D7CF954701585559477341", "minzoom": 2, "maxzoom": 8 }, "properties": { "title": "古僰人", "color": "#0056E7", "oid": "103:1585278519216", "tyid": "304001", "fontsize": 12, "halo": 1.6 }, "geometry": { "type": "Point", "coordinates": [ 103.974609, 28.149503 ] } }
{ "type": "Feature", "tippecanoe": { "layer": "7F5D7CF954701585559477341", "minzoom": 2, "maxzoom": 8 }, "properties": { "title": "滇国", "color": "#0056E7", "oid": "103:1585278519588", "tyid": "304000", "fontsize": 12, "halo": 1.8 }, "geometry": { "type": "Point", "coordinates": [ 102.128906, 25.244696 ] } }
{ "type": "Feature", "tippecanoe": { "layer": "7F5D7CF954701585559477341", "minzoom": 2, "maxzoom": 8 }, "properties": { "title": "夜郎", "color": "#0056E7", "oid": "103:1585278519391", "tyid": "304001", "fontsize": 12, "halo": 1.6 }, "geometry": { "type": "Point", "coordinates": [ 105.820312, 26.273714 ] } }
{ "type": "Feature", "tippecanoe": { "layer": "7F5D7CF954701585559477341", "minzoom": 2, "maxzoom": 8 }, "properties": { "title": "钩町", "color": "#0056E7", "oid": "103:1585278519485", "tyid": "304000", "fontsize": 12, "halo": 1.8 }, "geometry": { "type": "Point", "coordinates": [ 104.238281, 23.644524 ] } }
{ "type": "Feature", "tippecanoe": { "layer": "7F5D7CF954701585559477341", "minzoom": 2, "maxzoom": 8 }, "properties": { "title": "达雅瓦底王国", "color": "#0056E7", "oid": "103:1585278519287", "tyid": "304000", "fontsize": 12, "halo": 1.8 }, "geometry": { "type": "Point", "coordinates": [ 93.339844, 20.550509 ] } }
{ "type": "Feature", "tippecanoe": { "layer": "7F5D7CF954701585559477341", "minzoom": 2, "maxzoom": 8 }, "properties": { "title": "室利差呾罗王国", "color": "#0056E7", "oid": "103:1585278519725", "tyid": "304000", "fontsize": 12, "halo": 1.8 }, "geometry": { "type": "Point", "coordinates": [ 95.625000, 19.145168 ] } }
{ "type": "Feature", "tippecanoe": { "layer": "7F5D7CF954701585559477341", "minzoom": 2, "maxzoom": 8 }, "properties": { "title": "直通王国", "color": "#0056E7", "oid": "103:1585278519175", "tyid": "304000", "fontsize": 12, "halo": 1.8 }, "geometry": { "type": "Point", "coordinates": [ 96.152344, 17.392579 ] } }
{ "type": "Feature", "tippecanoe": { "layer": "7F5D7CF954701585559477341", "minzoom": 2, "maxzoom": 8 }, "properties": { "title": "班清文化", "color": "#0056E7", "oid": "103:1585278519679", "tyid": "304002", "fontsize": 12, "halo": 1.6 }, "geometry": { "type": "Point", "coordinates": [ 103.271484, 17.560247 ] } }
{ "type": "Feature", "tippecanoe": { "layer": "7F5D7CF954701585559477341", "minzoom": 2, "maxzoom": 8 }, "properties": { "title": "蓬斯尼文化", "color": "#0056E7", "oid": "103:1585278519502", "tyid": "304002", "fontsize": 12, "halo": 1.6 }, "geometry": { "type": "Point", "coordinates": [ 103.535156, 13.410994 ] } }
{ "type": "Feature", "tippecanoe": { "layer": "7F5D7CF954701585559477341", "minzoom": 2, "maxzoom": 8 }, "properties": { "title": "沙黄文化", "color": "#0056E7", "oid": "103:1585278519505", "tyid": "304002", "fontsize": 12, "halo": 1.6 }, "geometry": { "type": "Point", "coordinates": [ 108.369141, 11.264612 ] } }
{ "type": "Feature", "tippecanoe": { "layer": "7F5D7CF954701585559477341", "minzoom": 2, "maxzoom": 8 }, "properties": { "title": "同奈文化", "color": "#0056E7", "oid": "103:1585278519686", "tyid": "304002", "fontsize": 12, "halo": 1.6 }, "geometry": { "type": "Point", "coordinates": [ 105.468750, 10.055403 ] } }
{ "type": "Feature", "tippecanoe": { "layer": "7F5D7CF954701585559477341", "minzoom": 2, "maxzoom": 8 }, "properties": { "title": "尼格利陀人", "color": "#0056E7", "oid": "103:1585278519385", "tyid": "304001", "fontsize": 12, "halo": 1.6 }, "geometry": { "type": "Point", "coordinates": [ 101.953125, 4.740675 ] } }
{ "type": "Feature", "tippecanoe": { "layer": "7F5D7CF954701585559477341", "minzoom": 2, "maxzoom": 8 }, "properties": { "title": "代", "color": "#0056E7", "oid": "103:1585278519618", "tyid": "304000", "fontsize": 12, "halo": 1.8 }, "geometry": { "type": "Point", "coordinates": [ 112.587891, 39.639538 ] } }
{ "type": "Feature", "tippecanoe": { "layer": "7F5D7CF954701585559477341", "minzoom": 2, "maxzoom": 8 }, "properties": { "title": "齐", "color": "#0056E7", "oid": "103:1585278519632", "tyid": "304000", "fontsize": 12, "halo": 1.8 }, "geometry": { "type": "Point", "coordinates": [ 119.003906, 36.102376 ] } }
{ "type": "Feature", "tippecanoe": { "layer": "7F5D7CF954701585559477341", "minzoom": 2, "maxzoom": 8 }, "properties": { "title": "衡山", "color": "#0056E7", "oid": "103:1585278519647", "tyid": "304000", "fontsize": 12, "halo": 1.8 }, "geometry": { "type": "Point", "coordinates": [ 115.224609, 31.052934 ] } }
{ "type": "Feature", "tippecanoe": { "layer": "7F5D7CF954701585559477341", "minzoom": 2, "maxzoom": 8 }, "properties": { "title": "九江", "color": "#0056E7", "oid": "103:1585278519615", "tyid": "304000", "fontsize": 12, "halo": 1.8 }, "geometry": { "type": "Point", "coordinates": [ 116.279297, 28.844674 ] } }
{ "type": "Feature", "tippecanoe": { "layer": "7F5D7CF954701585559477341", "minzoom": 2, "maxzoom": 8 }, "properties": { "title": "闽越国", "color": "#0056E7", "oid": "103:1585278519712", "tyid": "304001", "fontsize": 12, "halo": 1.6 }, "geometry": { "type": "Point", "coordinates": [ 117.949219, 26.194877 ] } }
{ "type": "Feature", "tippecanoe": { "layer": "7F5D7CF954701585559477341", "minzoom": 2, "maxzoom": 8 }, "properties": { "title": "东瓯国", "color": "#0056E7", "oid": "103:1585278519555", "tyid": "304001", "fontsize": 12, "halo": 1.6 }, "geometry": { "type": "Point", "coordinates": [ 120.146484, 28.304381 ] } }
{ "type": "Feature", "tippecanoe": { "layer": "7F5D7CF954701585559477341", "minzoom": 2, "maxzoom": 8 }, "properties": { "title": "箕子朝鲜", "color": "#0056E7", "oid": "103:1585278519621", "tyid": "304000", "fontsize": 12, "halo": 1.8 }, "geometry": { "type": "Point", "coordinates": [ 126.914062, 38.479395 ] } }
{ "type": "Feature", "tippecanoe": { "layer": "7F5D7CF954701585559477341", "minzoom": 2, "maxzoom": 8 }, "properties": { "title": "辰国", "color": "#0056E7", "oid": "103:1585278519213", "tyid": "304000", "fontsize": 12, "halo": 1.8 }, "geometry": { "type": "Point", "coordinates": [ 127.792969, 36.031332 ] } }
{ "type": "Feature", "tippecanoe": { "layer": "7F5D7CF954701585559477341", "minzoom": 2, "maxzoom": 8 }, "properties": { "title": "绳文人", "color": "#0056E7", "oid": "103:1585278519416", "tyid": "304001", "fontsize": 12, "halo": 1.6 }, "geometry": { "type": "Point", "coordinates": [ 142.558594, 43.389082 ] } }
{ "type": "Feature", "tippecanoe": { "layer": "7F5D7CF954701585559477341", "minzoom": 2, "maxzoom": 8 }, "properties": { "title": "乌莱维文明", "color": "#0056E7", "oid": "103:1585278519503", "tyid": "304002", "fontsize": 12, "halo": 1.6 }, "geometry": { "type": "Point", "coordinates": [ 29.882812, -2.547988 ] } }
{ "type": "Feature", "tippecanoe": { "layer": "7F5D7CF954701585559477341", "minzoom": 2, "maxzoom": 8 }, "properties": { "title": "艾布兰文化五期", "color": "#0056E7", "oid": "103:1585278519389", "tyid": "304002", "fontsize": 12, "halo": 1.6 }, "geometry": { "type": "Point", "coordinates": [ 36.474609, -0.175781 ] } }
{ "type": "Feature", "tippecanoe": { "layer": "7F5D7CF954701585559477341", "minzoom": 2, "maxzoom": 8 }, "properties": { "title": "布尼文化", "color": "#0056E7", "oid": "103:1585278519543", "tyid": "304002", "fontsize": 12, "halo": 1.6 }, "geometry": { "type": "Point", "coordinates": [ 107.226562, -6.751896 ] } }
{ "type": "Feature", "tippecanoe": { "layer": "7F5D7CF954701585559477341", "minzoom": 2, "maxzoom": 8 }, "properties": { "title": "巴拉瓦人", "color": "#0056E7", "oid": "103:1585278519381", "tyid": "304001", "fontsize": 12, "halo": 1.6 }, "geometry": { "type": "Point", "coordinates": [ 146.513672, -41.967659 ] } }
{ "type": "Feature", "tippecanoe": { "layer": "7F5D7CF955181585559477339", "minzoom": 2, "maxzoom": 8 }, "properties": { "title": "古白令海文化", "color": "#262626", "oid": "103:1585278519424", "tyid": "304002", "fontsize": 12, "halo": 0.8 }, "geometry": { "type": "Point", "coordinates": [ -170.332031, 63.470145 ] } }
{ "type": "Feature", "tippecanoe": { "layer": "7F5D7CF955181585559477339", "minzoom": 2, "maxzoom": 8 }, "properties": { "title": "查普卡洛文化", "color": "#262626", "oid": "103:1585278519659", "tyid": "304002", "fontsize": 12, "halo": 0.8 }, "geometry": { "type": "Point", "coordinates": [ -99.931641, 20.303418 ] } }
{ "type": "Feature", "tippecanoe": { "layer": "7F5D7CF955181585559477339", "minzoom": 2, "maxzoom": 8 }, "properties": { "title": "米斯特克人", "color": "#262626", "oid": "103:1585278519208", "tyid": "304001", "fontsize": 12, "halo": 0.8 }, "geometry": { "type": "Point", "coordinates": [ -98.349609, 17.224758 ] } }
{ "type": "Feature", "tippecanoe": { "layer": "7F5D7CF955181585559477339", "minzoom": 2, "maxzoom": 8 }, "properties": { "title": "特里克人", "color": "#262626", "oid": "103:1585278519179", "tyid": "304001", "fontsize": 12, "halo": 0.8 }, "geometry": { "type": "Point", "coordinates": [ -97.294922, 17.644022 ] } }
{ "type": "Feature", "tippecanoe": { "layer": "7F5D7CF955181585559477339", "minzoom": 2, "maxzoom": 8 }, "properties": { "title": "麦克斯人", "color": "#262626", "oid": "103:1585278519510", "tyid": "304001", "fontsize": 12, "halo": 0.8 }, "geometry": { "type": "Point", "coordinates": [ -96.328125, 18.062312 ] } }
{ "type": "Feature", "tippecanoe": { "layer": "7F5D7CF955181585559477339", "minzoom": 2, "maxzoom": 8 }, "properties": { "title": "后奥尔梅克文化", "color": "#262626", "oid": "103:1585278519228", "tyid": "304002", "fontsize": 12, "halo": 0.8 }, "geometry": { "type": "Point", "coordinates": [ -95.625000, 18.479609 ] } }
{ "type": "Feature", "tippecanoe": { "layer": "7F5D7CF955181585559477339", "minzoom": 2, "maxzoom": 8 }, "properties": { "title": "祖赫人", "color": "#262626", "oid": "103:1585278519625", "tyid": "304001", "fontsize": 12, "halo": 0.8 }, "geometry": { "type": "Point", "coordinates": [ -92.109375, 16.045813 ] } }
{ "type": "Feature", "tippecanoe": { "layer": "7F5D7CF955181585559477339", "minzoom": 2, "maxzoom": 8 }, "properties": { "title": "基切人", "color": "#262626", "oid": "103:1585278519220", "tyid": "304001", "fontsize": 12, "halo": 0.8 }, "geometry": { "type": "Point", "coordinates": [ -90.966797, 15.029686 ] } }
{ "type": "Feature", "tippecanoe": { "layer": "7F5D7CF955181585559477339", "minzoom": 2, "maxzoom": 8 }, "properties": { "title": "阿尔托山文化", "color": "#262626", "oid": "103:1585278519447", "tyid": "304002", "fontsize": 12, "halo": 0.8 }, "geometry": { "type": "Point", "coordinates": [ -91.054688, 14.349548 ] } }
{ "type": "Feature", "tippecanoe": { "layer": "7F5D7CF955181585559477339", "minzoom": 2, "maxzoom": 8 }, "properties": { "title": "玛纳索塔文化", "color": "#262626", "oid": "103:1585278519582", "tyid": "304002", "fontsize": 12, "halo": 0.8 }, "geometry": { "type": "Point", "coordinates": [ -82.441406, 27.683528 ] } }
{ "type": "Feature", "tippecanoe": { "layer": "7F5D7CF955181585559477339", "minzoom": 2, "maxzoom": 8 }, "properties": { "title": "卡卢萨人", "color": "#262626", "oid": "103:1585278519703", "tyid": "304001", "fontsize": 12, "halo": 0.8 }, "geometry": { "type": "Point", "coordinates": [ -81.650391, 27.137368 ] } }
{ "type": "Feature", "tippecanoe": { "layer": "7F5D7CF955181585559477339", "minzoom": 2, "maxzoom": 8 }, "properties": { "title": "圣约翰文化", "color": "#262626", "oid": "103:1585278519238", "tyid": "304002", "fontsize": 12, "halo": 0.8 }, "geometry": { "type": "Point", "coordinates": [ -81.474609, 29.382175 ] } }
{ "type": "Feature", "tippecanoe": { "layer": "7F5D7CF955181585559477339", "minzoom": 2, "maxzoom": 8 }, "properties": { "title": "贝尔格莱德文化", "color": "#262626", "oid": "103:1585278519372", "tyid": "304002", "fontsize": 12, "halo": 0.8 }, "geometry": { "type": "Point", "coordinates": [ -80.859375, 27.449790 ] } }
{ "type": "Feature", "tippecanoe": { "layer": "7F5D7CF955181585559477339", "minzoom": 2, "maxzoom": 8 }, "properties": { "title": "格莱兹文化", "color": "#262626", "oid": "103:1585278519414", "tyid": "304002", "fontsize": 12, "halo": 0.8 }, "geometry": { "type": "Point", "coordinates": [ -80.771484, 26.037042 ] } }
{ "type": "Feature", "tippecanoe": { "layer": "7F5D7CF955181585559477339", "minzoom": 2, "maxzoom": 8 }, "properties": { "title": "德贵斯塔族", "color": "#262626", "oid": "103:1585278519187", "tyid": "304001", "fontsize": 12, "halo": 0.8 }, "geometry": { "type": "Point", "coordinates": [ -80.419922, 25.562265 ] } }
{ "type": "Feature", "tippecanoe": { "layer": "7F5D7CF955181585559477339", "minzoom": 2, "maxzoom": 8 }, "properties": { "title": "雷卡人", "color": "#262626", "oid": "103:1585278519425", "tyid": "304001", "fontsize": 12, "halo": 0.8 }, "geometry": { "type": "Point", "coordinates": [ -87.802734, 13.752725 ] } }
{ "type": "Feature", "tippecanoe": { "layer": "7F5D7CF955181585559477339", "minzoom": 2, "maxzoom": 8 }, "properties": { "title": "格兰科克勒文化", "color": "#262626", "oid": "103:1585278519405", "tyid": "304002", "fontsize": 12, "halo": 0.8 }, "geometry": { "type": "Point", "coordinates": [ -80.507812, 8.581021 ] } }
{ "type": "Feature", "tippecanoe": { "layer": "7F5D7CF955181585559477339", "minzoom": 2, "maxzoom": 8 }, "properties": { "title": "伊拉玛文化", "color": "#262626", "oid": "103:1585278519708", "tyid": "304002", "fontsize": 12, "halo": 0.8 }, "geometry": { "type": "Point", "coordinates": [ -76.201172, 4.302591 ] } }
{ "type": "Feature", "tippecanoe": { "layer": "7F5D7CF955181585559477339", "minzoom": 2, "maxzoom": 8 }, "properties": { "title": "马拉加纳文化", "color": "#262626", "oid": "103:1585278519226", "tyid": "304002", "fontsize": 12, "halo": 0.8 }, "geometry": { "type": "Point", "coordinates": [ -76.289062, 3.425692 ] } }
{ "type": "Feature", "tippecanoe": { "layer": "7F5D7CF955181585559477339", "minzoom": 2, "maxzoom": 8 }, "properties": { "title": "科罗索文化", "color": "#262626", "oid": "103:1585278519386", "tyid": "304002", "fontsize": 12, "halo": 0.8 }, "geometry": { "type": "Point", "coordinates": [ -66.533203, 18.229351 ] } }
{ "type": "Feature", "tippecanoe": { "layer": "7F5D7CF955181585559477339", "minzoom": 2, "maxzoom": 8 }, "properties": { "title": "大庄园文化", "color": "#262626", "oid": "103:1585278519198", "tyid": "304002", "fontsize": 12, "halo": 0.8 }, "geometry": { "type": "Point", "coordinates": [ -65.917969, 18.396230 ] } }
{ "type": "Feature", "tippecanoe": { "layer": "7F5D7CF955181585559477339", "minzoom": 2, "maxzoom": 8 }, "properties": { "title": "克鲁姆湾文化", "color": "#262626", "oid": "103:1585278519361", "tyid": "304002", "fontsize": 12, "halo": 0.8 }, "geometry": { "type": "Point", "coordinates": [ -64.775391, 17.811456 ] } }
{ "type": "Feature", "tippecanoe": { "layer": "7F5D7CF955181585559477339", "minzoom": 2, "maxzoom": 8 }, "properties": { "title": "萨拉杜文化", "color": "#262626", "oid": "103:1585278519489", "tyid": "304002", "fontsize": 12, "halo": 0.8 }, "geometry": { "type": "Point", "coordinates": [ -61.699219, 16.214675 ] } }
{ "type": "Feature", "tippecanoe": { "layer": "7F5D7CF955181585559477339", "minzoom": 2, "maxzoom": 8 }, "properties": { "title": "坎塔布里人", "color": "#262626", "oid": "103:1585278519592", "tyid": "304001", "fontsize": 12, "halo": 0.8 }, "geometry": { "type": "Point", "coordinates": [ -4.394531, 43.068888 ] } }
{ "type": "Feature", "tippecanoe": { "layer": "7F5D7CF955181585559477339", "minzoom": 2, "maxzoom": 8 }, "properties": { "title": "特罗莫吉人", "color": "#262626", "oid": "103:1585278519591", "tyid": "304001", "fontsize": 12, "halo": 0.8 }, "geometry": { "type": "Point", "coordinates": [ -3.691406, 42.228517 ] } }
{ "type": "Feature", "tippecanoe": { "layer": "7F5D7CF955181585559477339", "minzoom": 2, "maxzoom": 8 }, "properties": { "title": "奥特里冈人", "color": "#262626", "oid": "103:1585278519616", "tyid": "304001", "fontsize": 12, "halo": 0.8 }, "geometry": { "type": "Point", "coordinates": [ -3.251953, 42.875964 ] } }
{ "type": "Feature", "tippecanoe": { "layer": "7F5D7CF955181585559477339", "minzoom": 2, "maxzoom": 8 }, "properties": { "title": "卡斯蒂利人", "color": "#262626", "oid": "103:1585278519595", "tyid": "304001", "fontsize": 12, "halo": 0.8 }, "geometry": { "type": "Point", "coordinates": [ -2.812500, 43.068888 ] } }
{ "type": "Feature", "tippecanoe": { "layer": "7F5D7CF955181585559477339", "minzoom": 2, "maxzoom": 8 }, "properties": { "title": "瓦杜里人", "color": "#262626", "oid": "103:1585278519613", "tyid": "304001", "fontsize": 12, "halo": 0.8 }, "geometry": { "type": "Point", "coordinates": [ -2.285156, 42.940339 ] } }
{ "type": "Feature", "tippecanoe": { "layer": "7F5D7CF955181585559477339", "minzoom": 2, "maxzoom": 8 }, "properties": { "title": "伯罗内人", "color": "#262626", "oid": "103:1585278519597", "tyid": "304001", "fontsize": 12, "halo": 0.8 }, "geometry": { "type": "Point", "coordinates": [ -2.548828, 42.293564 ] } }
{ "type": "Feature", "tippecanoe": { "layer": "7F5D7CF955181585559477339", "minzoom": 2, "maxzoom": 8 }, "properties": { "title": "巴斯克人", "color": "#262626", "oid": "103:1585278519397", "tyid": "304001", "fontsize": 12, "halo": 0.8 }, "geometry": { "type": "Point", "coordinates": [ -1.494141, 42.811522 ] } }
{ "type": "Feature", "tippecanoe": { "layer": "7F5D7CF955181585559477339", "minzoom": 2, "maxzoom": 8 }, "properties": { "title": "伊塞塔尼人", "color": "#262626", "oid": "103:1585278519253", "tyid": "304001", "fontsize": 12, "halo": 0.8 }, "geometry": { "type": "Point", "coordinates": [ -1.054688, 42.293564 ] } }
{ "type": "Feature", "tippecanoe": { "layer": "7F5D7CF955181585559477339", "minzoom": 2, "maxzoom": 8 }, "properties": { "title": "关切人", "color": "#262626", "oid": "103:1585278519581", "tyid": "304001", "fontsize": 12, "halo": 0.8 }, "geometry": { "type": "Point", "coordinates": [ -16.611328, 28.304381 ] } }
{ "type": "Feature", "tippecanoe": { "layer": "7F5D7CF955181585559477339", "minzoom": 2, "maxzoom": 8 }, "properties": { "title": "图尔杜利奥皮迪尼人", "color": "#262626", "oid": "103:1585278519657", "tyid": "304001", "fontsize": 12, "halo": 0.8 }, "geometry": { "type": "Point", "coordinates": [ -8.789062, 39.909736 ] } }
{ "type": "Feature", "tippecanoe": { "layer": "7F5D7CF955181585559477339", "minzoom": 2, "maxzoom": 8 }, "properties": { "title": "西尼特人", "color": "#262626", "oid": "103:1585278519482", "tyid": "304001", "fontsize": 12, "halo": 0.8 }, "geometry": { "type": "Point", "coordinates": [ -7.998047, 37.649034 ] } }
{ "type": "Feature", "tippecanoe": { "layer": "7F5D7CF955181585559477339", "minzoom": 2, "maxzoom": 8 }, "properties": { "title": "图尔德泰尼人", "color": "#262626", "oid": "103:1585278519655", "tyid": "304001", "fontsize": 12, "halo": 0.8 }, "geometry": { "type": "Point", "coordinates": [ -5.449219, 38.203655 ] } }
{ "type": "Feature", "tippecanoe": { "layer": "7F5D7CF955181585559477339", "minzoom": 2, "maxzoom": 8 }, "properties": { "title": "奥雷塔尼人", "color": "#262626", "oid": "103:1585278519297", "tyid": "304001", "fontsize": 12, "halo": 0.8 }, "geometry": { "type": "Point", "coordinates": [ -3.339844, 38.754083 ] } }
{ "type": "Feature", "tippecanoe": { "layer": "7F5D7CF955181585559477339", "minzoom": 2, "maxzoom": 8 }, "properties": { "title": "埃德塔尼人", "color": "#262626", "oid": "103:1585278519707", "tyid": "304001", "fontsize": 12, "halo": 0.8 }, "geometry": { "type": "Point", "coordinates": [ -1.757812, 39.436193 ] } }
{ "type": "Feature", "tippecanoe": { "layer": "7F5D7CF955181585559477339", "minzoom": 2, "maxzoom": 8 }, "properties": { "title": "巴斯塔尼人", "color": "#262626", "oid": "103:1585278519705", "tyid": "304001", "fontsize": 12, "halo": 0.8 }, "geometry": { "type": "Point", "coordinates": [ -1.933594, 38.891033 ] } }
{ "type": "Feature", "tippecanoe": { "layer": "7F5D7CF955181585559477339", "minzoom": 2, "maxzoom": 8 }, "properties": { "title": "瓜纳加拉文化", "color": "#262626", "oid": "103:1585278519608", "tyid": "304002", "fontsize": 12, "halo": 0.8 }, "geometry": { "type": "Point", "coordinates": [ -80.595703, -1.669686 ] } }
{ "type": "Feature", "tippecanoe": { "layer": "7F5D7CF955181585559477339", "minzoom": 2, "maxzoom": 8 }, "properties": { "title": "巴伊亚文化", "color": "#262626", "oid": "103:1585278519671", "tyid": "304002", "fontsize": 12, "halo": 0.8 }, "geometry": { "type": "Point", "coordinates": [ -80.068359, -0.527336 ] } }
{ "type": "Feature", "tippecanoe": { "layer": "7F5D7CF955181585559477339", "minzoom": 2, "maxzoom": 8 }, "properties": { "title": "查文文化", "color": "#262626", "oid": "103:1585278519295", "tyid": "304002", "fontsize": 12, "halo": 0.8 }, "geometry": { "type": "Point", "coordinates": [ -77.958984, -8.320212 ] } }
{ "type": "Feature", "tippecanoe": { "layer": "7F5D7CF955181585559477339", "minzoom": 2, "maxzoom": 8 }, "properties": { "title": "卡斯马-赛钦文化", "color": "#262626", "oid": "103:1585278519635", "tyid": "304002", "fontsize": 12, "halo": 0.8 }, "geometry": { "type": "Point", "coordinates": [ -77.958984, -9.622414 ] } }
{ "type": "Feature", "tippecanoe": { "layer": "7F5D7CF955181585559477339", "minzoom": 2, "maxzoom": 8 }, "properties": { "title": "帕拉卡斯文化", "color": "#262626", "oid": "103:1585278519627", "tyid": "304002", "fontsize": 12, "halo": 0.8 }, "geometry": { "type": "Point", "coordinates": [ -75.673828, -14.179186 ] } }
{ "type": "Feature", "tippecanoe": { "layer": "7F5D7CF955181585559477339", "minzoom": 2, "maxzoom": 8 }, "properties": { "title": "塔夫文化", "color": "#262626", "oid": "103:1585278519139", "tyid": "304002", "fontsize": 12, "halo": 0.8 }, "geometry": { "type": "Point", "coordinates": [ -65.654297, -26.980829 ] } }
{ "type": "Feature", "tippecanoe": { "layer": "7F5D7CF955181585559477339", "minzoom": 2, "maxzoom": 8 }, "properties": { "title": "豪什人", "color": "#262626", "oid": "103:1585278519542", "tyid": "304001", "fontsize": 12, "halo": 0.8 }, "geometry": { "type": "Point", "coordinates": [ -65.917969, -54.724620 ] } }
{ "type": "Feature", "tippecanoe": { "layer": "7F5D7CF955181585559477339", "minzoom": 2, "maxzoom": 8 }, "properties": { "title": "阿洛布罗基人", "color": "#262626", "oid": "103:1585278519460", "tyid": "304001", "fontsize": 12, "halo": 0.8 }, "geometry": { "type": "Point", "coordinates": [ 5.537109, 45.706179 ] } }
{ "type": "Feature", "tippecanoe": { "layer": "7F5D7CF955181585559477339", "minzoom": 2, "maxzoom": 8 }, "properties": { "title": "伊勒格泰人", "color": "#262626", "oid": "103:1585278519181", "tyid": "304001", "fontsize": 12, "halo": 0.8 }, "geometry": { "type": "Point", "coordinates": [ 0.527344, 42.682435 ] } }
{ "type": "Feature", "tippecanoe": { "layer": "7F5D7CF955181585559477339", "minzoom": 2, "maxzoom": 8 }, "properties": { "title": "英迪格人", "color": "#262626", "oid": "103:1585278519360", "tyid": "304001", "fontsize": 12, "halo": 0.8 }, "geometry": { "type": "Point", "coordinates": [ 2.548828, 42.617791 ] } }
{ "type": "Feature", "tippecanoe": { "layer": "7F5D7CF955181585559477339", "minzoom": 2, "maxzoom": 8 }, "properties": { "title": "马萨利亚", "color": "#202020", "oid": "103:1585278519578", "tyid": "304000", "fontsize": 12, "halo": 0.8 }, "geometry": { "type": "Point", "coordinates": [ 5.449219, 43.325178 ] } }
{ "type": "Feature", "tippecanoe": { "layer": "7F5D7CF955181585559477339", "minzoom": 2, "maxzoom": 8 }, "properties": { "title": "帕莱波利斯", "color": "#202020", "oid": "103:1585278519713", "tyid": "304000", "fontsize": 12, "halo": 0.8 }, "geometry": { "type": "Point", "coordinates": [ 3.076172, 42.163403 ] } }
{ "type": "Feature", "tippecanoe": { "layer": "7F5D7CF955181585559477339", "minzoom": 2, "maxzoom": 8 }, "properties": { "title": "萨拉西人", "color": "#262626", "oid": "103:1585278519563", "tyid": "304001", "fontsize": 12, "halo": 0.8 }, "geometry": { "type": "Point", "coordinates": [ 6.943359, 45.521744 ] } }
{ "type": "Feature", "tippecanoe": { "layer": "7F5D7CF955181585559477339", "minzoom": 2, "maxzoom": 8 }, "properties": { "title": "西杜里人", "color": "#262626", "oid": "103:1585278519561", "tyid": "304001", "fontsize": 12, "halo": 0.8 }, "geometry": { "type": "Point", "coordinates": [ 7.470703, 46.195042 ] } }
{ "type": "Feature", "tippecanoe": { "layer": "7F5D7CF955181585559477339", "minzoom": 2, "maxzoom": 8 }, "properties": { "title": "勒庞提人", "color": "#262626", "oid": "103:1585278519284", "tyid": "304001", "fontsize": 12, "halo": 0.8 }, "geometry": { "type": "Point", "coordinates": [ 8.437500, 46.134170 ] } }
{ "type": "Feature", "tippecanoe": { "layer": "7F5D7CF955181585559477339", "minzoom": 2, "maxzoom": 8 }, "properties": { "title": "卡莫尼卡人", "color": "#262626", "oid": "103:1585278519145", "tyid": "304001", "fontsize": 12, "halo": 0.8 }, "geometry": { "type": "Point", "coordinates": [ 10.195312, 46.012224 ] } }
{ "type": "Feature", "tippecanoe": { "layer": "7F5D7CF955181585559477339", "minzoom": 2, "maxzoom": 8 }, "properties": { "title": "摩诺伊科", "color": "#202020", "oid": "103:1585278519336", "tyid": "304000", "fontsize": 12, "halo": 0.8 }, "geometry": { "type": "Point", "coordinates": [ 7.382812, 43.771094 ] } }
{ "type": "Feature", "tippecanoe": { "layer": "7F5D7CF955181585559477339", "minzoom": 2, "maxzoom": 8 }, "properties": { "title": "威尼蒂人[亚得里亚海]", "color": "#262626", "oid": "103:1585278519146", "tyid": "304001", "fontsize": 12, "halo": 0.8 }, "geometry": { "type": "Point", "coordinates": [ 12.216797, 46.012224 ] } }
{ "type": "Feature", "tippecanoe": { "layer": "7F5D7CF955181585559477339", "minzoom": 2, "maxzoom": 8 }, "properties": { "title": "皮斯特罗斯", "color": "#202020", "oid": "103:1585278519681", "tyid": "304000", "fontsize": 12, "halo": 0.8 }, "geometry": { "type": "Point", "coordinates": [ 23.994141, 42.293564 ] } }
{ "type": "Feature", "tippecanoe": { "layer": "7F5D7CF955181585559477339", "minzoom": 2, "maxzoom": 8 }, "properties": { "title": "奥德索斯", "color": "#202020", "oid": "103:1585278519577", "tyid": "304000", "fontsize": 12, "halo": 0.8 }, "geometry": { "type": "Point", "coordinates": [ 27.861328, 43.261206 ] } }
{ "type": "Feature", "tippecanoe": { "layer": "7F5D7CF955181585559477339", "minzoom": 2, "maxzoom": 8 }, "properties": { "title": "安恰罗斯", "color": "#202020", "oid": "103:1585278519453", "tyid": "304000", "fontsize": 12, "halo": 0.8 }, "geometry": { "type": "Point", "coordinates": [ 27.509766, 42.617791 ] } }
{ "type": "Feature", "tippecanoe": { "layer": "7F5D7CF955181585559477339", "minzoom": 2, "maxzoom": 8 }, "properties": { "title": "梅森布里亚", "color": "#202020", "oid": "103:1585278519675", "tyid": "304000", "fontsize": 12, "halo": 0.8 }, "geometry": { "type": "Point", "coordinates": [ 27.597656, 42.682435 ] } }
{ "type": "Feature", "tippecanoe": { "layer": "7F5D7CF955181585559477339", "minzoom": 2, "maxzoom": 8 }, "properties": { "title": "阿波罗尼亚·潘提卡", "color": "#202020", "oid": "103:1585278519676", "tyid": "304000", "fontsize": 12, "halo": 0.8 }, "geometry": { "type": "Point", "coordinates": [ 27.597656, 42.423457 ] } }
{ "type": "Feature", "tippecanoe": { "layer": "7F5D7CF955181585559477339", "minzoom": 2, "maxzoom": 8 }, "properties": { "title": "提拉斯", "color": "#202020", "oid": "103:1585278519462", "tyid": "304000", "fontsize": 12, "halo": 0.8 }, "geometry": { "type": "Point", "coordinates": [ 30.234375, 46.134170 ] } }
{ "type": "Feature", "tippecanoe": { "layer": "7F5D7CF955181585559477339", "minzoom": 2, "maxzoom": 8 }, "properties": { "title": "奥里维亚", "color": "#262626", "oid": "103:1585278519348", "tyid": "304002", "fontsize": 12, "halo": 0.8 }, "geometry": { "type": "Point", "coordinates": [ 31.816406, 46.679594 ] } }
{ "type": "Feature", "tippecanoe": { "layer": "7F5D7CF955181585559477339", "minzoom": 2, "maxzoom": 8 }, "properties": { "title": "克尔柯特", "color": "#202020", "oid": "103:1585278519673", "tyid": "304000", "fontsize": 12, "halo": 0.8 }, "geometry": { "type": "Point", "coordinates": [ 33.398438, 45.274886 ] } }
{ "type": "Feature", "tippecanoe": { "layer": "7F5D7CF955181585559477339", "minzoom": 2, "maxzoom": 8 }, "properties": { "title": "希斯特里亚", "color": "#202020", "oid": "103:1585278519677", "tyid": "304000", "fontsize": 12, "halo": 0.8 }, "geometry": { "type": "Point", "coordinates": [ 28.652344, 44.590467 ] } }
{ "type": "Feature", "tippecanoe": { "layer": "7F5D7CF955181585559477339", "minzoom": 2, "maxzoom": 8 }, "properties": { "title": "托米斯", "color": "#202020", "oid": "103:1585278519680", "tyid": "304000", "fontsize": 12, "halo": 0.8 }, "geometry": { "type": "Point", "coordinates": [ 28.476562, 44.213710 ] } }
{ "type": "Feature", "tippecanoe": { "layer": "7F5D7CF955181585559477339", "minzoom": 2, "maxzoom": 8 }, "properties": { "title": "埃吉索斯", "color": "#202020", "oid": "103:1585278519576", "tyid": "304000", "fontsize": 12, "halo": 0.8 }, "geometry": { "type": "Point", "coordinates": [ 29.355469, 45.026950 ] } }
{ "type": "Feature", "tippecanoe": { "layer": "7F5D7CF955181585559477339", "minzoom": 2, "maxzoom": 8 }, "properties": { "title": "卡拉提斯", "color": "#202020", "oid": "103:1585278519174", "tyid": "304000", "fontsize": 12, "halo": 0.8 }, "geometry": { "type": "Point", "coordinates": [ 28.564453, 43.834527 ] } }
{ "type": "Feature", "tippecanoe": { "layer": "7F5D7CF955181585559477339", "minzoom": 2, "maxzoom": 8 }, "properties": { "title": "迪奥尼索波利斯", "color": "#202020", "oid": "103:1585278519358", "tyid": "304000", "fontsize": 12, "halo": 0.8 }, "geometry": { "type": "Point", "coordinates": [ 28.125000, 43.452919 ] } }
{ "type": "Feature", "tippecanoe": { "layer": "7F5D7CF955181585559477339", "minzoom": 2, "maxzoom": 8 }, "properties": { "title": "拜佐恩", "color": "#202020", "oid": "103:1585278519672", "tyid": "304000", "fontsize": 12, "halo": 0.8 }, "geometry": { "type": "Point", "coordinates": [ 28.300781, 43.452919 ] } }
{ "type": "Feature", "tippecanoe": { "layer": "7F5D7CF955181585559477339", "minzoom": 2, "maxzoom": 8 }, "properties": { "title": "拜占庭", "color": "#202020", "oid": "103:1585278519465", "tyid": "304000", "fontsize": 12, "halo": 0.8 }, "geometry": { "type": "Point", "coordinates": [ 28.740234, 41.178654 ] } }
{ "type": "Feature", "tippecanoe": { "layer": "7F5D7CF955181585559477339", "minzoom": 2, "maxzoom": 8 }, "properties": { "title": "克森尼索", "color": "#202020", "oid": "103:1585278519314", "tyid": "304000", "fontsize": 12, "halo": 0.8 }, "geometry": { "type": "Point", "coordinates": [ 33.750000, 44.590467 ] } }
{ "type": "Feature", "tippecanoe": { "layer": "7F5D7CF955181585559477339", "minzoom": 2, "maxzoom": 8 }, "properties": { "title": "杜林人", "color": "#262626", "oid": "103:1585278519312", "tyid": "304001", "fontsize": 12, "halo": 0.8 }, "geometry": { "type": "Point", "coordinates": [ 34.541016, 44.964798 ] } }
{ "type": "Feature", "tippecanoe": { "layer": "7F5D7CF955181585559477339", "minzoom": 2, "maxzoom": 8 }, "properties": { "title": "博斯普鲁斯王国", "color": "#202020", "oid": "103:1585278519211", "tyid": "304000", "fontsize": 12, "halo": 0.8 }, "geometry": { "type": "Point", "coordinates": [ 37.441406, 45.026950 ] } }
{ "type": "Feature", "tippecanoe": { "layer": "7F5D7CF955181585559477339", "minzoom": 2, "maxzoom": 8 }, "properties": { "title": "辛迪人", "color": "#262626", "oid": "103:1585278519696", "tyid": "304001", "fontsize": 12, "halo": 0.8 }, "geometry": { "type": "Point", "coordinates": [ 38.759766, 44.715514 ] } }
{ "type": "Feature", "tippecanoe": { "layer": "7F5D7CF955181585559477339", "minzoom": 2, "maxzoom": 8 }, "properties": { "title": "庞蒂克希腊人", "color": "#262626", "oid": "103:1585278519302", "tyid": "304001", "fontsize": 12, "halo": 0.8 }, "geometry": { "type": "Point", "coordinates": [ 39.287109, 41.046217 ] } }
{ "type": "Feature", "tippecanoe": { "layer": "7F5D7CF955181585559477339", "minzoom": 2, "maxzoom": 8 }, "properties": { "title": "特里格莱特", "color": "#202020", "oid": "103:1585278519338", "tyid": "304000", "fontsize": 12, "halo": 0.8 }, "geometry": { "type": "Point", "coordinates": [ 40.253906, 43.261206 ] } }
{ "type": "Feature", "tippecanoe": { "layer": "7F5D7CF955181585559477339", "minzoom": 2, "maxzoom": 8 }, "properties": { "title": "狄奥斯库里亚", "color": "#202020", "oid": "103:1585278519307", "tyid": "304000", "fontsize": 12, "halo": 0.8 }, "geometry": { "type": "Point", "coordinates": [ 40.957031, 43.068888 ] } }
{ "type": "Feature", "tippecanoe": { "layer": "7F5D7CF955181585559477339", "minzoom": 2, "maxzoom": 8 }, "properties": { "title": "费西斯", "color": "#202020", "oid": "103:1585278519463", "tyid": "304000", "fontsize": 12, "halo": 0.8 }, "geometry": { "type": "Point", "coordinates": [ 41.660156, 42.163403 ] } }
{ "type": "Feature", "tippecanoe": { "layer": "7F5D7CF955181585559477339", "minzoom": 2, "maxzoom": 8 }, "properties": { "title": "巴斯", "color": "#202020", "oid": "103:1585278519455", "tyid": "304000", "fontsize": 12, "halo": 0.8 }, "geometry": { "type": "Point", "coordinates": [ 41.660156, 41.640078 ] } }
{ "type": "Feature", "tippecanoe": { "layer": "7F5D7CF955181585559477339", "minzoom": 2, "maxzoom": 8 }, "properties": { "title": "阿卡尔纳尼亚同盟", "color": "#202020", "oid": "103:1585278519456", "tyid": "304000", "fontsize": 12, "halo": 0.8 }, "geometry": { "type": "Point", "coordinates": [ 20.917969, 38.754083 ] } }
{ "type": "Feature", "tippecanoe": { "layer": "7F5D7CF955181585559477339", "minzoom": 2, "maxzoom": 8 }, "properties": { "title": "厄利斯", "color": "#202020", "oid": "103:1585278519333", "tyid": "304000", "fontsize": 12, "halo": 0.8 }, "geometry": { "type": "Point", "coordinates": [ 21.445312, 37.788081 ] } }
{ "type": "Feature", "tippecanoe": { "layer": "7F5D7CF955181585559477339", "minzoom": 2, "maxzoom": 8 }, "properties": { "title": "埃托利亚同盟", "color": "#202020", "oid": "103:1585278519256", "tyid": "304000", "fontsize": 12, "halo": 0.8 }, "geometry": { "type": "Point", "coordinates": [ 21.796875, 38.754083 ] } }
{ "type": "Feature", "tippecanoe": { "layer": "7F5D7CF955181585559477339", "minzoom": 2, "maxzoom": 8 }, "properties": { "title": "阿凯亚同盟", "color": "#202020", "oid": "103:1585278519304", "tyid": "304000", "fontsize": 12, "halo": 0.8 }, "geometry": { "type": "Point", "coordinates": [ 22.324219, 37.788081 ] } }
{ "type": "Feature", "tippecanoe": { "layer": "7F5D7CF955181585559477339", "minzoom": 2, "maxzoom": 8 }, "properties": { "title": "古美西尼", "color": "#202020", "oid": "103:1585278519567", "tyid": "304000", "fontsize": 12, "halo": 0.8 }, "geometry": { "type": "Point", "coordinates": [ 21.796875, 37.160317 ] } }
{ "type": "Feature", "tippecanoe": { "layer": "7F5D7CF955181585559477339", "minzoom": 2, "maxzoom": 8 }, "properties": { "title": "彼奥提亚同盟", "color": "#202020", "oid": "103:1585278519437", "tyid": "304000", "fontsize": 12, "halo": 0.8 }, "geometry": { "type": "Point", "coordinates": [ 23.115234, 38.410558 ] } }
{ "type": "Feature", "tippecanoe": { "layer": "7F5D7CF955181585559477339", "minzoom": 2, "maxzoom": 8 }, "properties": { "title": "优卑亚同盟", "color": "#202020", "oid": "103:1585278519429", "tyid": "304000", "fontsize": 12, "halo": 0.8 }, "geometry": { "type": "Point", "coordinates": [ 23.730469, 38.616870 ] } }
{ "type": "Feature", "tippecanoe": { "layer": "7F5D7CF955181585559477339", "minzoom": 2, "maxzoom": 8 }, "properties": { "title": "斯巴达", "color": "#202020", "oid": "103:1585278519258", "tyid": "304000", "fontsize": 12, "halo": 0.8 }, "geometry": { "type": "Point", "coordinates": [ 22.587891, 37.020098 ] } }
{ "type": "Feature", "tippecanoe": { "layer": "7F5D7CF955181585559477339", "minzoom": 2, "maxzoom": 8 }, "properties": { "title": "帕加马王国", "color": "#202020", "oid": "103:1585278519225", "tyid": "304000", "fontsize": 12, "halo": 0.8 }, "geometry": { "type": "Point", "coordinates": [ 27.246094, 39.436193 ] } }
{ "type": "Feature", "tippecanoe": { "layer": "7F5D7CF955181585559477339", "minzoom": 2, "maxzoom": 8 }, "properties": { "title": "克里特", "color": "#202020", "oid": "103:1585278519569", "tyid": "304000", "fontsize": 12, "halo": 0.8 }, "geometry": { "type": "Point", "coordinates": [ 24.785156, 35.245619 ] } }
{ "type": "Feature", "tippecanoe": { "layer": "7F5D7CF955181585559477339", "minzoom": 2, "maxzoom": 8 }, "properties": { "title": "罗德斯国", "color": "#202020", "oid": "103:1585278519435", "tyid": "304000", "fontsize": 12, "halo": 0.8 }, "geometry": { "type": "Point", "coordinates": [ 27.949219, 36.244273 ] } }
{ "type": "Feature", "tippecanoe": { "layer": "7F5D7CF955181585559477339", "minzoom": 2, "maxzoom": 8 }, "properties": { "title": "以东王国", "color": "#202020", "oid": "103:1585278519410", "tyid": "304000", "fontsize": 12, "halo": 0.8 }, "geometry": { "type": "Point", "coordinates": [ 35.595703, 30.751278 ] } }
{ "type": "Feature", "tippecanoe": { "layer": "7F5D7CF955181585559477339", "minzoom": 2, "maxzoom": 8 }, "properties": { "title": "列兹金人", "color": "#262626", "oid": "103:1585278519318", "tyid": "304001", "fontsize": 12, "halo": 0.8 }, "geometry": { "type": "Point", "coordinates": [ 47.636719, 41.640078 ] } }
{ "type": "Feature", "tippecanoe": { "layer": "7F5D7CF955181585559477339", "minzoom": 2, "maxzoom": 8 }, "properties": { "title": "温宿国", "color": "#202020", "oid": "103:1585278519273", "tyid": "304000", "fontsize": 12, "halo": 0.8 }, "geometry": { "type": "Point", "coordinates": [ 79.277344, 41.310824 ] } }
{ "type": "Feature", "tippecanoe": { "layer": "7F5D7CF955181585559477339", "minzoom": 2, "maxzoom": 8 }, "properties": { "title": "乌贪訾离国", "color": "#202020", "oid": "103:1585278519185", "tyid": "304000", "fontsize": 12, "halo": 0.8 }, "geometry": { "type": "Point", "coordinates": [ 86.748047, 44.465151 ] } }
{ "type": "Feature", "tippecanoe": { "layer": "7F5D7CF955181585559477339", "minzoom": 2, "maxzoom": 8 }, "properties": { "title": "西且弥国", "color": "#202020", "oid": "103:1585278519501", "tyid": "304000", "fontsize": 12, "halo": 0.8 }, "geometry": { "type": "Point", "coordinates": [ 86.220703, 43.834527 ] } }
{ "type": "Feature", "tippecanoe": { "layer": "7F5D7CF955181585559477339", "minzoom": 2, "maxzoom": 8 }, "properties": { "title": "东且弥国", "color": "#202020", "oid": "103:1585278519596", "tyid": "304000", "fontsize": 12, "halo": 0.8 }, "geometry": { "type": "Point", "coordinates": [ 86.923828, 43.707594 ] } }
{ "type": "Feature", "tippecanoe": { "layer": "7F5D7CF955181585559477339", "minzoom": 2, "maxzoom": 8 }, "properties": { "title": "仑头国", "color": "#202020", "oid": "103:1585278519685", "tyid": "304000", "fontsize": 12, "halo": 0.8 }, "geometry": { "type": "Point", "coordinates": [ 84.638672, 41.244772 ] } }
{ "type": "Feature", "tippecanoe": { "layer": "7F5D7CF955181585559477339", "minzoom": 2, "maxzoom": 8 }, "properties": { "title": "焉耆国", "color": "#202020", "oid": "103:1585278519583", "tyid": "304000", "fontsize": 12, "halo": 0.8 }, "geometry": { "type": "Point", "coordinates": [ 85.957031, 41.902277 ] } }
{ "type": "Feature", "tippecanoe": { "layer": "7F5D7CF955181585559477339", "minzoom": 2, "maxzoom": 8 }, "properties": { "title": "劫国", "color": "#202020", "oid": "103:1585278519267", "tyid": "304000", "fontsize": 12, "halo": 0.8 }, "geometry": { "type": "Point", "coordinates": [ 87.802734, 44.150681 ] } }
{ "type": "Feature", "tippecanoe": { "layer": "7F5D7CF955181585559477339", "minzoom": 2, "maxzoom": 8 }, "properties": { "title": "卑陆后国", "color": "#202020", "oid": "103:1585278519407", "tyid": "304000", "fontsize": 12, "halo": 0.8 }, "geometry": { "type": "Point", "coordinates": [ 88.154297, 44.276671 ] } }
{ "type": "Feature", "tippecanoe": { "layer": "7F5D7CF955181585559477339", "minzoom": 2, "maxzoom": 8 }, "properties": { "title": "单桓国", "color": "#202020", "oid": "103:1585278519266", "tyid": "304000", "fontsize": 12, "halo": 0.8 }, "geometry": { "type": "Point", "coordinates": [ 87.539062, 44.024422 ] } }
{ "type": "Feature", "tippecanoe": { "layer": "7F5D7CF955181585559477339", "minzoom": 2, "maxzoom": 8 }, "properties": { "title": "卑陆国", "color": "#202020", "oid": "103:1585278519265", "tyid": "304000", "fontsize": 12, "halo": 0.8 }, "geometry": { "type": "Point", "coordinates": [ 88.066406, 43.961191 ] } }
{ "type": "Feature", "tippecanoe": { "layer": "7F5D7CF955181585559477339", "minzoom": 2, "maxzoom": 8 }, "properties": { "title": "孤胡国", "color": "#202020", "oid": "103:1585278519484", "tyid": "304000", "fontsize": 12, "halo": 0.8 }, "geometry": { "type": "Point", "coordinates": [ 87.978516, 43.389082 ] } }
{ "type": "Feature", "tippecanoe": { "layer": "7F5D7CF955181585559477339", "minzoom": 2, "maxzoom": 8 }, "properties": { "title": "卡塔班王国", "color": "#202020", "oid": "103:1585278519346", "tyid": "304000", "fontsize": 12, "halo": 0.8 }, "geometry": { "type": "Point", "coordinates": [ 45.791016, 14.859850 ] } }
{ "type": "Feature", "tippecanoe": { "layer": "7F5D7CF955181585559477339", "minzoom": 2, "maxzoom": 8 }, "properties": { "title": "难兜国", "color": "#202020", "oid": "103:1585278519682", "tyid": "304000", "fontsize": 12, "halo": 0.8 }, "geometry": { "type": "Point", "coordinates": [ 74.091797, 36.949892 ] } }
{ "type": "Feature", "tippecanoe": { "layer": "7F5D7CF955181585559477339", "minzoom": 2, "maxzoom": 8 }, "properties": { "title": "依耐国", "color": "#202020", "oid": "103:1585278519264", "tyid": "304000", "fontsize": 12, "halo": 0.8 }, "geometry": { "type": "Point", "coordinates": [ 75.849609, 38.616870 ] } }
{ "type": "Feature", "tippecanoe": { "layer": "7F5D7CF955181585559477339", "minzoom": 2, "maxzoom": 8 }, "properties": { "title": "蒲犁国", "color": "#202020", "oid": "103:1585278519422", "tyid": "304000", "fontsize": 12, "halo": 0.8 }, "geometry": { "type": "Point", "coordinates": [ 75.146484, 37.718590 ] } }
{ "type": "Feature", "tippecanoe": { "layer": "7F5D7CF955181585559477339", "minzoom": 2, "maxzoom": 8 }, "properties": { "title": "疏勒国", "color": "#202020", "oid": "103:1585278519290", "tyid": "304000", "fontsize": 12, "halo": 0.8 }, "geometry": { "type": "Point", "coordinates": [ 76.289062, 39.504041 ] } }
{ "type": "Feature", "tippecanoe": { "layer": "7F5D7CF955181585559477339", "minzoom": 2, "maxzoom": 8 }, "properties": { "title": "子合国", "color": "#202020", "oid": "103:1585278519440", "tyid": "304000", "fontsize": 12, "halo": 0.8 }, "geometry": { "type": "Point", "coordinates": [ 76.376953, 37.718590 ] } }
{ "type": "Feature", "tippecanoe": { "layer": "7F5D7CF955181585559477339", "minzoom": 2, "maxzoom": 8 }, "properties": { "title": "皮山国", "color": "#202020", "oid": "103:1585278519506", "tyid": "304000", "fontsize": 12, "halo": 0.8 }, "geometry": { "type": "Point", "coordinates": [ 78.574219, 37.509726 ] } }
{ "type": "Feature", "tippecanoe": { "layer": "7F5D7CF955181585559477339", "minzoom": 2, "maxzoom": 8 }, "properties": { "title": "戎卢国", "color": "#202020", "oid": "103:1585278519194", "tyid": "304000", "fontsize": 12, "halo": 0.8 }, "geometry": { "type": "Point", "coordinates": [ 83.144531, 36.668419 ] } }
{ "type": "Feature", "tippecanoe": { "layer": "7F5D7CF955181585559477339", "minzoom": 2, "maxzoom": 8 }, "properties": { "title": "渠勒国", "color": "#202020", "oid": "103:1585278519521", "tyid": "304000", "fontsize": 12, "halo": 0.8 }, "geometry": { "type": "Point", "coordinates": [ 80.947266, 36.385913 ] } }
{ "type": "Feature", "tippecanoe": { "layer": "7F5D7CF955181585559477339", "minzoom": 2, "maxzoom": 8 }, "properties": { "title": "小宛国", "color": "#202020", "oid": "103:1585278519507", "tyid": "304000", "fontsize": 12, "halo": 0.8 }, "geometry": { "type": "Point", "coordinates": [ 85.078125, 37.090240 ] } }
{ "type": "Feature", "tippecanoe": { "layer": "7F5D7CF955181585559477339", "minzoom": 2, "maxzoom": 8 }, "properties": { "title": "罗昂", "color": "#202020", "oid": "103:1585278519516", "tyid": "304000", "fontsize": 12, "halo": 0.8 }, "geometry": { "type": "Point", "coordinates": [ 89.208984, 29.152161 ] } }
{ "type": "Feature", "tippecanoe": { "layer": "7F5D7CF955181585559477339", "minzoom": 2, "maxzoom": 8 }, "properties": { "title": "藏", "color": "#202020", "oid": "103:1585278519637", "tyid": "304000", "fontsize": 12, "halo": 0.8 }, "geometry": { "type": "Point", "coordinates": [ 89.736328, 28.844674 ] } }
{ "type": "Feature", "tippecanoe": { "layer": "7F5D7CF955181585559477339", "minzoom": 2, "maxzoom": 8 }, "properties": { "title": "卓木南木松", "color": "#202020", "oid": "103:1585278519255", "tyid": "304000", "fontsize": 12, "halo": 0.8 }, "geometry": { "type": "Point", "coordinates": [ 88.945312, 27.839076 ] } }
{ "type": "Feature", "tippecanoe": { "layer": "7F5D7CF955181585559477339", "minzoom": 2, "maxzoom": 8 }, "properties": { "title": "牟湿迦王国", "color": "#202020", "oid": "103:1585278519684", "tyid": "304000", "fontsize": 12, "halo": 0.8 }, "geometry": { "type": "Point", "coordinates": [ 75.234375, 12.811801 ] } }
{ "type": "Feature", "tippecanoe": { "layer": "7F5D7CF955181585559477339", "minzoom": 2, "maxzoom": 8 }, "properties": { "title": "阿伊王国", "color": "#202020", "oid": "103:1585278519289", "tyid": "304000", "fontsize": 12, "halo": 0.8 }, "geometry": { "type": "Point", "coordinates": [ 77.080078, 8.667918 ] } }
{ "type": "Feature", "tippecanoe": { "layer": "7F5D7CF955181585559477339", "minzoom": 2, "maxzoom": 8 }, "properties": { "title": "吉", "color": "#202020", "oid": "103:1585278519470", "tyid": "304000", "fontsize": 12, "halo": 0.8 }, "geometry": { "type": "Point", "coordinates": [ 91.406250, 29.764377 ] } }
{ "type": "Feature", "tippecanoe": { "layer": "7F5D7CF955181585559477339", "minzoom": 2, "maxzoom": 8 }, "properties": { "title": "琛", "color": "#202020", "oid": "103:1585278519517", "tyid": "304000", "fontsize": 12, "halo": 0.8 }, "geometry": { "type": "Point", "coordinates": [ 91.230469, 29.382175 ] } }
{ "type": "Feature", "tippecanoe": { "layer": "7F5D7CF955181585559477339", "minzoom": 2, "maxzoom": 8 }, "properties": { "title": "悉补野", "color": "#202020", "oid": "103:1585278519189", "tyid": "304000", "fontsize": 12, "halo": 0.8 }, "geometry": { "type": "Point", "coordinates": [ 91.845703, 29.152161 ] } }
{ "type": "Feature", "tippecanoe": { "layer": "7F5D7CF955181585559477339", "minzoom": 2, "maxzoom": 8 }, "properties": { "title": "俄玉邦噶", "color": "#202020", "oid": "103:1585278519188", "tyid": "304000", "fontsize": 12, "halo": 0.8 }, "geometry": { "type": "Point", "coordinates": [ 92.548828, 29.152161 ] } }
{ "type": "Feature", "tippecanoe": { "layer": "7F5D7CF955181585559477339", "minzoom": 2, "maxzoom": 8 }, "properties": { "title": "娘", "color": "#202020", "oid": "103:1585278519375", "tyid": "304000", "fontsize": 12, "halo": 0.8 }, "geometry": { "type": "Point", "coordinates": [ 93.339844, 29.916852 ] } }
{ "type": "Feature", "tippecanoe": { "layer": "7F5D7CF955181585559477339", "minzoom": 2, "maxzoom": 8 }, "properties": { "title": "贡", "color": "#202020", "oid": "103:1585278519469", "tyid": "304000", "fontsize": 12, "halo": 0.8 }, "geometry": { "type": "Point", "coordinates": [ 94.482422, 29.688053 ] } }
{ "type": "Feature", "tippecanoe": { "layer": "7F5D7CF955181585559477339", "minzoom": 2, "maxzoom": 8 }, "properties": { "title": "达", "color": "#202020", "oid": "103:1585278519366", "tyid": "304000", "fontsize": 12, "halo": 0.8 }, "geometry": { "type": "Point", "coordinates": [ 93.603516, 29.152161 ] } }
{ "type": "Feature", "tippecanoe": { "layer": "7F5D7CF955181585559477339", "minzoom": 2, "maxzoom": 8 }, "properties": { "title": "徙", "color": "#262626", "oid": "103:1585278519177", "tyid": "304001", "fontsize": 12, "halo": 0.8 }, "geometry": { "type": "Point", "coordinates": [ 102.392578, 30.069094 ] } }
{ "type": "Feature", "tippecanoe": { "layer": "7F5D7CF955181585559477339", "minzoom": 2, "maxzoom": 8 }, "properties": { "title": "冉駹羌", "color": "#202020", "oid": "103:1585278519344", "tyid": "304000", "fontsize": 12, "halo": 0.8 }, "geometry": { "type": "Point", "coordinates": [ 103.535156, 31.653381 ] } }
{ "type": "Feature", "tippecanoe": { "layer": "7F5D7CF955181585559477339", "minzoom": 2, "maxzoom": 8 }, "properties": { "title": "筰都", "color": "#262626", "oid": "103:1585278519580", "tyid": "304001", "fontsize": 12, "halo": 0.8 }, "geometry": { "type": "Point", "coordinates": [ 102.744141, 29.075375 ] } }
{ "type": "Feature", "tippecanoe": { "layer": "7F5D7CF955181585559477339", "minzoom": 2, "maxzoom": 8 }, "properties": { "title": "靡莫", "color": "#262626", "oid": "103:1585278519379", "tyid": "304001", "fontsize": 12, "halo": 0.8 }, "geometry": { "type": "Point", "coordinates": [ 103.886719, 25.799891 ] } }
{ "type": "Feature", "tippecanoe": { "layer": "7F5D7CF955181585559477339", "minzoom": 2, "maxzoom": 8 },