{"year": "BC209",  "type": "Feature", "tippecanoe": { "layer": "2AFCA7B40CC01583918269959", "minzoom": 2, "maxzoom": 8 }, "properties": { "tyid": "410000", "centroid": "{\"type\":\"Point\",\"coordinates\":[102.890655519,50.32448578]}", "opacity": 1, "oid": "103:1582721307215", "color": "#A11300", "width": 3 }, "geometry": { "type": "MultiLineString", "coordinates": [ [ [ 108.017578, 21.616579 ], [ 106.611328, 22.024546 ], [ 106.523438, 22.512557 ], [ 106.699219, 22.836946 ], [ 105.820312, 22.998852 ], [ 105.205078, 23.402765 ], [ 103.886719, 22.512557 ], [ 103.535156, 22.836946 ], [ 103.183594, 22.105999 ], [ 102.480469, 22.512557 ], [ 101.777344, 21.861499 ], [ 101.689453, 21.207459 ], [ 101.162109, 21.207459 ], [ 100.986328, 21.779905 ], [ 100.195312, 21.534847 ], [ 99.843750, 22.105999 ], [ 99.140625, 22.187405 ], [ 99.228516, 22.917923 ], [ 98.437500, 23.079732 ], [ 98.701172, 23.402765 ], [ 98.349609, 23.966176 ], [ 98.525391, 24.206890 ], [ 97.294922, 23.805450 ], [ 97.470703, 25.324167 ], [ 98.261719, 26.431228 ], [ 98.701172, 26.667096 ], [ 98.613281, 27.605671 ], [ 98.261719, 27.605671 ], [ 98.085938, 28.226970 ], [ 97.558594, 28.536275 ], [ 97.031250, 27.761330 ], [ 96.240234, 28.304381 ], [ 95.625000, 28.304381 ], [ 94.218750, 27.605671 ], [ 93.691406, 27.059126 ], [ 92.988281, 26.902477 ], [ 92.021484, 26.902477 ], [ 92.109375, 27.371767 ], [ 91.494141, 27.605671 ], [ 91.494141, 27.916767 ], [ 90.791016, 28.071980 ] ], [ [ 130.605469, 42.293564 ], [ 130.166016, 42.940339 ], [ 129.814453, 43.004647 ], [ 129.638672, 42.488302 ], [ 129.287109, 42.423457 ], [ 128.847656, 42.032974 ], [ 127.968750, 42.032974 ], [ 128.232422, 41.574361 ], [ 128.056641, 41.442726 ], [ 127.177734, 41.508577 ], [ 126.826172, 41.836828 ], [ 125.947266, 40.913513 ], [ 124.804688, 40.513799 ], [ 124.277344, 40.044438 ] ], [ [ 135.263672, 54.775346 ], [ 132.978516, 54.162434 ], [ 130.517578, 54.110943 ], [ 131.835938, 54.927142 ], [ 131.044922, 55.677584 ], [ 129.462891, 55.776573 ], [ 128.759766, 55.528631 ], [ 127.705078, 55.727110 ], [ 126.123047, 55.627996 ], [ 125.859375, 55.825973 ], [ 124.804688, 55.924586 ], [ 123.134766, 54.775346 ], [ 121.376953, 54.265224 ], [ 121.025391, 54.521081 ], [ 120.234375, 54.162434 ], [ 119.267578, 54.007769 ], [ 119.003906, 53.383328 ], [ 119.179688, 53.120405 ], [ 120.058594, 53.488046 ], [ 121.201172, 53.540307 ], [ 121.376953, 53.383328 ], [ 120.761719, 53.278353 ], [ 119.970703, 52.802761 ], [ 120.058594, 52.589701 ], [ 120.673828, 52.536273 ], [ 120.673828, 51.998410 ], [ 120.058594, 51.672555 ], [ 119.091797, 50.401515 ], [ 119.355469, 50.401515 ], [ 119.267578, 50.120578 ], [ 118.037109, 49.610710 ], [ 116.191406, 50.064192 ], [ 115.312500, 49.951220 ], [ 114.960938, 50.233152 ], [ 114.257812, 50.289339 ], [ 112.675781, 49.496675 ], [ 110.654297, 49.152970 ], [ 108.457031, 49.382373 ], [ 107.929688, 49.724479 ], [ 107.929688, 49.951220 ], [ 107.050781, 50.064192 ], [ 106.523438, 50.345460 ], [ 105.292969, 50.513427 ], [ 103.974609, 50.176898 ], [ 103.271484, 50.233152 ], [ 102.216797, 50.625073 ], [ 102.041016, 51.399206 ], [ 98.964844, 52.106505 ], [ 98.613281, 52.482780 ], [ 98.876953, 52.908902 ], [ 99.140625, 52.961875 ], [ 98.789062, 53.173119 ], [ 98.173828, 53.120405 ], [ 96.767578, 53.800651 ], [ 96.416016, 53.592505 ], [ 94.658203, 53.435719 ], [ 94.394531, 52.961875 ], [ 94.130859, 52.908902 ], [ 93.515625, 52.214339 ], [ 92.812500, 51.890054 ], [ 91.054688, 51.890054 ], [ 90.175781, 52.696361 ], [ 87.802734, 53.383328 ], [ 86.396484, 53.173119 ], [ 86.132812, 52.908902 ], [ 83.056641, 51.618017 ], [ 82.617188, 51.179343 ], [ 83.056641, 50.958427 ], [ 83.232422, 50.513427 ], [ 82.529297, 49.724479 ], [ 82.529297, 49.325122 ], [ 81.298828, 48.690960 ], [ 81.035156, 48.166085 ], [ 79.628906, 47.694974 ], [ 79.453125, 46.800059 ], [ 78.750000, 46.800059 ], [ 78.750000, 46.619261 ], [ 78.574219, 46.800059 ], [ 78.222656, 46.498392 ], [ 77.783203, 46.679594 ], [ 74.531250, 46.800059 ], [ 73.564453, 46.134170 ], [ 73.388672, 45.706179 ], [ 72.070312, 44.964798 ], [ 70.488281, 44.402392 ], [ 69.521484, 43.452919 ], [ 70.927734, 42.293564 ], [ 73.212891, 42.163403 ], [ 73.916016, 41.836828 ], [ 74.003906, 41.574361 ], [ 73.300781, 41.508577 ], [ 73.828125, 41.046217 ], [ 73.212891, 40.847060 ], [ 72.949219, 40.446947 ], [ 73.125000, 40.044438 ], [ 72.773438, 39.842286 ], [ 72.861328, 39.368279 ], [ 72.421875, 39.436193 ], [ 72.070312, 39.095963 ], [ 72.246094, 38.548165 ], [ 71.894531, 38.272689 ], [ 72.158203, 37.649034 ], [ 71.718750, 36.738884 ], [ 73.476562, 37.509726 ], [ 73.740234, 37.439974 ], [ 73.740234, 37.160317 ], [ 74.531250, 37.090240 ], [ 75.673828, 36.385913 ], [ 75.761719, 36.031332 ], [ 74.882812, 35.817813 ], [ 75.322266, 35.173808 ], [ 75.146484, 34.669359 ], [ 76.113281, 33.578015 ], [ 77.080078, 32.990236 ], [ 77.080078, 32.472695 ], [ 77.871094, 31.802893 ], [ 78.662109, 31.728167 ], [ 79.013672, 31.052934 ], [ 79.892578, 30.826781 ], [ 80.683594, 30.145127 ], [ 82.001953, 30.145127 ], [ 83.583984, 29.228890 ], [ 83.935547, 29.305561 ], [ 84.462891, 28.536275 ], [ 85.605469, 28.226970 ], [ 85.869141, 27.916767 ], [ 87.714844, 27.839076 ], [ 88.681641, 28.071980 ], [ 88.945312, 27.215556 ], [ 89.560547, 28.226970 ], [ 90.791016, 28.071980 ] ] ] } }
{"year": "BC209",  "type": "Feature", "tippecanoe": { "layer": "2AFCA7B40CC01583918269959", "minzoom": 2, "maxzoom": 8 }, "properties": { "tyid": "410000", "centroid": "{\"type\":\"Point\",\"coordinates\":[118.9965612163,11.9748626986]}", "opacity": 1, "oid": "103:1582721307213", "color": "#A11300", "width": 3 }, "geometry": { "type": "MultiLineString", "coordinates": [ [ [ 122.695312, 24.447150 ], [ 122.431641, 23.402765 ] ], [ [ 120.849609, 20.550509 ], [ 121.728516, 21.616579 ] ], [ [ 119.355469, 17.727759 ], [ 119.794922, 18.895893 ] ], [ [ 118.916016, 14.689881 ], [ 118.916016, 16.045813 ] ], [ [ 118.476562, 10.833306 ], [ 119.003906, 12.039321 ] ], [ [ 115.312500, 7.013668 ], [ 116.191406, 8.059230 ] ], [ [ 111.708984, 3.425692 ], [ 112.939453, 3.864255 ] ], [ [ 108.281250, 5.965754 ], [ 108.193359, 7.362467 ] ], [ [ 110.039062, 11.264612 ], [ 110.214844, 12.468760 ] ], [ [ 109.775391, 15.029686 ], [ 109.248047, 16.214675 ] ] ] } }
{"year": "BC209",  "type": "Feature", "tippecanoe": { "layer": "2AFCA7B40D681583918269947", "minzoom": 2, "maxzoom": 8 }, "properties": { "halo": 0.8, "title": "诺顿文化", "fontsize": 12, "tyid": "304002", "oid": "103:1576575201462", "color": "#262626" }, "geometry": { "type": "Point", "coordinates": [ -163.037109, 68.528235 ] } }
{"year": "BC209",  "type": "Feature", "tippecanoe": { "layer": "2AFCA7B40D681583918269947", "minzoom": 2, "maxzoom": 8 }, "properties": { "halo": 0.8, "title": "因纽特人", "fontsize": 12, "tyid": "304001", "oid": "103:1576575201225", "color": "#262626" }, "geometry": { "type": "Point", "coordinates": [ -91.845703, 67.238062 ] } }
{"year": "BC209",  "type": "Feature", "tippecanoe": { "layer": "2AFCA7B40D681583918269947", "minzoom": 2, "maxzoom": 8 }, "properties": { "halo": 0.8, "title": "尤皮克人", "fontsize": 12, "tyid": "304001", "oid": "103:1576575201591", "color": "#262626" }, "geometry": { "type": "Point", "coordinates": [ -154.775391, 62.431074 ] } }
{"year": "BC209",  "type": "Feature", "tippecanoe": { "layer": "2AFCA7B40D681583918269947", "minzoom": 2, "maxzoom": 8 }, "properties": { "halo": 0.8, "title": "因纽皮雅特人", "fontsize": 12, "tyid": "304001", "oid": "103:1576575201117", "color": "#262626" }, "geometry": { "type": "Point", "coordinates": [ -149.501953, 65.219894 ] } }
{"year": "BC209",  "type": "Feature", "tippecanoe": { "layer": "2AFCA7B40D681583918269947", "minzoom": 2, "maxzoom": 8 }, "properties": { "halo": 0.8, "title": "阿留申人", "fontsize": 12, "tyid": "304001", "oid": "103:1576575201492", "color": "#262626" }, "geometry": { "type": "Point", "coordinates": [ -152.226562, 61.312452 ] } }
{"year": "BC209",  "type": "Feature", "tippecanoe": { "layer": "2AFCA7B40D681583918269947", "minzoom": 2, "maxzoom": 8 }, "properties": { "halo": 0.8, "title": "泰萨勒页岩文化", "fontsize": 12, "tyid": "304002", "oid": "103:1576575201544", "color": "#262626" }, "geometry": { "type": "Point", "coordinates": [ -97.470703, 56.511018 ] } }
{"year": "BC209",  "type": "Feature", "tippecanoe": { "layer": "2AFCA7B40D681583918269947", "minzoom": 2, "maxzoom": 8 }, "properties": { "halo": 0.8, "title": "坎贝尔文化", "fontsize": 12, "tyid": "304002", "oid": "103:1576575201181", "color": "#262626" }, "geometry": { "type": "Point", "coordinates": [ -121.289062, 38.685510 ] } }
{"year": "BC209",  "type": "Feature", "tippecanoe": { "layer": "2AFCA7B40D681583918269947", "minzoom": 2, "maxzoom": 8 }, "properties": { "halo": 0.8, "title": "圣迪基图文化", "fontsize": 12, "tyid": "304002", "oid": "103:1576575201141", "color": "#262626" }, "geometry": { "type": "Point", "coordinates": [ -115.224609, 33.211116 ] } }
{"year": "BC209",  "type": "Feature", "tippecanoe": { "layer": "2AFCA7B40D681583918269947", "minzoom": 2, "maxzoom": 8 }, "properties": { "halo": 0.8, "title": "独立二期文化", "fontsize": 12, "tyid": "304002", "oid": "103:1576575201393", "color": "#262626" }, "geometry": { "type": "Point", "coordinates": [ -41.484375, 81.984696 ] } }
{"year": "BC209",  "type": "Feature", "tippecanoe": { "layer": "2AFCA7B40D681583918269947", "minzoom": 2, "maxzoom": 8 }, "properties": { "halo": 0.8, "title": "波茵特半岛文化", "fontsize": 12, "tyid": "304002", "oid": "103:1576575201460", "color": "#262626" }, "geometry": { "type": "Point", "coordinates": [ -76.816406, 45.336702 ] } }
{"year": "BC209",  "type": "Feature", "tippecanoe": { "layer": "2AFCA7B40D681583918269947", "minzoom": 2, "maxzoom": 8 }, "properties": { "halo": 0.8, "title": "古海洋文化", "fontsize": 12, "tyid": "304002", "oid": "103:1576575201057", "color": "#262626" }, "geometry": { "type": "Point", "coordinates": [ -66.621094, 47.279229 ] } }
{"year": "BC209",  "type": "Feature", "tippecanoe": { "layer": "2AFCA7B40D681583918269947", "minzoom": 2, "maxzoom": 8 }, "properties": { "halo": 0.8, "title": "阿登纳文化", "fontsize": 12, "tyid": "304002", "oid": "103:1576575201451", "color": "#262626" }, "geometry": { "type": "Point", "coordinates": [ -81.826172, 40.513799 ] } }
{"year": "BC209",  "type": "Feature", "tippecanoe": { "layer": "2AFCA7B40D681583918269947", "minzoom": 2, "maxzoom": 8 }, "properties": { "halo": 0.8, "title": "凯尔特布立吞人", "fontsize": 12, "tyid": "304001", "oid": "103:1576575201326", "color": "#262626" }, "geometry": { "type": "Point", "coordinates": [ -1.845703, 52.589701 ] } }
{"year": "BC209",  "type": "Feature", "tippecanoe": { "layer": "2AFCA7B40D681583918269947", "minzoom": 2, "maxzoom": 8 }, "properties": { "halo": 0.8, "title": "迦太基帝国", "fontsize": 12, "tyid": "304000", "oid": "103:1576575201426", "color": "#202020" }, "geometry": { "type": "Point", "coordinates": [ -2.460938, 39.164141 ] } }
{"year": "BC209",  "type": "Feature", "tippecanoe": { "layer": "2AFCA7B40D681583918269947", "minzoom": 2, "maxzoom": 8 }, "properties": { "halo": 0.8, "title": "巴富尔人", "fontsize": 12, "tyid": "304001", "oid": "103:1576575201455", "color": "#262626" }, "geometry": { "type": "Point", "coordinates": [ -8.261719, 22.755921 ] } }
{"year": "BC209",  "type": "Feature", "tippecanoe": { "layer": "2AFCA7B40D681583918269947", "minzoom": 2, "maxzoom": 8 }, "properties": { "halo": 0.8, "title": "索宁克人", "fontsize": 12, "tyid": "304001", "oid": "103:1576575201480", "color": "#262626" }, "geometry": { "type": "Point", "coordinates": [ -8.964844, 15.284185 ] } }
{"year": "BC209",  "type": "Feature", "tippecanoe": { "layer": "2AFCA7B40D681583918269947", "minzoom": 2, "maxzoom": 8 }, "properties": { "halo": 0.8, "title": "曼德人", "fontsize": 12, "tyid": "304001", "oid": "103:1576575201169", "color": "#262626" }, "geometry": { "type": "Point", "coordinates": [ -4.482422, 9.275622 ] } }
{"year": "BC209",  "type": "Feature", "tippecanoe": { "layer": "2AFCA7B40D681583918269947", "minzoom": 2, "maxzoom": 8 }, "properties": { "halo": 0.8, "title": "图皮人", "fontsize": 12, "tyid": "304001", "oid": "103:1576575201063", "color": "#262626" }, "geometry": { "type": "Point", "coordinates": [ -37.617188, -8.233237 ] } }
{"year": "BC209",  "type": "Feature", "tippecanoe": { "layer": "2AFCA7B40D681583918269947", "minzoom": 2, "maxzoom": 8 }, "properties": { "halo": 0.8, "title": "萨米人", "fontsize": 12, "tyid": "304001", "oid": "103:1576575201439", "color": "#262626" }, "geometry": { "type": "Point", "coordinates": [ 22.412109, 68.496040 ] } }
{"year": "BC209",  "type": "Feature", "tippecanoe": { "layer": "2AFCA7B40D681583918269947", "minzoom": 2, "maxzoom": 8 }, "properties": { "halo": 0.8, "title": "乌斯特波卢伊文化", "fontsize": 12, "tyid": "304002", "oid": "103:1576575201132", "color": "#262626" }, "geometry": { "type": "Point", "coordinates": [ 70.312500, 68.204212 ] } }
{"year": "BC209",  "type": "Feature", "tippecanoe": { "layer": "2AFCA7B40D681583918269947", "minzoom": 2, "maxzoom": 8 }, "properties": { "halo": 0.8, "title": "原始日耳曼人", "fontsize": 12, "tyid": "304001", "oid": "103:1576575201293", "color": "#262626" }, "geometry": { "type": "Point", "coordinates": [ 12.480469, 60.326948 ] } }
{"year": "BC209",  "type": "Feature", "tippecanoe": { "layer": "2AFCA7B40D681583918269947", "minzoom": 2, "maxzoom": 8 }, "properties": { "halo": 0.8, "title": "贝尔盖人", "fontsize": 12, "tyid": "304001", "oid": "103:1576575201618", "color": "#262626" }, "geometry": { "type": "Point", "coordinates": [ 4.833984, 49.724479 ] } }
{"year": "BC209",  "type": "Feature", "tippecanoe": { "layer": "2AFCA7B40D681583918269947", "minzoom": 2, "maxzoom": 8 }, "properties": { "halo": 0.8, "title": "山外高卢人", "fontsize": 12, "tyid": "304001", "oid": "103:1576575201073", "color": "#262626" }, "geometry": { "type": "Point", "coordinates": [ 1.582031, 46.558860 ] } }
{"year": "BC209",  "type": "Feature", "tippecanoe": { "layer": "2AFCA7B40D681583918269947", "minzoom": 2, "maxzoom": 8 }, "properties": { "halo": 0.8, "title": "日耳曼人", "fontsize": 12, "tyid": "304001", "oid": "103:1576575201157", "color": "#262626" }, "geometry": { "type": "Point", "coordinates": [ 12.392578, 51.944265 ] } }
{"year": "BC209",  "type": "Feature", "tippecanoe": { "layer": "2AFCA7B40D681583918269947", "minzoom": 2, "maxzoom": 8 }, "properties": { "halo": 0.8, "title": "凯尔特人", "fontsize": 12, "tyid": "304001", "oid": "103:1576575201080", "color": "#262626" }, "geometry": { "type": "Point", "coordinates": [ 16.787109, 47.635784 ] } }
{"year": "BC209",  "type": "Feature", "tippecanoe": { "layer": "2AFCA7B40D681583918269947", "minzoom": 2, "maxzoom": 8 }, "properties": { "halo": 0.8, "title": "罗马共和国", "fontsize": 12, "tyid": "304000", "oid": "103:1576575201498", "color": "#202020" }, "geometry": { "type": "Point", "coordinates": [ 12.919922, 42.553080 ] } }
{"year": "BC209",  "type": "Feature", "tippecanoe": { "layer": "2AFCA7B40D681583918269947", "minzoom": 2, "maxzoom": 8 }, "properties": { "halo": 0.8, "title": "迪亚科夫文化", "fontsize": 12, "tyid": "304002", "oid": "103:1576575201232", "color": "#262626" }, "geometry": { "type": "Point", "coordinates": [ 37.968750, 56.800878 ] } }
{"year": "BC209",  "type": "Feature", "tippecanoe": { "layer": "2AFCA7B40D681583918269947", "minzoom": 2, "maxzoom": 8 }, "properties": { "halo": 0.8, "title": "第聂伯河与德维纳河文化", "fontsize": 12, "tyid": "304001", "oid": "103:1576575201375", "color": "#262626" }, "geometry": { "type": "Point", "coordinates": [ 31.816406, 55.677584 ] } }
{"year": "BC209",  "type": "Feature", "tippecanoe": { "layer": "2AFCA7B40D681583918269947", "minzoom": 2, "maxzoom": 8 }, "properties": { "halo": 0.8, "title": "扎鲁宾西文化", "fontsize": 12, "tyid": "304002", "oid": "103:1576575201520", "color": "#262626" }, "geometry": { "type": "Point", "coordinates": [ 29.882812, 50.903033 ] } }
{"year": "BC209",  "type": "Feature", "tippecanoe": { "layer": "2AFCA7B40D681583918269947", "minzoom": 2, "maxzoom": 8 }, "properties": { "halo": 0.8, "title": "达契亚人", "fontsize": 12, "tyid": "304001", "oid": "103:1576575201085", "color": "#262626" }, "geometry": { "type": "Point", "coordinates": [ 25.400391, 46.195042 ] } }
{"year": "BC209",  "type": "Feature", "tippecanoe": { "layer": "2AFCA7B40D681583918269947", "minzoom": 2, "maxzoom": 8 }, "properties": { "halo": 0.8, "title": "戈罗杰茨文化", "fontsize": 12, "tyid": "304002", "oid": "103:1576575201297", "color": "#262626" }, "geometry": { "type": "Point", "coordinates": [ 44.384766, 54.521081 ] } }
{"year": "BC209",  "type": "Feature", "tippecanoe": { "layer": "2AFCA7B40D681583918269947", "minzoom": 2, "maxzoom": 8 }, "properties": { "halo": 0.8, "title": "柏柏尔人诸部", "fontsize": 12, "tyid": "304001", "oid": "103:1576575201100", "color": "#262626" }, "geometry": { "type": "Point", "coordinates": [ 3.955078, 26.824071 ] } }
{"year": "BC209",  "type": "Feature", "tippecanoe": { "layer": "2AFCA7B40D681583918269947", "minzoom": 2, "maxzoom": 8 }, "properties": { "halo": 0.8, "title": "加拉曼特人", "fontsize": 12, "tyid": "304001", "oid": "103:1576575201160", "color": "#262626" }, "geometry": { "type": "Point", "coordinates": [ 16.523438, 29.535230 ] } }
{"year": "BC209",  "type": "Feature", "tippecanoe": { "layer": "2AFCA7B40D681583918269947", "minzoom": 2, "maxzoom": 8 }, "properties": { "halo": 0.8, "title": "诺克文化", "fontsize": 12, "tyid": "304002", "oid": "103:1576575201249", "color": "#262626" }, "geometry": { "type": "Point", "coordinates": [ 7.119141, 10.574222 ] } }
{"year": "BC209",  "type": "Feature", "tippecanoe": { "layer": "2AFCA7B40D681583918269947", "minzoom": 2, "maxzoom": 8 }, "properties": { "halo": 0.8, "title": "萨奥文明", "fontsize": 12, "tyid": "304002", "oid": "103:1576575201500", "color": "#262626" }, "geometry": { "type": "Point", "coordinates": [ 15.468750, 13.068777 ] } }
{"year": "BC209",  "type": "Feature", "tippecanoe": { "layer": "2AFCA7B40D681583918269947", "minzoom": 2, "maxzoom": 8 }, "properties": { "halo": 0.8, "title": "巴卡人", "fontsize": 12, "tyid": "304001", "oid": "103:1576575201548", "color": "#262626" }, "geometry": { "type": "Point", "coordinates": [ 18.105469, 5.441022 ] } }
{"year": "BC209",  "type": "Feature", "tippecanoe": { "layer": "2AFCA7B40D681583918269947", "minzoom": 2, "maxzoom": 8 }, "properties": { "halo": 0.8, "title": "托勒密王国", "fontsize": 12, "tyid": "304000", "oid": "103:1576575201504", "color": "#202020" }, "geometry": { "type": "Point", "coordinates": [ 31.201172, 27.215556 ] } }
{"year": "BC209",  "type": "Feature", "tippecanoe": { "layer": "2AFCA7B40D681583918269947", "minzoom": 2, "maxzoom": 8 }, "properties": { "halo": 0.8, "title": "利黑延王国", "fontsize": 12, "tyid": "304000", "oid": "103:1576575201238", "color": "#202020" }, "geometry": { "type": "Point", "coordinates": [ 38.847656, 25.958045 ] } }
{"year": "BC209",  "type": "Feature", "tippecanoe": { "layer": "2AFCA7B40D681583918269947", "minzoom": 2, "maxzoom": 8 }, "properties": { "halo": 0.8, "title": "凯达尔联盟", "fontsize": 12, "tyid": "304001", "oid": "103:1576575201234", "color": "#262626" }, "geometry": { "type": "Point", "coordinates": [ 42.275391, 29.535230 ] } }
{"year": "BC209",  "type": "Feature", "tippecanoe": { "layer": "2AFCA7B40D681583918269947", "minzoom": 2, "maxzoom": 8 }, "properties": { "halo": 0.8, "title": "北非贝都因人", "fontsize": 12, "tyid": "304001", "oid": "103:1576575201399", "color": "#262626" }, "geometry": { "type": "Point", "coordinates": [ 22.675781, 20.715015 ] } }
{"year": "BC209",  "type": "Feature", "tippecanoe": { "layer": "2AFCA7B40D681583918269947", "minzoom": 2, "maxzoom": 8 }, "properties": { "halo": 0.8, "title": "富尔人", "fontsize": 12, "tyid": "304001", "oid": "103:1576575201579", "color": "#262626" }, "geometry": { "type": "Point", "coordinates": [ 26.015625, 12.983148 ] } }
{"year": "BC209",  "type": "Feature", "tippecanoe": { "layer": "2AFCA7B40D681583918269947", "minzoom": 2, "maxzoom": 8 }, "properties": { "halo": 0.8, "title": "库施王国", "fontsize": 12, "tyid": "304000", "oid": "103:1576575201332", "color": "#202020" }, "geometry": { "type": "Point", "coordinates": [ 32.255859, 17.644022 ] } }
{"year": "BC209",  "type": "Feature", "tippecanoe": { "layer": "2AFCA7B40D681583918269947", "minzoom": 2, "maxzoom": 8 }, "properties": { "halo": 0.8, "title": "尼罗特人", "fontsize": 12, "tyid": "304001", "oid": "103:1576575201512", "color": "#262626" }, "geometry": { "type": "Point", "coordinates": [ 33.310547, 1.230374 ] } }
{"year": "BC209",  "type": "Feature", "tippecanoe": { "layer": "2AFCA7B40D681583918269947", "minzoom": 2, "maxzoom": 8 }, "properties": { "halo": 0.8, "title": "赛莫德人", "fontsize": 12, "tyid": "304001", "oid": "103:1576575201478", "color": "#262626" }, "geometry": { "type": "Point", "coordinates": [ 42.626953, 21.698265 ] } }
{"year": "BC209",  "type": "Feature", "tippecanoe": { "layer": "2AFCA7B40D681583918269947", "minzoom": 2, "maxzoom": 8 }, "properties": { "halo": 0.8, "title": "卢欧诸部", "fontsize": 12, "tyid": "304001", "oid": "103:1576575201154", "color": "#262626" }, "geometry": { "type": "Point", "coordinates": [ 36.123047, 9.015302 ] } }
{"year": "BC209",  "type": "Feature", "tippecanoe": { "layer": "2AFCA7B40D681583918269947", "minzoom": 2, "maxzoom": 8 }, "properties": { "halo": 0.8, "title": "库希特人", "fontsize": 12, "tyid": "304001", "oid": "103:1576575201271", "color": "#262626" }, "geometry": { "type": "Point", "coordinates": [ 44.121094, 4.477856 ] } }
{"year": "BC209",  "type": "Feature", "tippecanoe": { "layer": "2AFCA7B40D681583918269947", "minzoom": 2, "maxzoom": 8 }, "properties": { "halo": 0.8, "title": "彼尔姆人", "fontsize": 12, "tyid": "304001", "oid": "103:1576575201459", "color": "#262626" }, "geometry": { "type": "Point", "coordinates": [ 55.371094, 57.844751 ] } }
{"year": "BC209",  "type": "Feature", "tippecanoe": { "layer": "2AFCA7B40D681583918269947", "minzoom": 2, "maxzoom": 8 }, "properties": { "halo": 0.8, "title": "东马扎尔人", "fontsize": 12, "tyid": "304001", "oid": "103:1576575201542", "color": "#262626" }, "geometry": { "type": "Point", "coordinates": [ 59.238281, 61.396719 ] } }
{"year": "BC209",  "type": "Feature", "tippecanoe": { "layer": "2AFCA7B40D681583918269947", "minzoom": 2, "maxzoom": 8 }, "properties": { "halo": 0.8, "title": "萨尔马提亚人", "fontsize": 12, "tyid": "304001", "oid": "103:1576575201378", "color": "#262626" }, "geometry": { "type": "Point", "coordinates": [ 46.406250, 50.847573 ] } }
{"year": "BC209",  "type": "Feature", "tippecanoe": { "layer": "2AFCA7B40D681583918269947", "minzoom": 2, "maxzoom": 8 }, "properties": { "halo": 0.8, "title": "奥苏伊人", "fontsize": 12, "tyid": "304001", "oid": "103:1576575201409", "color": "#262626" }, "geometry": { "type": "Point", "coordinates": [ 49.746094, 47.635784 ] } }
{"year": "BC209",  "type": "Feature", "tippecanoe": { "layer": "2AFCA7B40D681583918269947", "minzoom": 2, "maxzoom": 8 }, "properties": { "halo": 0.8, "title": "萨迦蒂安文化", "fontsize": 12, "tyid": "304002", "oid": "103:1576575201115", "color": "#262626" }, "geometry": { "type": "Point", "coordinates": [ 63.105469, 54.367759 ] } }
{"year": "BC209",  "type": "Feature", "tippecanoe": { "layer": "2AFCA7B40D681583918269947", "minzoom": 2, "maxzoom": 8 }, "properties": { "halo": 0.8, "title": "斯基泰人", "fontsize": 12, "tyid": "304001", "oid": "103:1576575201262", "color": "#262626" }, "geometry": { "type": "Point", "coordinates": [ 63.544922, 49.325122 ] } }
{"year": "BC209",  "type": "Feature", "tippecanoe": { "layer": "2AFCA7B40D681583918269947", "minzoom": 2, "maxzoom": 8 }, "properties": { "halo": 0.8, "title": "马萨格泰人", "fontsize": 12, "tyid": "304001", "oid": "103:1576575201269", "color": "#262626" }, "geometry": { "type": "Point", "coordinates": [ 63.017578, 46.195042 ] } }
{"year": "BC209",  "type": "Feature", "tippecanoe": { "layer": "2AFCA7B40D681583918269947", "minzoom": 2, "maxzoom": 8 }, "properties": { "halo": 0.8, "title": "乌戈尔人", "fontsize": 12, "tyid": "304001", "oid": "103:1576575201588", "color": "#262626" }, "geometry": { "type": "Point", "coordinates": [ 77.080078, 57.088515 ] } }
{"year": "BC209",  "type": "Feature", "tippecanoe": { "layer": "2AFCA7B40D681583918269947", "minzoom": 2, "maxzoom": 8 }, "properties": { "halo": 0.8, "title": "库莱文化", "fontsize": 12, "tyid": "304002", "oid": "103:1576575201138", "color": "#262626" }, "geometry": { "type": "Point", "coordinates": [ 84.111328, 59.130863 ] } }
{"year": "BC209",  "type": "Feature", "tippecanoe": { "layer": "2AFCA7B40D681583918269947", "minzoom": 2, "maxzoom": 8 }, "properties": { "halo": 0.8, "title": "塔斯莫拉文化", "fontsize": 12, "tyid": "304002", "oid": "103:1576575201122", "color": "#262626" }, "geometry": { "type": "Point", "coordinates": [ 74.619141, 48.806863 ] } }
{"year": "BC209",  "type": "Feature", "tippecanoe": { "layer": "2AFCA7B40D681583918269947", "minzoom": 2, "maxzoom": 8 }, "properties": { "halo": 0.8, "title": "塔加尔文化", "fontsize": 12, "tyid": "304002", "oid": "103:1576575201447", "color": "#262626" }, "geometry": { "type": "Point", "coordinates": [ 83.496094, 51.998410 ] } }
{"year": "BC209",  "type": "Feature", "tippecanoe": { "layer": "2AFCA7B40D681583918269947", "minzoom": 2, "maxzoom": 8 }, "properties": { "halo": 0.8, "title": "呼揭", "fontsize": 12, "tyid": "304001", "oid": "103:1576575201148", "color": "#262626" }, "geometry": { "type": "Point", "coordinates": [ 88.417969, 47.457809 ] } }
{"year": "BC209",  "type": "Feature", "tippecanoe": { "layer": "2AFCA7B40D681583918269947", "minzoom": 2, "maxzoom": 8 }, "properties": { "halo": 0.8, "title": "塞琉古帝国", "fontsize": 12, "tyid": "304000", "oid": "103:1576575201425", "color": "#202020" }, "geometry": { "type": "Point", "coordinates": [ 52.031250, 33.284620 ] } }
{"year": "BC209",  "type": "Feature", "tippecanoe": { "layer": "2AFCA7B40D681583918269947", "minzoom": 2, "maxzoom": 8 }, "properties": { "halo": 0.8, "title": "贝都因人", "fontsize": 12, "tyid": "304001", "oid": "103:1576575201601", "color": "#262626" }, "geometry": { "type": "Point", "coordinates": [ 49.482422, 22.024546 ] } }
{"year": "BC209",  "type": "Feature", "tippecanoe": { "layer": "2AFCA7B40D681583918269947", "minzoom": 2, "maxzoom": 8 }, "properties": { "halo": 0.8, "title": "帕提亚帝国", "fontsize": 12, "tyid": "304000", "oid": "103:1576575201352", "color": "#202020" }, "geometry": { "type": "Point", "coordinates": [ 58.095703, 37.996163 ] } }
{"year": "BC209",  "type": "Feature", "tippecanoe": { "layer": "2AFCA7B40D681583918269947", "minzoom": 2, "maxzoom": 8 }, "properties": { "halo": 0.8, "title": "马克鲁比亚王国", "fontsize": 12, "tyid": "304000", "oid": "103:1576575201313", "color": "#202020" }, "geometry": { "type": "Point", "coordinates": [ 49.130859, 9.102097 ] } }
{"year": "BC209",  "type": "Feature", "tippecanoe": { "layer": "2AFCA7B40D681583918269947", "minzoom": 2, "maxzoom": 8 }, "properties": { "halo": 0.8, "title": "希腊-巴克特里亚王国", "fontsize": 12, "tyid": "304000", "oid": "103:1576575201383", "color": "#202020" }, "geometry": { "type": "Point", "coordinates": [ 68.378906, 38.685510 ] } }
{"year": "BC209",  "type": "Feature", "tippecanoe": { "layer": "2AFCA7B40D681583918269947", "minzoom": 2, "maxzoom": 8 }, "properties": { "halo": 0.8, "title": "孔雀帝国", "fontsize": 12, "tyid": "304000", "oid": "103:1576575201062", "color": "#202020" }, "geometry": { "type": "Point", "coordinates": [ 75.322266, 25.324167 ] } }
{"year": "BC209",  "type": "Feature", "tippecanoe": { "layer": "2AFCA7B40D681583918269947", "minzoom": 2, "maxzoom": 8 }, "properties": { "halo": 0.8, "title": "象雄王国", "fontsize": 12, "tyid": "304000", "oid": "103:1576575201482", "color": "#202020" }, "geometry": { "type": "Point", "coordinates": [ 82.089844, 31.802893 ] } }
{"year": "BC209",  "type": "Feature", "tippecanoe": { "layer": "2AFCA7B40D681583918269947", "minzoom": 2, "maxzoom": 8 }, "properties": { "halo": 0.8, "title": "坚昆", "fontsize": 12, "tyid": "304001", "oid": "103:1576575201355", "color": "#262626" }, "geometry": { "type": "Point", "coordinates": [ 95.449219, 54.470038 ] } }
{"year": "BC209",  "type": "Feature", "tippecanoe": { "layer": "2AFCA7B40D681583918269947", "minzoom": 2, "maxzoom": 8 }, "properties": { "halo": 0.8, "title": "丁零", "fontsize": 12, "tyid": "304001", "oid": "103:1576575201287", "color": "#262626" }, "geometry": { "type": "Point", "coordinates": [ 109.248047, 52.214339 ] } }
{"year": "BC209",  "type": "Feature", "tippecanoe": { "layer": "2AFCA7B40D681583918269947", "minzoom": 2, "maxzoom": 8 }, "properties": { "halo": 0.8, "title": "匈奴", "fontsize": 12, "tyid": "304001", "oid": "103:1576575201131", "color": "#262626" }, "geometry": { "type": "Point", "coordinates": [ 105.205078, 46.255847 ] } }
{"year": "BC209",  "type": "Feature", "tippecanoe": { "layer": "2AFCA7B40D681583918269947", "minzoom": 2, "maxzoom": 8 }, "properties": { "halo": 0.8, "title": "通古斯人", "fontsize": 12, "tyid": "304001", "oid": "103:1576575201578", "color": "#262626" }, "geometry": { "type": "Point", "coordinates": [ 116.982422, 60.413852 ] } }
{"year": "BC209",  "type": "Feature", "tippecanoe": { "layer": "2AFCA7B40D681583918269947", "minzoom": 2, "maxzoom": 8 }, "properties": { "halo": 0.8, "title": "东胡", "fontsize": 12, "tyid": "304001", "oid": "103:1576575201483", "color": "#262626" }, "geometry": { "type": "Point", "coordinates": [ 118.652344, 47.338823 ] } }
{"year": "BC209",  "type": "Feature", "tippecanoe": { "layer": "2AFCA7B40D681583918269947", "minzoom": 2, "maxzoom": 8 }, "properties": { "halo": 0.8, "title": "肃慎", "fontsize": 12, "tyid": "304001", "oid": "103:1576575201185", "color": "#262626" }, "geometry": { "type": "Point", "coordinates": [ 132.187500, 47.100045 ] } }
{"year": "BC209",  "type": "Feature", "tippecanoe": { "layer": "2AFCA7B40D681583918269947", "minzoom": 2, "maxzoom": 8 }, "properties": { "halo": 0.8, "title": "苏毗", "fontsize": 12, "tyid": "304001", "oid": "103:1576575201171", "color": "#262626" }, "geometry": { "type": "Point", "coordinates": [ 93.603516, 33.137551 ] } }
{"year": "BC209",  "type": "Feature", "tippecanoe": { "layer": "2AFCA7B40D681583918269947", "minzoom": 2, "maxzoom": 8 }, "properties": { "halo": 0.8, "title": "月氏", "fontsize": 12, "tyid": "304001", "oid": "103:1576575201351", "color": "#262626" }, "geometry": { "type": "Point", "coordinates": [ 99.667969, 39.909736 ] } }
{"year": "BC209",  "type": "Feature", "tippecanoe": { "layer": "2AFCA7B40D681583918269947", "minzoom": 2, "maxzoom": 8 }, "properties": { "halo": 0.8, "title": "古羌人", "fontsize": 12, "tyid": "304001", "oid": "103:1576575201345", "color": "#262626" }, "geometry": { "type": "Point", "coordinates": [ 100.634766, 32.990236 ] } }
{"year": "BC209",  "type": "Feature", "tippecanoe": { "layer": "2AFCA7B40D681583918269947", "minzoom": 2, "maxzoom": 8 }, "properties": { "halo": 0.8, "title": "哀牢国", "fontsize": 12, "tyid": "304000", "oid": "103:1576575201054", "color": "#202020" }, "geometry": { "type": "Point", "coordinates": [ 100.195312, 22.674847 ] } }
{"year": "BC209",  "type": "Feature", "tippecanoe": { "layer": "2AFCA7B40D681583918269947", "minzoom": 2, "maxzoom": 8 }, "properties": { "halo": 0.8, "title": "秦朝", "fontsize": 12, "tyid": "304000", "oid": "103:1576575201354", "color": "#202020" }, "geometry": { "type": "Point", "coordinates": [ 111.796875, 31.728167 ] } }
{"year": "BC209",  "type": "Feature", "tippecanoe": { "layer": "2AFCA7B40D681583918269947", "minzoom": 2, "maxzoom": 8 }, "properties": { "halo": 0.8, "title": "南岛人", "fontsize": 12, "tyid": "304001", "oid": "103:1576575201103", "color": "#262626" }, "geometry": { "type": "Point", "coordinates": [ 114.169922, 0.878872 ] } }
{"year": "BC209",  "type": "Feature", "tippecanoe": { "layer": "2AFCA7B40D681583918269947", "minzoom": 2, "maxzoom": 8 }, "properties": { "halo": 0.8, "title": "尤卡吉尔人", "fontsize": 12, "tyid": "304001", "oid": "103:1576575201401", "color": "#262626" }, "geometry": { "type": "Point", "coordinates": [ 155.214844, 64.886265 ] } }
{"year": "BC209",  "type": "Feature", "tippecanoe": { "layer": "2AFCA7B40D681583918269947", "minzoom": 2, "maxzoom": 8 }, "properties": { "halo": 0.8, "title": "尼夫赫人", "fontsize": 12, "tyid": "304001", "oid": "103:1576575201092", "color": "#262626" }, "geometry": { "type": "Point", "coordinates": [ 138.779297, 51.890054 ] } }
{"year": "BC209",  "type": "Feature", "tippecanoe": { "layer": "2AFCA7B40D681583918269947", "minzoom": 2, "maxzoom": 8 }, "properties": { "halo": 0.8, "title": "科里亚克族", "fontsize": 12, "tyid": "304001", "oid": "103:1576575201119", "color": "#262626" }, "geometry": { "type": "Point", "coordinates": [ 164.882812, 61.814664 ] } }
{"year": "BC209",  "type": "Feature", "tippecanoe": { "layer": "2AFCA7B40D681583918269947", "minzoom": 2, "maxzoom": 8 }, "properties": { "halo": 0.8, "title": "楚科奇人", "fontsize": 12, "tyid": "304001", "oid": "103:1576575201390", "color": "#262626" }, "geometry": { "type": "Point", "coordinates": [ 171.035156, 66.443107 ] } }
{"year": "BC209",  "type": "Feature", "tippecanoe": { "layer": "2AFCA7B40D681583918269947", "minzoom": 2, "maxzoom": 8 }, "properties": { "halo": 0.8, "title": "弥生人", "fontsize": 12, "tyid": "304001", "oid": "103:1576575201288", "color": "#262626" }, "geometry": { "type": "Point", "coordinates": [ 139.218750, 36.668419 ] } }
{"year": "BC209",  "type": "Feature", "tippecanoe": { "layer": "2AFCA7B40D681583918269947", "minzoom": 2, "maxzoom": 8 }, "properties": { "halo": 0.8, "title": "西北班图人诸部", "fontsize": 12, "tyid": "304001", "oid": "103:1576575201339", "color": "#262626" }, "geometry": { "type": "Point", "coordinates": [ 20.742188, -0.527336 ] } }
{"year": "BC209",  "type": "Feature", "tippecanoe": { "layer": "2AFCA7B40D681583918269947", "minzoom": 2, "maxzoom": 8 }, "properties": { "halo": 0.8, "title": "西班图人诸部", "fontsize": 12, "tyid": "304001", "oid": "103:1576575201194", "color": "#262626" }, "geometry": { "type": "Point", "coordinates": [ 21.972656, -8.494105 ] } }
{"year": "BC209",  "type": "Feature", "tippecanoe": { "layer": "2AFCA7B40D681583918269947", "minzoom": 2, "maxzoom": 8 }, "properties": { "halo": 0.8, "title": "东班图人诸部", "fontsize": 12, "tyid": "304001", "oid": "103:1576575201196", "color": "#262626" }, "geometry": { "type": "Point", "coordinates": [ 34.804688, -8.146243 ] } }
{"year": "BC209",  "type": "Feature", "tippecanoe": { "layer": "2AFCA7B40D681583918269947", "minzoom": 2, "maxzoom": 8 }, "properties": { "halo": 0.8, "title": "科伊桑人", "fontsize": 12, "tyid": "304001", "oid": "103:1576575201197", "color": "#262626" }, "geometry": { "type": "Point", "coordinates": [ 23.466797, -22.350076 ] } }
{"year": "BC209",  "type": "Feature", "tippecanoe": { "layer": "2AFCA7B40D681583918269947", "minzoom": 2, "maxzoom": 8 }, "properties": { "halo": 0.8, "title": "澳洲原住民", "fontsize": 12, "tyid": "304001", "oid": "103:1576575201395", "color": "#262626" }, "geometry": { "type": "Point", "coordinates": [ 134.296875, -25.562265 ] } }
{"year": "BC209",  "type": "Feature", "tippecanoe": { "layer": "2AFCA7B40D681583918269947", "minzoom": 2, "maxzoom": 8 }, "properties": { "halo": 0.8, "title": "巴布亚人", "fontsize": 12, "tyid": "304001", "oid": "103:1576575201202", "color": "#262626" }, "geometry": { "type": "Point", "coordinates": [ 140.888672, -5.266008 ] } }
{"year": "BC209",  "type": "Feature", "tippecanoe": { "layer": "2AFCA7B40DA01583918269953", "minzoom": 2, "maxzoom": 8 }, "properties": { "halo": 1.6, "title": "诺顿文化", "fontsize": 12, "tyid": "304002", "oid": "103:1576575201462", "color": "#0056E7" }, "geometry": { "type": "Point", "coordinates": [ -163.037109, 68.528235 ] } }
{"year": "BC209",  "type": "Feature", "tippecanoe": { "layer": "2AFCA7B40DA01583918269953", "minzoom": 2, "maxzoom": 8 }, "properties": { "halo": 1.6, "title": "因纽特人", "fontsize": 12, "tyid": "304001", "oid": "103:1576575201225", "color": "#0056E7" }, "geometry": { "type": "Point", "coordinates": [ -91.845703, 67.238062 ] } }
{"year": "BC209",  "type": "Feature", "tippecanoe": { "layer": "2AFCA7B40DA01583918269953", "minzoom": 2, "maxzoom": 8 }, "properties": { "halo": 1.6, "title": "尤皮克人", "fontsize": 12, "tyid": "304001", "oid": "103:1576575201591", "color": "#0056E7" }, "geometry": { "type": "Point", "coordinates": [ -154.775391, 62.431074 ] } }
{"year": "BC209",  "type": "Feature", "tippecanoe": { "layer": "2AFCA7B40DA01583918269953", "minzoom": 2, "maxzoom": 8 }, "properties": { "halo": 1.6, "title": "因纽皮雅特人", "fontsize": 12, "tyid": "304001", "oid": "103:1576575201117", "color": "#0056E7" }, "geometry": { "type": "Point", "coordinates": [ -149.501953, 65.219894 ] } }
{"year": "BC209",  "type": "Feature", "tippecanoe": { "layer": "2AFCA7B40DA01583918269953", "minzoom": 2, "maxzoom": 8 }, "properties": { "halo": 1.6, "title": "阿留申人", "fontsize": 12, "tyid": "304001", "oid": "103:1576575201492", "color": "#0056E7" }, "geometry": { "type": "Point", "coordinates": [ -152.226562, 61.312452 ] } }
{"year": "BC209",  "type": "Feature", "tippecanoe": { "layer": "2AFCA7B40DA01583918269953", "minzoom": 2, "maxzoom": 8 }, "properties": { "halo": 1.6, "title": "泰萨勒页岩文化", "fontsize": 12, "tyid": "304002", "oid": "103:1576575201544", "color": "#0056E7" }, "geometry": { "type": "Point", "coordinates": [ -97.470703, 56.511018 ] } }
{"year": "BC209",  "type": "Feature", "tippecanoe": { "layer": "2AFCA7B40DA01583918269953", "minzoom": 2, "maxzoom": 8 }, "properties": { "halo": 1.6, "title": "坎贝尔文化", "fontsize": 12, "tyid": "304002", "oid": "103:1576575201181", "color": "#0056E7" }, "geometry": { "type": "Point", "coordinates": [ -121.289062, 38.685510 ] } }
{"year": "BC209",  "type": "Feature", "tippecanoe": { "layer": "2AFCA7B40DA01583918269953", "minzoom": 2, "maxzoom": 8 }, "properties": { "halo": 1.6, "title": "圣迪基图文化", "fontsize": 12, "tyid": "304002", "oid": "103:1576575201141", "color": "#0056E7" }, "geometry": { "type": "Point", "coordinates": [ -115.224609, 33.211116 ] } }
{"year": "BC209",  "type": "Feature", "tippecanoe": { "layer": "2AFCA7B40DA01583918269953", "minzoom": 2, "maxzoom": 8 }, "properties": { "halo": 1.6, "title": "独立二期文化", "fontsize": 12, "tyid": "304002", "oid": "103:1576575201393", "color": "#0056E7" }, "geometry": { "type": "Point", "coordinates": [ -41.484375, 81.984696 ] } }
{"year": "BC209",  "type": "Feature", "tippecanoe": { "layer": "2AFCA7B40DA01583918269953", "minzoom": 2, "maxzoom": 8 }, "properties": { "halo": 1.6, "title": "波茵特半岛文化", "fontsize": 12, "tyid": "304002", "oid": "103:1576575201460", "color": "#0056E7" }, "geometry": { "type": "Point", "coordinates": [ -76.816406, 45.336702 ] } }
{"year": "BC209",  "type": "Feature", "tippecanoe": { "layer": "2AFCA7B40DA01583918269953", "minzoom": 2, "maxzoom": 8 }, "properties": { "halo": 1.6, "title": "古海洋文化", "fontsize": 12, "tyid": "304002", "oid": "103:1576575201057", "color": "#0056E7" }, "geometry": { "type": "Point", "coordinates": [ -66.621094, 47.279229 ] } }
{"year": "BC209",  "type": "Feature", "tippecanoe": { "layer": "2AFCA7B40DA01583918269953", "minzoom": 2, "maxzoom": 8 }, "properties": { "halo": 1.6, "title": "阿登纳文化", "fontsize": 12, "tyid": "304002", "oid": "103:1576575201451", "color": "#0056E7" }, "geometry": { "type": "Point", "coordinates": [ -81.826172, 40.513799 ] } }
{"year": "BC209",  "type": "Feature", "tippecanoe": { "layer": "2AFCA7B40DA01583918269953", "minzoom": 2, "maxzoom": 8 }, "properties": { "halo": 1.6, "title": "凯尔特布立吞人", "fontsize": 12, "tyid": "304001", "oid": "103:1576575201326", "color": "#0056E7" }, "geometry": { "type": "Point", "coordinates": [ -1.845703, 52.589701 ] } }
{"year": "BC209",  "type": "Feature", "tippecanoe": { "layer": "2AFCA7B40DA01583918269953", "minzoom": 2, "maxzoom": 8 }, "properties": { "halo": 1.8, "title": "迦太基帝国", "fontsize": 12, "tyid": "304000", "oid": "103:1576575201426", "color": "#0056E7" }, "geometry": { "type": "Point", "coordinates": [ -2.460938, 39.164141 ] } }
{"year": "BC209",  "type": "Feature", "tippecanoe": { "layer": "2AFCA7B40DA01583918269953", "minzoom": 2, "maxzoom": 8 }, "properties": { "halo": 1.6, "title": "巴富尔人", "fontsize": 12, "tyid": "304001", "oid": "103:1576575201455", "color": "#0056E7" }, "geometry": { "type": "Point", "coordinates": [ -8.261719, 22.755921 ] } }
{"year": "BC209",  "type": "Feature", "tippecanoe": { "layer": "2AFCA7B40DA01583918269953", "minzoom": 2, "maxzoom": 8 }, "properties": { "halo": 1.6, "title": "索宁克人", "fontsize": 12, "tyid": "304001", "oid": "103:1576575201480", "color": "#0056E7" }, "geometry": { "type": "Point", "coordinates": [ -8.964844, 15.284185 ] } }
{"year": "BC209",  "type": "Feature", "tippecanoe": { "layer": "2AFCA7B40DA01583918269953", "minzoom": 2, "maxzoom": 8 }, "properties": { "halo": 1.6, "title": "曼德人", "fontsize": 12, "tyid": "304001", "oid": "103:1576575201169", "color": "#0056E7" }, "geometry": { "type": "Point", "coordinates": [ -4.482422, 9.275622 ] } }
{"year": "BC209",  "type": "Feature", "tippecanoe": { "layer": "2AFCA7B40DA01583918269953", "minzoom": 2, "maxzoom": 8 }, "properties": { "halo": 1.6, "title": "图皮人", "fontsize": 12, "tyid": "304001", "oid": "103:1576575201063", "color": "#0056E7" }, "geometry": { "type": "Point", "coordinates": [ -37.617188, -8.233237 ] } }
{"year": "BC209",  "type": "Feature", "tippecanoe": { "layer": "2AFCA7B40DA01583918269953", "minzoom": 2, "maxzoom": 8 }, "properties": { "halo": 1.6, "title": "萨米人", "fontsize": 12, "tyid": "304001", "oid": "103:1576575201439", "color": "#0056E7" }, "geometry": { "type": "Point", "coordinates": [ 22.412109, 68.496040 ] } }
{"year": "BC209",  "type": "Feature", "tippecanoe": { "layer": "2AFCA7B40DA01583918269953", "minzoom": 2, "maxzoom": 8 }, "properties": { "halo": 1.6, "title": "乌斯特波卢伊文化", "fontsize": 12, "tyid": "304002", "oid": "103:1576575201132", "color": "#0056E7" }, "geometry": { "type": "Point", "coordinates": [ 70.312500, 68.204212 ] } }
{"year": "BC209",  "type": "Feature", "tippecanoe": { "layer": "2AFCA7B40DA01583918269953", "minzoom": 2, "maxzoom": 8 }, "properties": { "halo": 1.6, "title": "原始日耳曼人", "fontsize": 12, "tyid": "304001", "oid": "103:1576575201293", "color": "#0056E7" }, "geometry": { "type": "Point", "coordinates": [ 12.480469, 60.326948 ] } }
{"year": "BC209",  "type": "Feature", "tippecanoe": { "layer": "2AFCA7B40DA01583918269953", "minzoom": 2, "maxzoom": 8 }, "properties": { "halo": 1.6, "title": "贝尔盖人", "fontsize": 12, "tyid": "304001", "oid": "103:1576575201618", "color": "#0056E7" }, "geometry": { "type": "Point", "coordinates": [ 4.833984, 49.724479 ] } }
{"year": "BC209",  "type": "Feature", "tippecanoe": { "layer": "2AFCA7B40DA01583918269953", "minzoom": 2, "maxzoom": 8 }, "properties": { "halo": 1.6, "title": "山外高卢人", "fontsize": 12, "tyid": "304001", "oid": "103:1576575201073", "color": "#0056E7" }, "geometry": { "type": "Point", "coordinates": [ 1.582031, 46.558860 ] } }
{"year": "BC209",  "type": "Feature", "tippecanoe": { "layer": "2AFCA7B40DA01583918269953", "minzoom": 2, "maxzoom": 8 }, "properties": { "halo": 1.6, "title": "日耳曼人", "fontsize": 12, "tyid": "304001", "oid": "103:1576575201157", "color": "#0056E7" }, "geometry": { "type": "Point", "coordinates": [ 12.392578, 51.944265 ] } }
{"year": "BC209",  "type": "Feature", "tippecanoe": { "layer": "2AFCA7B40DA01583918269953", "minzoom": 2, "maxzoom": 8 }, "properties": { "halo": 1.6, "title": "凯尔特人", "fontsize": 12, "tyid": "304001", "oid": "103:1576575201080", "color": "#0056E7" }, "geometry": { "type": "Point", "coordinates": [ 16.787109, 47.635784 ] } }
{"year": "BC209",  "type": "Feature", "tippecanoe": { "layer": "2AFCA7B40DA01583918269953", "minzoom": 2, "maxzoom": 8 }, "properties": { "halo": 1.8, "title": "罗马共和国", "fontsize": 12, "tyid": "304000", "oid": "103:1576575201498", "color": "#0056E7" }, "geometry": { "type": "Point", "coordinates": [ 12.919922, 42.553080 ] } }
{"year": "BC209",  "type": "Feature", "tippecanoe": { "layer": "2AFCA7B40DA01583918269953", "minzoom": 2, "maxzoom": 8 }, "properties": { "halo": 1.6, "title": "迪亚科夫文化", "fontsize": 12, "tyid": "304002", "oid": "103:1576575201232", "color": "#0056E7" }, "geometry": { "type": "Point", "coordinates": [ 37.968750, 56.800878 ] } }
{"year": "BC209",  "type": "Feature", "tippecanoe": { "layer": "2AFCA7B40DA01583918269953", "minzoom": 2, "maxzoom": 8 }, "properties": { "halo": 1.6, "title": "第聂伯河与德维纳河文化", "fontsize": 12, "tyid": "304001", "oid": "103:1576575201375", "color": "#0056E7" }, "geometry": { "type": "Point", "coordinates": [ 31.816406, 55.677584 ] } }
{"year": "BC209",  "type": "Feature", "tippecanoe": { "layer": "2AFCA7B40DA01583918269953", "minzoom": 2, "maxzoom": 8 }, "properties": { "halo": 1.6, "title": "扎鲁宾西文化", "fontsize": 12, "tyid": "304002", "oid": "103:1576575201520", "color": "#0056E7" }, "geometry": { "type": "Point", "coordinates": [ 29.882812, 50.903033 ] } }
{"year": "BC209",  "type": "Feature", "tippecanoe": { "layer": "2AFCA7B40DA01583918269953", "minzoom": 2, "maxzoom": 8 }, "properties": { "halo": 1.6, "title": "达契亚人", "fontsize": 12, "tyid": "304001", "oid": "103:1576575201085", "color": "#0056E7" }, "geometry": { "type": "Point", "coordinates": [ 25.400391, 46.195042 ] } }
{"year": "BC209",  "type": "Feature", "tippecanoe": { "layer": "2AFCA7B40DA01583918269953", "minzoom": 2, "maxzoom": 8 }, "properties": { "halo": 1.6, "title": "戈罗杰茨文化", "fontsize": 12, "tyid": "304002", "oid": "103:1576575201297", "color": "#0056E7" }, "geometry": { "type": "Point", "coordinates": [ 44.384766, 54.521081 ] } }
{"year": "BC209",  "type": "Feature", "tippecanoe": { "layer": "2AFCA7B40DA01583918269953", "minzoom": 2, "maxzoom": 8 }, "properties": { "halo": 1.6, "title": "柏柏尔人诸部", "fontsize": 12, "tyid": "304001", "oid": "103:1576575201100", "color": "#0056E7" }, "geometry": { "type": "Point", "coordinates": [ 3.955078, 26.824071 ] } }
{"year": "BC209",  "type": "Feature", "tippecanoe": { "layer": "2AFCA7B40DA01583918269953", "minzoom": 2, "maxzoom": 8 }, "properties": { "halo": 1.6, "title": "加拉曼特人", "fontsize": 12, "tyid": "304001", "oid": "103:1576575201160", "color": "#0056E7" }, "geometry": { "type": "Point", "coordinates": [ 16.523438, 29.535230 ] } }
{"year": "BC209",  "type": "Feature", "tippecanoe": { "layer": "2AFCA7B40DA01583918269953", "minzoom": 2, "maxzoom": 8 }, "properties": { "halo": 1.6, "title": "诺克文化", "fontsize": 12, "tyid": "304002", "oid": "103:1576575201249", "color": "#0056E7" }, "geometry": { "type": "Point", "coordinates": [ 7.119141, 10.574222 ] } }
{"year": "BC209",  "type": "Feature", "tippecanoe": { "layer": "2AFCA7B40DA01583918269953", "minzoom": 2, "maxzoom": 8 }, "properties": { "halo": 1.6, "title": "萨奥文明", "fontsize": 12, "tyid": "304002", "oid": "103:1576575201500", "color": "#0056E7" }, "geometry": { "type": "Point", "coordinates": [ 15.468750, 13.068777 ] } }
{"year": "BC209",  "type": "Feature", "tippecanoe": { "layer": "2AFCA7B40DA01583918269953", "minzoom": 2, "maxzoom": 8 }, "properties": { "halo": 1.6, "title": "巴卡人", "fontsize": 12, "tyid": "304001", "oid": "103:1576575201548", "color": "#0056E7" }, "geometry": { "type": "Point", "coordinates": [ 18.105469, 5.441022 ] } }
{"year": "BC209",  "type": "Feature", "tippecanoe": { "layer": "2AFCA7B40DA01583918269953", "minzoom": 2, "maxzoom": 8 }, "properties": { "halo": 1.8, "title": "托勒密王国", "fontsize": 12, "tyid": "304000", "oid": "103:1576575201504", "color": "#0056E7" }, "geometry": { "type": "Point", "coordinates": [ 31.201172, 27.215556 ] } }
{"year": "BC209",  "type": "Feature", "tippecanoe": { "layer": "2AFCA7B40DA01583918269953", "minzoom": 2, "maxzoom": 8 }, "properties": { "halo": 1.8, "title": "利黑延王国", "fontsize": 12, "tyid": "304000", "oid": "103:1576575201238", "color": "#0056E7" }, "geometry": { "type": "Point", "coordinates": [ 38.847656, 25.958045 ] } }
{"year": "BC209",  "type": "Feature", "tippecanoe": { "layer": "2AFCA7B40DA01583918269953", "minzoom": 2, "maxzoom": 8 }, "properties": { "halo": 1.6, "title": "凯达尔联盟", "fontsize": 12, "tyid": "304001", "oid": "103:1576575201234", "color": "#0056E7" }, "geometry": { "type": "Point", "coordinates": [ 42.275391, 29.535230 ] } }
{"year": "BC209",  "type": "Feature", "tippecanoe": { "layer": "2AFCA7B40DA01583918269953", "minzoom": 2, "maxzoom": 8 }, "properties": { "halo": 1.6, "title": "北非贝都因人", "fontsize": 12, "tyid": "304001", "oid": "103:1576575201399", "color": "#0056E7" }, "geometry": { "type": "Point", "coordinates": [ 22.675781, 20.715015 ] } }
{"year": "BC209",  "type": "Feature", "tippecanoe": { "layer": "2AFCA7B40DA01583918269953", "minzoom": 2, "maxzoom": 8 }, "properties": { "halo": 1.6, "title": "富尔人", "fontsize": 12, "tyid": "304001", "oid": "103:1576575201579", "color": "#0056E7" }, "geometry": { "type": "Point", "coordinates": [ 26.015625, 12.983148 ] } }
{"year": "BC209",  "type": "Feature", "tippecanoe": { "layer": "2AFCA7B40DA01583918269953", "minzoom": 2, "maxzoom": 8 }, "properties": { "halo": 1.8, "title": "库施王国", "fontsize": 12, "tyid": "304000", "oid": "103:1576575201332", "color": "#0056E7" }, "geometry": { "type": "Point", "coordinates": [ 32.255859, 17.644022 ] } }
{"year": "BC209",  "type": "Feature", "tippecanoe": { "layer": "2AFCA7B40DA01583918269953", "minzoom": 2, "maxzoom": 8 }, "properties": { "halo": 1.6, "title": "尼罗特人", "fontsize": 12, "tyid": "304001", "oid": "103:1576575201512", "color": "#0056E7" }, "geometry": { "type": "Point", "coordinates": [ 33.310547, 1.230374 ] } }
{"year": "BC209",  "type": "Feature", "tippecanoe": { "layer": "2AFCA7B40DA01583918269953", "minzoom": 2, "maxzoom": 8 }, "properties": { "halo": 1.6, "title": "赛莫德人", "fontsize": 12, "tyid": "304001", "oid": "103:1576575201478", "color": "#0056E7" }, "geometry": { "type": "Point", "coordinates": [ 42.626953, 21.698265 ] } }
{"year": "BC209",  "type": "Feature", "tippecanoe": { "layer": "2AFCA7B40DA01583918269953", "minzoom": 2, "maxzoom": 8 }, "properties": { "halo": 1.6, "title": "卢欧诸部", "fontsize": 12, "tyid": "304001", "oid": "103:1576575201154", "color": "#0056E7" }, "geometry": { "type": "Point", "coordinates": [ 36.123047, 9.015302 ] } }
{"year": "BC209",  "type": "Feature", "tippecanoe": { "layer": "2AFCA7B40DA01583918269953", "minzoom": 2, "maxzoom": 8 }, "properties": { "halo": 1.6, "title": "库希特人", "fontsize": 12, "tyid": "304001", "oid": "103:1576575201271", "color": "#0056E7" }, "geometry": { "type": "Point", "coordinates": [ 44.121094, 4.477856 ] } }
{"year": "BC209",  "type": "Feature", "tippecanoe": { "layer": "2AFCA7B40DA01583918269953", "minzoom": 2, "maxzoom": 8 }, "properties": { "halo": 1.6, "title": "彼尔姆人", "fontsize": 12, "tyid": "304001", "oid": "103:1576575201459", "color": "#0056E7" }, "geometry": { "type": "Point", "coordinates": [ 55.371094, 57.844751 ] } }
{"year": "BC209",  "type": "Feature", "tippecanoe": { "layer": "2AFCA7B40DA01583918269953", "minzoom": 2, "maxzoom": 8 }, "properties": { "halo": 1.6, "title": "东马扎尔人", "fontsize": 12, "tyid": "304001", "oid": "103:1576575201542", "color": "#0056E7" }, "geometry": { "type": "Point", "coordinates": [ 59.238281, 61.396719 ] } }
{"year": "BC209",  "type": "Feature", "tippecanoe": { "layer": "2AFCA7B40DA01583918269953", "minzoom": 2, "maxzoom": 8 }, "properties": { "halo": 1.6, "title": "萨尔马提亚人", "fontsize": 12, "tyid": "304001", "oid": "103:1576575201378", "color": "#0056E7" }, "geometry": { "type": "Point", "coordinates": [ 46.406250, 50.847573 ] } }
{"year": "BC209",  "type": "Feature", "tippecanoe": { "layer": "2AFCA7B40DA01583918269953", "minzoom": 2, "maxzoom": 8 }, "properties": { "halo": 1.6, "title": "奥苏伊人", "fontsize": 12, "tyid": "304001", "oid": "103:1576575201409", "color": "#0056E7" }, "geometry": { "type": "Point", "coordinates": [ 49.746094, 47.635784 ] } }
{"year": "BC209",  "type": "Feature", "tippecanoe": { "layer": "2AFCA7B40DA01583918269953", "minzoom": 2, "maxzoom": 8 }, "properties": { "halo": 1.6, "title": "萨迦蒂安文化", "fontsize": 12, "tyid": "304002", "oid": "103:1576575201115", "color": "#0056E7" }, "geometry": { "type": "Point", "coordinates": [ 63.105469, 54.367759 ] } }
{"year": "BC209",  "type": "Feature", "tippecanoe": { "layer": "2AFCA7B40DA01583918269953", "minzoom": 2, "maxzoom": 8 }, "properties": { "halo": 1.6, "title": "斯基泰人", "fontsize": 12, "tyid": "304001", "oid": "103:1576575201262", "color": "#0056E7" }, "geometry": { "type": "Point", "coordinates": [ 63.544922, 49.325122 ] } }
{"year": "BC209",  "type": "Feature", "tippecanoe": { "layer": "2AFCA7B40DA01583918269953", "minzoom": 2, "maxzoom": 8 }, "properties": { "halo": 1.6, "title": "马萨格泰人", "fontsize": 12, "tyid": "304001", "oid": "103:1576575201269", "color": "#0056E7" }, "geometry": { "type": "Point", "coordinates": [ 63.017578, 46.195042 ] } }
{"year": "BC209",  "type": "Feature", "tippecanoe": { "layer": "2AFCA7B40DA01583918269953", "minzoom": 2, "maxzoom": 8 }, "properties": { "halo": 1.6, "title": "乌戈尔人", "fontsize": 12, "tyid": "304001", "oid": "103:1576575201588", "color": "#0056E7" }, "geometry": { "type": "Point", "coordinates": [ 77.080078, 57.088515 ] } }
{"year": "BC209",  "type": "Feature", "tippecanoe": { "layer": "2AFCA7B40DA01583918269953", "minzoom": 2, "maxzoom": 8 }, "properties": { "halo": 1.6, "title": "库莱文化", "fontsize": 12, "tyid": "304002", "oid": "103:1576575201138", "color": "#0056E7" }, "geometry": { "type": "Point", "coordinates": [ 84.111328, 59.130863 ] } }
{"year": "BC209",  "type": "Feature", "tippecanoe": { "layer": "2AFCA7B40DA01583918269953", "minzoom": 2, "maxzoom": 8 }, "properties": { "halo": 1.6, "title": "塔斯莫拉文化", "fontsize": 12, "tyid": "304002", "oid": "103:1576575201122", "color": "#0056E7" }, "geometry": { "type": "Point", "coordinates": [ 74.619141, 48.806863 ] } }
{"year": "BC209",  "type": "Feature", "tippecanoe": { "layer": "2AFCA7B40DA01583918269953", "minzoom": 2, "maxzoom": 8 }, "properties": { "halo": 1.6, "title": "塔加尔文化", "fontsize": 12, "tyid": "304002", "oid": "103:1576575201447", "color": "#0056E7" }, "geometry": { "type": "Point", "coordinates": [ 83.496094, 51.998410 ] } }
{"year": "BC209",  "type": "Feature", "tippecanoe": { "layer": "2AFCA7B40DA01583918269953", "minzoom": 2, "maxzoom": 8 }, "properties": { "halo": 1.6, "title": "呼揭", "fontsize": 12, "tyid": "304001", "oid": "103:1576575201148", "color": "#0056E7" }, "geometry": { "type": "Point", "coordinates": [ 88.417969, 47.457809 ] } }
{"year": "BC209",  "type": "Feature", "tippecanoe": { "layer": "2AFCA7B40DA01583918269953", "minzoom": 2, "maxzoom": 8 }, "properties": { "halo": 1.8, "title": "塞琉古帝国", "fontsize": 12, "tyid": "304000", "oid": "103:1576575201425", "color": "#0056E7" }, "geometry": { "type": "Point", "coordinates": [ 52.031250, 33.284620 ] } }
{"year": "BC209",  "type": "Feature", "tippecanoe": { "layer": "2AFCA7B40DA01583918269953", "minzoom": 2, "maxzoom": 8 }, "properties": { "halo": 1.6, "title": "贝都因人", "fontsize": 12, "tyid": "304001", "oid": "103:1576575201601", "color": "#0056E7" }, "geometry": { "type": "Point", "coordinates": [ 49.482422, 22.024546 ] } }
{"year": "BC209",  "type": "Feature", "tippecanoe": { "layer": "2AFCA7B40DA01583918269953", "minzoom": 2, "maxzoom": 8 }, "properties": { "halo": 1.8, "title": "帕提亚帝国", "fontsize": 12, "tyid": "304000", "oid": "103:1576575201352", "color": "#0056E7" }, "geometry": { "type": "Point", "coordinates": [ 58.095703, 37.996163 ] } }
{"year": "BC209",  "type": "Feature", "tippecanoe": { "layer": "2AFCA7B40DA01583918269953", "minzoom": 2, "maxzoom": 8 }, "properties": { "halo": 1.8, "title": "马克鲁比亚王国", "fontsize": 12, "tyid": "304000", "oid": "103:1576575201313", "color": "#0056E7" }, "geometry": { "type": "Point", "coordinates": [ 49.130859, 9.102097 ] } }
{"year": "BC209",  "type": "Feature", "tippecanoe": { "layer": "2AFCA7B40DA01583918269953", "minzoom": 2, "maxzoom": 8 }, "properties": { "halo": 1.8, "title": "希腊-巴克特里亚王国", "fontsize": 12, "tyid": "304000", "oid": "103:1576575201383", "color": "#0056E7" }, "geometry": { "type": "Point", "coordinates": [ 68.378906, 38.685510 ] } }
{"year": "BC209",  "type": "Feature", "tippecanoe": { "layer": "2AFCA7B40DA01583918269953", "minzoom": 2, "maxzoom": 8 }, "properties": { "halo": 1.8, "title": "孔雀帝国", "fontsize": 12, "tyid": "304000", "oid": "103:1576575201062", "color": "#0056E7" }, "geometry": { "type": "Point", "coordinates": [ 75.322266, 25.324167 ] } }
{"year": "BC209",  "type": "Feature", "tippecanoe": { "layer": "2AFCA7B40DA01583918269953", "minzoom": 2, "maxzoom": 8 }, "properties": { "halo": 1.8, "title": "象雄王国", "fontsize": 12, "tyid": "304000", "oid": "103:1576575201482", "color": "#0056E7" }, "geometry": { "type": "Point", "coordinates": [ 82.089844, 31.802893 ] } }
{"year": "BC209",  "type": "Feature", "tippecanoe": { "layer": "2AFCA7B40DA01583918269953", "minzoom": 2, "maxzoom": 8 }, "properties": { "halo": 1.6, "title": "坚昆", "fontsize": 12, "tyid": "304001", "oid": "103:1576575201355", "color": "#0056E7" }, "geometry": { "type": "Point", "coordinates": [ 95.449219, 54.470038 ] } }
{"year": "BC209",  "type": "Feature", "tippecanoe": { "layer": "2AFCA7B40DA01583918269953", "minzoom": 2, "maxzoom": 8 }, "properties": { "halo": 1.6, "title": "丁零", "fontsize": 12, "tyid": "304001", "oid": "103:1576575201287", "color": "#0056E7" }, "geometry": { "type": "Point", "coordinates": [ 109.248047, 52.214339 ] } }
{"year": "BC209",  "type": "Feature", "tippecanoe": { "layer": "2AFCA7B40DA01583918269953", "minzoom": 2, "maxzoom": 8 }, "properties": { "halo": 1.6, "title": "匈奴", "fontsize": 12, "tyid": "304001", "oid": "103:1576575201131", "color": "#0056E7" }, "geometry": { "type": "Point", "coordinates": [ 105.205078, 46.255847 ] } }
{"year": "BC209",  "type": "Feature", "tippecanoe": { "layer": "2AFCA7B40DA01583918269953", "minzoom": 2, "maxzoom": 8 }, "properties": { "halo": 1.6, "title": "通古斯人", "fontsize": 12, "tyid": "304001", "oid": "103:1576575201578", "color": "#0056E7" }, "geometry": { "type": "Point", "coordinates": [ 116.982422, 60.413852 ] } }
{"year": "BC209",  "type": "Feature", "tippecanoe": { "layer": "2AFCA7B40DA01583918269953", "minzoom": 2, "maxzoom": 8 }, "properties": { "halo": 1.6, "title": "东胡", "fontsize": 12, "tyid": "304001", "oid": "103:1576575201483", "color": "#0056E7" }, "geometry": { "type": "Point", "coordinates": [ 118.652344, 47.338823 ] } }
{"year": "BC209",  "type": "Feature", "tippecanoe": { "layer": "2AFCA7B40DA01583918269953", "minzoom": 2, "maxzoom": 8 }, "properties": { "halo": 1.6, "title": "肃慎", "fontsize": 12, "tyid": "304001", "oid": "103:1576575201185", "color": "#0056E7" }, "geometry": { "type": "Point", "coordinates": [ 132.187500, 47.100045 ] } }
{"year": "BC209",  "type": "Feature", "tippecanoe": { "layer": "2AFCA7B40DA01583918269953", "minzoom": 2, "maxzoom": 8 }, "properties": { "halo": 1.6, "title": "苏毗", "fontsize": 12, "tyid": "304001", "oid": "103:1576575201171", "color": "#0056E7" }, "geometry": { "type": "Point", "coordinates": [ 93.603516, 33.137551 ] } }
{"year": "BC209",  "type": "Feature", "tippecanoe": { "layer": "2AFCA7B40DA01583918269953", "minzoom": 2, "maxzoom": 8 }, "properties": { "halo": 1.6, "title": "月氏", "fontsize": 12, "tyid": "304001", "oid": "103:1576575201351", "color": "#0056E7" }, "geometry": { "type": "Point", "coordinates": [ 99.667969, 39.909736 ] } }
{"year": "BC209",  "type": "Feature", "tippecanoe": { "layer": "2AFCA7B40DA01583918269953", "minzoom": 2, "maxzoom": 8 }, "properties": { "halo": 1.6, "title": "古羌人", "fontsize": 12, "tyid": "304001", "oid": "103:1576575201345", "color": "#0056E7" }, "geometry": { "type": "Point", "coordinates": [ 100.634766, 32.990236 ] } }
{"year": "BC209",  "type": "Feature", "tippecanoe": { "layer": "2AFCA7B40DA01583918269953", "minzoom": 2, "maxzoom": 8 }, "properties": { "halo": 1.8, "title": "哀牢国", "fontsize": 12, "tyid": "304000", "oid": "103:1576575201054", "color": "#0056E7" }, "geometry": { "type": "Point", "coordinates": [ 100.195312, 22.674847 ] } }
{"year": "BC209",  "type": "Feature", "tippecanoe": { "layer": "2AFCA7B40DA01583918269953", "minzoom": 2, "maxzoom": 8 }, "properties": { "halo": 1.8, "title": "秦朝", "fontsize": 12, "tyid": "304000", "oid": "103:1576575201354", "color": "#0056E7" }, "geometry": { "type": "Point", "coordinates": [ 111.796875, 31.728167 ] } }
{"year": "BC209",  "type": "Feature", "tippecanoe": { "layer": "2AFCA7B40DA01583918269953", "minzoom": 2, "maxzoom": 8 }, "properties": { "halo": 1.6, "title": "南岛人", "fontsize": 12, "tyid": "304001", "oid": "103:1576575201103", "color": "#0056E7" }, "geometry": { "type": "Point", "coordinates": [ 114.169922, 0.878872 ] } }
{"year": "BC209",  "type": "Feature", "tippecanoe": { "layer": "2AFCA7B40DA01583918269953", "minzoom": 2, "maxzoom": 8 }, "properties": { "halo": 1.6, "title": "尤卡吉尔人", "fontsize": 12, "tyid": "304001", "oid": "103:1576575201401", "color": "#0056E7" }, "geometry": { "type": "Point", "coordinates": [ 155.214844, 64.886265 ] } }
{"year": "BC209",  "type": "Feature", "tippecanoe": { "layer": "2AFCA7B40DA01583918269953", "minzoom": 2, "maxzoom": 8 }, "properties": { "halo": 1.6, "title": "尼夫赫人", "fontsize": 12, "tyid": "304001", "oid": "103:1576575201092", "color": "#0056E7" }, "geometry": { "type": "Point", "coordinates": [ 138.779297, 51.890054 ] } }
{"year": "BC209",  "type": "Feature", "tippecanoe": { "layer": "2AFCA7B40DA01583918269953", "minzoom": 2, "maxzoom": 8 }, "properties": { "halo": 1.6, "title": "科里亚克族", "fontsize": 12, "tyid": "304001", "oid": "103:1576575201119", "color": "#0056E7" }, "geometry": { "type": "Point", "coordinates": [ 164.882812, 61.814664 ] } }
{"year": "BC209",  "type": "Feature", "tippecanoe": { "layer": "2AFCA7B40DA01583918269953", "minzoom": 2, "maxzoom": 8 }, "properties": { "halo": 1.6, "title": "楚科奇人", "fontsize": 12, "tyid": "304001", "oid": "103:1576575201390", "color": "#0056E7" }, "geometry": { "type": "Point", "coordinates": [ 171.035156, 66.443107 ] } }
{"year": "BC209",  "type": "Feature", "tippecanoe": { "layer": "2AFCA7B40DA01583918269953", "minzoom": 2, "maxzoom": 8 }, "properties": { "halo": 1.6, "title": "弥生人", "fontsize": 12, "tyid": "304001", "oid": "103:1576575201288", "color": "#0056E7" }, "geometry": { "type": "Point", "coordinates": [ 139.218750, 36.668419 ] } }
{"year": "BC209",  "type": "Feature", "tippecanoe": { "layer": "2AFCA7B40DA01583918269953", "minzoom": 2, "maxzoom": 8 }, "properties": { "halo": 1.6, "title": "西北班图人诸部", "fontsize": 12, "tyid": "304001", "oid": "103:1576575201339", "color": "#0056E7" }, "geometry": { "type": "Point", "coordinates": [ 20.742188, -0.527336 ] } }
{"year": "BC209",  "type": "Feature", "tippecanoe": { "layer": "2AFCA7B40DA01583918269953", "minzoom": 2, "maxzoom": 8 }, "properties": { "halo": 1.6, "title": "西班图人诸部", "fontsize": 12, "tyid": "304001", "oid": "103:1576575201194", "color": "#0056E7" }, "geometry": { "type": "Point", "coordinates": [ 21.972656, -8.494105 ] } }
{"year": "BC209",  "type": "Feature", "tippecanoe": { "layer": "2AFCA7B40DA01583918269953", "minzoom": 2, "maxzoom": 8 }, "properties": { "halo": 1.6, "title": "东班图人诸部", "fontsize": 12, "tyid": "304001", "oid": "103:1576575201196", "color": "#0056E7" }, "geometry": { "type": "Point", "coordinates": [ 34.804688, -8.146243 ] } }
{"year": "BC209",  "type": "Feature", "tippecanoe": { "layer": "2AFCA7B40DA01583918269953", "minzoom": 2, "maxzoom": 8 }, "properties": { "halo": 1.6, "title": "科伊桑人", "fontsize": 12, "tyid": "304001", "oid": "103:1576575201197", "color": "#0056E7" }, "geometry": { "type": "Point", "coordinates": [ 23.466797, -22.350076 ] } }
{"year": "BC209",  "type": "Feature", "tippecanoe": { "layer": "2AFCA7B40DA01583918269953", "minzoom": 2, "maxzoom": 8 }, "properties": { "halo": 1.6, "title": "澳洲原住民", "fontsize": 12, "tyid": "304001", "oid": "103:1576575201395", "color": "#0056E7" }, "geometry": { "type": "Point", "coordinates": [ 134.296875, -25.562265 ] } }
{"year": "BC209",  "type": "Feature", "tippecanoe": { "layer": "2AFCA7B40DA01583918269953", "minzoom": 2, "maxzoom": 8 }, "properties": { "halo": 1.6, "title": "巴布亚人", "fontsize": 12, "tyid": "304001", "oid": "103:1576575201202", "color": "#0056E7" }, "geometry": { "type": "Point", "coordinates": [ 140.888672, -5.266008 ] } }
{"year": "BC209",  "type": "Feature", "tippecanoe": { "layer": "2AFCA7B40E101583918269955", "minzoom": 2, "maxzoom": 8 }, "properties": { "halo": 1.6, "title": "拉霍亚文化", "fontsize": 12, "tyid": "304002", "oid": "103:1576575201585", "color": "#0056E7" }, "geometry": { "type": "Point", "coordinates": [ -118.916016, 34.597042 ] } }
{"year": "BC209",  "type": "Feature", "tippecanoe": { "layer": "2AFCA7B40E101583918269955", "minzoom": 2, "maxzoom": 8 }, "properties": { "halo": 1.6, "title": "古普韦布洛人", "fontsize": 12, "tyid": "304001", "oid": "103:1576575201258", "color": "#0056E7" }, "geometry": { "type": "Point", "coordinates": [ -110.126953, 36.949892 ] } }
{"year": "BC209",  "type": "Feature", "tippecanoe": { "layer": "2AFCA7B40E101583918269955", "minzoom": 2, "maxzoom": 8 }, "properties": { "halo": 1.6, "title": "科奇斯文化", "fontsize": 12, "tyid": "304002", "oid": "103:1576575201146", "color": "#0056E7" }, "geometry": { "type": "Point", "coordinates": [ -110.039062, 32.249974 ] } }
{"year": "BC209",  "type": "Feature", "tippecanoe": { "layer": "2AFCA7B40E101583918269955", "minzoom": 2, "maxzoom": 8 }, "properties": { "halo": 1.6, "title": "奇瓦瓦文化", "fontsize": 12, "tyid": "304002", "oid": "103:1576575201472", "color": "#0056E7" }, "geometry": { "type": "Point", "coordinates": [ -107.226562, 32.768800 ] } }
{"year": "BC209",  "type": "Feature", "tippecanoe": { "layer": "2AFCA7B40E101583918269955", "minzoom": 2, "maxzoom": 8 }, "properties": { "halo": 1.6, "title": "奥沙拉文化", "fontsize": 12, "tyid": "304002", "oid": "103:1576575201336", "color": "#0056E7" }, "geometry": { "type": "Point", "coordinates": [ -106.699219, 37.579413 ] } }
{"year": "BC209",  "type": "Feature", "tippecanoe": { "layer": "2AFCA7B40E101583918269955", "minzoom": 2, "maxzoom": 8 }, "properties": { "halo": 1.6, "title": "瓜伊库拉人", "fontsize": 12, "tyid": "304001", "oid": "103:1576575201403", "color": "#0056E7" }, "geometry": { "type": "Point", "coordinates": [ -111.269531, 24.846565 ] } }
{"year": "BC209",  "type": "Feature", "tippecanoe": { "layer": "2AFCA7B40E101583918269955", "minzoom": 2, "maxzoom": 8 }, "properties": { "halo": 1.6, "title": "福切马里尼文化", "fontsize": 12, "tyid": "304002", "oid": "103:1576575201453", "color": "#0056E7" }, "geometry": { "type": "Point", "coordinates": [ -94.306641, 33.358062 ] } }
{"year": "BC209",  "type": "Feature", "tippecanoe": { "layer": "2AFCA7B40E101583918269955", "minzoom": 2, "maxzoom": 8 }, "properties": { "halo": 1.6, "title": "楚拉时期", "fontsize": 12, "tyid": "304002", "oid": "103:1576575201464", "color": "#0056E7" }, "geometry": { "type": "Point", "coordinates": [ -92.021484, 32.472695 ] } }
{"year": "BC209",  "type": "Feature", "tippecanoe": { "layer": "2AFCA7B40E101583918269955", "minzoom": 2, "maxzoom": 8 }, "properties": { "halo": 1.6, "title": "华斯塔克文明", "fontsize": 12, "tyid": "304002", "oid": "103:1576575201220", "color": "#0056E7" }, "geometry": { "type": "Point", "coordinates": [ -98.613281, 22.105999 ] } }
{"year": "BC209",  "type": "Feature", "tippecanoe": { "layer": "2AFCA7B40E101583918269955", "minzoom": 2, "maxzoom": 8 }, "properties": { "halo": 1.6, "title": "奇蒂玛察人", "fontsize": 12, "tyid": "304001", "oid": "103:1576575201538", "color": "#0056E7" }, "geometry": { "type": "Point", "coordinates": [ -91.054688, 30.372875 ] } }
{"year": "BC209",  "type": "Feature", "tippecanoe": { "layer": "2AFCA7B40E101583918269955", "minzoom": 2, "maxzoom": 8 }, "properties": { "halo": 1.6, "title": "特切特兰文化", "fontsize": 12, "tyid": "304002", "oid": "103:1576575201151", "color": "#0056E7" }, "geometry": { "type": "Point", "coordinates": [ -104.326172, 20.468189 ] } }
{"year": "BC209",  "type": "Feature", "tippecanoe": { "layer": "2AFCA7B40E101583918269955", "minzoom": 2, "maxzoom": 8 }, "properties": { "halo": 1.6, "title": "埃尔欧朋文化", "fontsize": 12, "tyid": "304002", "oid": "103:1576575201558", "color": "#0056E7" }, "geometry": { "type": "Point", "coordinates": [ -101.865234, 19.642588 ] } }
{"year": "BC209",  "type": "Feature", "tippecanoe": { "layer": "2AFCA7B40E101583918269955", "minzoom": 2, "maxzoom": 8 }, "properties": { "halo": 1.6, "title": "梅斯卡拉文化", "fontsize": 12, "tyid": "304002", "oid": "103:1576575201576", "color": "#0056E7" }, "geometry": { "type": "Point", "coordinates": [ -100.810547, 17.895114 ] } }
{"year": "BC209",  "type": "Feature", "tippecanoe": { "layer": "2AFCA7B40E101583918269955", "minzoom": 2, "maxzoom": 8 }, "properties": { "halo": 1.6, "title": "萨波特克文明", "fontsize": 12, "tyid": "304002", "oid": "103:1576575201517", "color": "#0056E7" }, "geometry": { "type": "Point", "coordinates": [ -96.064453, 16.636192 ] } }
{"year": "BC209",  "type": "Feature", "tippecanoe": { "layer": "2AFCA7B40E101583918269955", "minzoom": 2, "maxzoom": 8 }, "properties": { "halo": 1.6, "title": "德普特福德文化", "fontsize": 12, "tyid": "304002", "oid": "103:1576575201109", "color": "#0056E7" }, "geometry": { "type": "Point", "coordinates": [ -79.628906, 33.358062 ] } }
{"year": "BC209",  "type": "Feature", "tippecanoe": { "layer": "2AFCA7B40E101583918269955", "minzoom": 2, "maxzoom": 8 }, "properties": { "halo": 1.6, "title": "切格文特文化", "fontsize": 12, "tyid": "304002", "oid": "103:1576575201152", "color": "#0056E7" }, "geometry": { "type": "Point", "coordinates": [ -89.208984, 30.600094 ] } }
{"year": "BC209",  "type": "Feature", "tippecanoe": { "layer": "2AFCA7B40E101583918269955", "minzoom": 2, "maxzoom": 8 }, "properties": { "halo": 1.6, "title": "玛雅文明[前古典时期]", "fontsize": 12, "tyid": "304002", "oid": "103:1576575201033", "color": "#0056E7" }, "geometry": { "type": "Point", "coordinates": [ -89.296875, 17.140790 ] } }
{"year": "BC209",  "type": "Feature", "tippecanoe": { "layer": "2AFCA7B40E101583918269955", "minzoom": 2, "maxzoom": 8 }, "properties": { "halo": 1.6, "title": "拉托利塔文化", "fontsize": 12, "tyid": "304002", "oid": "103:1576575201174", "color": "#0056E7" }, "geometry": { "type": "Point", "coordinates": [ -78.046875, 1.757537 ] } }
{"year": "BC209",  "type": "Feature", "tippecanoe": { "layer": "2AFCA7B40E101583918269955", "minzoom": 2, "maxzoom": 8 }, "properties": { "halo": 1.6, "title": "埃雷拉时期", "fontsize": 12, "tyid": "304002", "oid": "103:1576575201319", "color": "#0056E7" }, "geometry": { "type": "Point", "coordinates": [ -73.476562, 5.441022 ] } }
{"year": "BC209",  "type": "Feature", "tippecanoe": { "layer": "2AFCA7B40E101583918269955", "minzoom": 2, "maxzoom": 8 }, "properties": { "halo": 1.6, "title": "伊奈里人", "fontsize": 12, "tyid": "304001", "oid": "103:1576575201338", "color": "#0056E7" }, "geometry": { "type": "Point", "coordinates": [ -61.787109, 8.754795 ] } }
{"year": "BC209",  "type": "Feature", "tippecanoe": { "layer": "2AFCA7B40E101583918269955", "minzoom": 2, "maxzoom": 8 }, "properties": { "halo": 1.6, "title": "皮克特人", "fontsize": 12, "tyid": "304001", "oid": "103:1576575201143", "color": "#0056E7" }, "geometry": { "type": "Point", "coordinates": [ -4.042969, 56.704506 ] } }
{"year": "BC209",  "type": "Feature", "tippecanoe": { "layer": "2AFCA7B40E101583918269955", "minzoom": 2, "maxzoom": 8 }, "properties": { "halo": 1.6, "title": "盖尔人", "fontsize": 12, "tyid": "304001", "oid": "103:1576575201541", "color": "#0056E7" }, "geometry": { "type": "Point", "coordinates": [ -7.910156, 53.435719 ] } }
{"year": "BC209",  "type": "Feature", "tippecanoe": { "layer": "2AFCA7B40E101583918269955", "minzoom": 2, "maxzoom": 8 }, "properties": { "halo": 1.6, "title": "加利西亚人", "fontsize": 12, "tyid": "304001", "oid": "103:1576575201554", "color": "#0056E7" }, "geometry": { "type": "Point", "coordinates": [ -7.998047, 42.488302 ] } }
{"year": "BC209",  "type": "Feature", "tippecanoe": { "layer": "2AFCA7B40E101583918269955", "minzoom": 2, "maxzoom": 8 }, "properties": { "halo": 1.6, "title": "阿斯图尔人", "fontsize": 12, "tyid": "304001", "oid": "103:1576575201226", "color": "#0056E7" }, "geometry": { "type": "Point", "coordinates": [ -6.152344, 42.553080 ] } }
{"year": "BC209",  "type": "Feature", "tippecanoe": { "layer": "2AFCA7B40E101583918269955", "minzoom": 2, "maxzoom": 8 }, "properties": { "halo": 1.6, "title": "瓦凯伊人", "fontsize": 12, "tyid": "304001", "oid": "103:1576575201070", "color": "#0056E7" }, "geometry": { "type": "Point", "coordinates": [ -4.658203, 41.640078 ] } }
{"year": "BC209",  "type": "Feature", "tippecanoe": { "layer": "2AFCA7B40E101583918269955", "minzoom": 2, "maxzoom": 8 }, "properties": { "halo": 1.6, "title": "阿奎丹人", "fontsize": 12, "tyid": "304001", "oid": "103:1576575201564", "color": "#0056E7" }, "geometry": { "type": "Point", "coordinates": [ -0.175781, 43.834527 ] } }
{"year": "BC209",  "type": "Feature", "tippecanoe": { "layer": "2AFCA7B40E101583918269955", "minzoom": 2, "maxzoom": 8 }, "properties": { "halo": 1.6, "title": "卢西塔利亚人", "fontsize": 12, "tyid": "304001", "oid": "103:1576575201046", "color": "#0056E7" }, "geometry": { "type": "Point", "coordinates": [ -7.646484, 40.313043 ] } }
{"year": "BC209",  "type": "Feature", "tippecanoe": { "layer": "2AFCA7B40E101583918269955", "minzoom": 2, "maxzoom": 8 }, "properties": { "halo": 1.6, "title": "凯蒂奇人", "fontsize": 12, "tyid": "304001", "oid": "103:1576575201489", "color": "#0056E7" }, "geometry": { "type": "Point", "coordinates": [ -7.646484, 38.959409 ] } }
{"year": "BC209",  "type": "Feature", "tippecanoe": { "layer": "2AFCA7B40E101583918269955", "minzoom": 2, "maxzoom": 8 }, "properties": { "halo": 1.6, "title": "维托内人", "fontsize": 12, "tyid": "304001", "oid": "103:1576575201562", "color": "#0056E7" }, "geometry": { "type": "Point", "coordinates": [ -5.800781, 40.313043 ] } }
{"year": "BC209",  "type": "Feature", "tippecanoe": { "layer": "2AFCA7B40E101583918269955", "minzoom": 2, "maxzoom": 8 }, "properties": { "halo": 1.6, "title": "西尼特人", "fontsize": 12, "tyid": "304001", "oid": "103:1576575201278", "color": "#0056E7" }, "geometry": { "type": "Point", "coordinates": [ -8.349609, 37.718590 ] } }
{"year": "BC209",  "type": "Feature", "tippecanoe": { "layer": "2AFCA7B40E101583918269955", "minzoom": 2, "maxzoom": 8 }, "properties": { "halo": 1.6, "title": "图尔杜利人", "fontsize": 12, "tyid": "304001", "oid": "103:1576575201026", "color": "#0056E7" }, "geometry": { "type": "Point", "coordinates": [ -6.855469, 38.479395 ] } }
{"year": "BC209",  "type": "Feature", "tippecanoe": { "layer": "2AFCA7B40E101583918269955", "minzoom": 2, "maxzoom": 8 }, "properties": { "halo": 1.6, "title": "图尔德泰尼人", "fontsize": 12, "tyid": "304001", "oid": "103:1576575201246", "color": "#0056E7" }, "geometry": { "type": "Point", "coordinates": [ -5.361328, 37.926868 ] } }
{"year": "BC209",  "type": "Feature", "tippecanoe": { "layer": "2AFCA7B40E101583918269955", "minzoom": 2, "maxzoom": 8 }, "properties": { "halo": 1.8, "title": "毛里塔尼亚王国", "fontsize": 12, "tyid": "304000", "oid": "103:1576575201523", "color": "#0056E7" }, "geometry": { "type": "Point", "coordinates": [ -5.009766, 34.524661 ] } }
{"year": "BC209",  "type": "Feature", "tippecanoe": { "layer": "2AFCA7B40E101583918269955", "minzoom": 2, "maxzoom": 8 }, "properties": { "halo": 1.6, "title": "杰内-杰诺文化一期", "fontsize": 12, "tyid": "304002", "oid": "103:1576575201481", "color": "#0056E7" }, "geometry": { "type": "Point", "coordinates": [ -4.482422, 13.667338 ] } }
{"year": "BC209",  "type": "Feature", "tippecanoe": { "layer": "2AFCA7B40E101583918269955", "minzoom": 2, "maxzoom": 8 }, "properties": { "halo": 1.6, "title": "楚真文化", "fontsize": 12, "tyid": "304002", "oid": "103:1576575201136", "color": "#0056E7" }, "geometry": { "type": "Point", "coordinates": [ -70.576172, -16.299051 ] } }
{"year": "BC209",  "type": "Feature", "tippecanoe": { "layer": "2AFCA7B40E101583918269955", "minzoom": 2, "maxzoom": 8 }, "properties": { "halo": 1.6, "title": "普卡拉文化", "fontsize": 12, "tyid": "304002", "oid": "103:1576575201397", "color": "#0056E7" }, "geometry": { "type": "Point", "coordinates": [ -69.873047, -14.604847 ] } }
{"year": "BC209",  "type": "Feature", "tippecanoe": { "layer": "2AFCA7B40E101583918269955", "minzoom": 2, "maxzoom": 8 }, "properties": { "halo": 1.6, "title": "艾马拉人", "fontsize": 12, "tyid": "304001", "oid": "103:1576575201206", "color": "#0056E7" }, "geometry": { "type": "Point", "coordinates": [ -68.291016, -17.224758 ] } }
{"year": "BC209",  "type": "Feature", "tippecanoe": { "layer": "2AFCA7B40E101583918269955", "minzoom": 2, "maxzoom": 8 }, "properties": { "halo": 1.6, "title": "昌戈人", "fontsize": 12, "tyid": "304001", "oid": "103:1576575201252", "color": "#0056E7" }, "geometry": { "type": "Point", "coordinates": [ -69.960938, -23.725012 ] } }
{"year": "BC209",  "type": "Feature", "tippecanoe": { "layer": "2AFCA7B40E101583918269955", "minzoom": 2, "maxzoom": 8 }, "properties": { "halo": 1.6, "title": "阿拉米托文化", "fontsize": 12, "tyid": "304002", "oid": "103:1576575201573", "color": "#0056E7" }, "geometry": { "type": "Point", "coordinates": [ -67.851562, -26.588527 ] } }
{"year": "BC209",  "type": "Feature", "tippecanoe": { "layer": "2AFCA7B40E101583918269955", "minzoom": 2, "maxzoom": 8 }, "properties": { "halo": 1.6, "title": "埃尔莫尔文化", "fontsize": 12, "tyid": "304002", "oid": "103:1576575201111", "color": "#0056E7" }, "geometry": { "type": "Point", "coordinates": [ -70.927734, -30.675715 ] } }
{"year": "BC209",  "type": "Feature", "tippecanoe": { "layer": "2AFCA7B40E101583918269955", "minzoom": 2, "maxzoom": 8 }, "properties": { "halo": 1.6, "title": "安西尔塔文化", "fontsize": 12, "tyid": "304002", "oid": "103:1576575201487", "color": "#0056E7" }, "geometry": { "type": "Point", "coordinates": [ -68.818359, -31.353637 ] } }
{"year": "BC209",  "type": "Feature", "tippecanoe": { "layer": "2AFCA7B40E101583918269955", "minzoom": 2, "maxzoom": 8 }, "properties": { "halo": 1.6, "title": "巴托文化", "fontsize": 12, "tyid": "304002", "oid": "103:1576575201166", "color": "#0056E7" }, "geometry": { "type": "Point", "coordinates": [ -70.839844, -33.431441 ] } }
{"year": "BC209",  "type": "Feature", "tippecanoe": { "layer": "2AFCA7B40E101583918269955", "minzoom": 2, "maxzoom": 8 }, "properties": { "halo": 1.6, "title": "马普切人", "fontsize": 12, "tyid": "304001", "oid": "103:1576575201556", "color": "#0056E7" }, "geometry": { "type": "Point", "coordinates": [ -71.455078, -38.959409 ] } }
{"year": "BC209",  "type": "Feature", "tippecanoe": { "layer": "2AFCA7B40E101583918269955", "minzoom": 2, "maxzoom": 8 }, "properties": { "halo": 1.6, "title": "希德拉里卡文化", "fontsize": 12, "tyid": "304002", "oid": "103:1576575201218", "color": "#0056E7" }, "geometry": { "type": "Point", "coordinates": [ -66.005859, -12.297068 ] } }
{"year": "BC209",  "type": "Feature", "tippecanoe": { "layer": "2AFCA7B40E101583918269955", "minzoom": 2, "maxzoom": 8 }, "properties": { "halo": 1.6, "title": "摩克索人", "fontsize": 12, "tyid": "304001", "oid": "103:1576575201510", "color": "#0056E7" }, "geometry": { "type": "Point", "coordinates": [ -65.830078, -13.923404 ] } }
{"year": "BC209",  "type": "Feature", "tippecanoe": { "layer": "2AFCA7B40E101583918269955", "minzoom": 2, "maxzoom": 8 }, "properties": { "halo": 1.6, "title": "瓦卡拉尼文化", "fontsize": 12, "tyid": "304002", "oid": "103:1576575201527", "color": "#0056E7" }, "geometry": { "type": "Point", "coordinates": [ -64.951172, -17.811456 ] } }
{"year": "BC209",  "type": "Feature", "tippecanoe": { "layer": "2AFCA7B40E101583918269955", "minzoom": 2, "maxzoom": 8 }, "properties": { "halo": 1.6, "title": "康多拉瓦西文化", "fontsize": 12, "tyid": "304002", "oid": "103:1576575201303", "color": "#0056E7" }, "geometry": { "type": "Point", "coordinates": [ -66.708984, -27.293689 ] } }
{"year": "BC209",  "type": "Feature", "tippecanoe": { "layer": "2AFCA7B40E101583918269955", "minzoom": 2, "maxzoom": 8 }, "properties": { "halo": 1.6, "title": "拉斯梅塞德斯文化", "fontsize": 12, "tyid": "304002", "oid": "103:1576575201582", "color": "#0056E7" }, "geometry": { "type": "Point", "coordinates": [ -63.808594, -27.605671 ] } }
{"year": "BC209",  "type": "Feature", "tippecanoe": { "layer": "2AFCA7B40E101583918269955", "minzoom": 2, "maxzoom": 8 }, "properties": { "halo": 1.6, "title": "查鲁亚人", "fontsize": 12, "tyid": "304001", "oid": "103:1576575201039", "color": "#0056E7" }, "geometry": { "type": "Point", "coordinates": [ -57.128906, -32.398516 ] } }
{"year": "BC209",  "type": "Feature", "tippecanoe": { "layer": "2AFCA7B40E101583918269955", "minzoom": 2, "maxzoom": 8 }, "properties": { "halo": 1.6, "title": "特胡尔切人", "fontsize": 12, "tyid": "304001", "oid": "103:1576575201343", "color": "#0056E7" }, "geometry": { "type": "Point", "coordinates": [ -70.751953, -50.176898 ] } }
{"year": "BC209",  "type": "Feature", "tippecanoe": { "layer": "2AFCA7B40E101583918269955", "minzoom": 2, "maxzoom": 8 }, "properties": { "halo": 1.6, "title": "塞尔克南人", "fontsize": 12, "tyid": "304001", "oid": "103:1576575201164", "color": "#0056E7" }, "geometry": { "type": "Point", "coordinates": [ -68.378906, -53.696706 ] } }
{"year": "BC209",  "type": "Feature", "tippecanoe": { "layer": "2AFCA7B40E101583918269955", "minzoom": 2, "maxzoom": 8 }, "properties": { "halo": 1.6, "title": "雅干人", "fontsize": 12, "tyid": "304001", "oid": "103:1576575201257", "color": "#0056E7" }, "geometry": { "type": "Point", "coordinates": [ -68.906250, -54.622978 ] } }
{"year": "BC209",  "type": "Feature", "tippecanoe": { "layer": "2AFCA7B40E101583918269955", "minzoom": 2, "maxzoom": 8 }, "properties": { "halo": 1.6, "title": "赫尔维蒂人", "fontsize": 12, "tyid": "304001", "oid": "103:1576575201607", "color": "#0056E7" }, "geometry": { "type": "Point", "coordinates": [ 7.207031, 46.920255 ] } }
{"year": "BC209",  "type": "Feature", "tippecanoe": { "layer": "2AFCA7B40E101583918269955", "minzoom": 2, "maxzoom": 8 }, "properties": { "halo": 1.6, "title": "蕾蒂人", "fontsize": 12, "tyid": "304001", "oid": "103:1576575201096", "color": "#0056E7" }, "geometry": { "type": "Point", "coordinates": [ 11.074219, 46.860191 ] } }
{"year": "BC209",  "type": "Feature", "tippecanoe": { "layer": "2AFCA7B40E101583918269955", "minzoom": 2, "maxzoom": 8 }, "properties": { "halo": 1.6, "title": "沃康蒂人", "fontsize": 12, "tyid": "304001", "oid": "103:1576575201616", "color": "#0056E7" }, "geometry": { "type": "Point", "coordinates": [ 5.800781, 44.653024 ] } }
{"year": "BC209",  "type": "Feature", "tippecanoe": { "layer": "2AFCA7B40E101583918269955", "minzoom": 2, "maxzoom": 8 }, "properties": { "halo": 1.6, "title": "利古里亚人", "fontsize": 12, "tyid": "304002", "oid": "103:1576575201619", "color": "#0056E7" }, "geometry": { "type": "Point", "coordinates": [ 7.382812, 44.087585 ] } }
{"year": "BC209",  "type": "Feature", "tippecanoe": { "layer": "2AFCA7B40E101583918269955", "minzoom": 2, "maxzoom": 8 }, "properties": { "halo": 1.6, "title": "西波罗的海坟文化", "fontsize": 12, "tyid": "304002", "oid": "103:1576575201358", "color": "#0056E7" }, "geometry": { "type": "Point", "coordinates": [ 21.708984, 54.213861 ] } }
{"year": "BC209",  "type": "Feature", "tippecanoe": { "layer": "2AFCA7B40E101583918269955", "minzoom": 2, "maxzoom": 8 }, "properties": { "halo": 1.6, "title": "普热沃斯克文化", "fontsize": 12, "tyid": "304002", "oid": "103:1576575201187", "color": "#0056E7" }, "geometry": { "type": "Point", "coordinates": [ 21.093750, 50.233152 ] } }
{"year": "BC209",  "type": "Feature", "tippecanoe": { "layer": "2AFCA7B40E101583918269955", "minzoom": 2, "maxzoom": 8 }, "properties": { "halo": 1.6, "title": "威尼蒂人[亚得里亚海]", "fontsize": 12, "tyid": "304001", "oid": "103:1576575201380", "color": "#0056E7" }, "geometry": { "type": "Point", "coordinates": [ 12.216797, 45.890008 ] } }
{"year": "BC209",  "type": "Feature", "tippecanoe": { "layer": "2AFCA7B40E101583918269955", "minzoom": 2, "maxzoom": 8 }, "properties": { "halo": 1.8, "title": "伊利里亚诸王国", "fontsize": 12, "tyid": "304000", "oid": "103:1576575201414", "color": "#0056E7" }, "geometry": { "type": "Point", "coordinates": [ 17.050781, 44.339565 ] } }
{"year": "BC209",  "type": "Feature", "tippecanoe": { "layer": "2AFCA7B40E101583918269955", "minzoom": 2, "maxzoom": 8 }, "properties": { "halo": 1.8, "title": "阿尔迪安王国", "fontsize": 12, "tyid": "304000", "oid": "103:1576575201082", "color": "#0056E7" }, "geometry": { "type": "Point", "coordinates": [ 19.072266, 42.617791 ] } }
{"year": "BC209",  "type": "Feature", "tippecanoe": { "layer": "2AFCA7B40E101583918269955", "minzoom": 2, "maxzoom": 8 }, "properties": { "halo": 1.6, "title": "潘诺尼亚人", "fontsize": 12, "tyid": "304001", "oid": "103:1576575201496", "color": "#0056E7" }, "geometry": { "type": "Point", "coordinates": [ 19.775391, 44.590467 ] } }
{"year": "BC209",  "type": "Feature", "tippecanoe": { "layer": "2AFCA7B40E101583918269955", "minzoom": 2, "maxzoom": 8 }, "properties": { "halo": 1.8, "title": "达尔达尼亚王国", "fontsize": 12, "tyid": "304000", "oid": "103:1576575201621", "color": "#0056E7" }, "geometry": { "type": "Point", "coordinates": [ 21.445312, 42.617791 ] } }
{"year": "BC209",  "type": "Feature", "tippecanoe": { "layer": "2AFCA7B40E101583918269955", "minzoom": 2, "maxzoom": 8 }, "properties": { "halo": 1.6, "title": "古爱沙尼亚人", "fontsize": 12, "tyid": "304001", "oid": "103:1576575201466", "color": "#0056E7" }, "geometry": { "type": "Point", "coordinates": [ 25.576172, 58.995311 ] } }
{"year": "BC209",  "type": "Feature", "tippecanoe": { "layer": "2AFCA7B40E101583918269955", "minzoom": 2, "maxzoom": 8 }, "properties": { "halo": 1.6, "title": "利沃尼亚人", "fontsize": 12, "tyid": "304001", "oid": "103:1576575201371", "color": "#0056E7" }, "geometry": { "type": "Point", "coordinates": [ 26.279297, 57.231503 ] } }
{"year": "BC209",  "type": "Feature", "tippecanoe": { "layer": "2AFCA7B40E101583918269955", "minzoom": 2, "maxzoom": 8 }, "properties": { "halo": 1.6, "title": "沃茨人", "fontsize": 12, "tyid": "304001", "oid": "103:1576575201327", "color": "#0056E7" }, "geometry": { "type": "Point", "coordinates": [ 30.146484, 59.355596 ] } }
{"year": "BC209",  "type": "Feature", "tippecanoe": { "layer": "2AFCA7B40E101583918269955", "minzoom": 2, "maxzoom": 8 }, "properties": { "halo": 1.6, "title": "卡累利阿文化", "fontsize": 12, "tyid": "304002", "oid": "103:1576575201243", "color": "#0056E7" }, "geometry": { "type": "Point", "coordinates": [ 34.189453, 63.470145 ] } }
{"year": "BC209",  "type": "Feature", "tippecanoe": { "layer": "2AFCA7B40E101583918269955", "minzoom": 2, "maxzoom": 8 }, "properties": { "halo": 1.6, "title": "阴影陶文化", "fontsize": 12, "tyid": "304002", "oid": "103:1576575201087", "color": "#0056E7" }, "geometry": { "type": "Point", "coordinates": [ 24.785156, 55.627996 ] } }
{"year": "BC209",  "type": "Feature", "tippecanoe": { "layer": "2AFCA7B40E101583918269955", "minzoom": 2, "maxzoom": 8 }, "properties": { "halo": 1.6, "title": "米洛格勒文化", "fontsize": 12, "tyid": "304002", "oid": "103:1576575201361", "color": "#0056E7" }, "geometry": { "type": "Point", "coordinates": [ 26.718750, 53.435719 ] } }
{"year": "BC209",  "type": "Feature", "tippecanoe": { "layer": "2AFCA7B40E101583918269955", "minzoom": 2, "maxzoom": 8 }, "properties": { "halo": 1.6, "title": "维内德人", "fontsize": 12, "tyid": "304001", "oid": "103:1576575201525", "color": "#0056E7" }, "geometry": { "type": "Point", "coordinates": [ 24.609375, 51.234407 ] } }
{"year": "BC209",  "type": "Feature", "tippecanoe": { "layer": "2AFCA7B40E101583918269955", "minzoom": 2, "maxzoom": 8 }, "properties": { "halo": 1.8, "title": "奥德里西亚王国", "fontsize": 12, "tyid": "304000", "oid": "103:1576575201072", "color": "#0056E7" }, "geometry": { "type": "Point", "coordinates": [ 25.751953, 43.325178 ] } }
{"year": "BC209",  "type": "Feature", "tippecanoe": { "layer": "2AFCA7B40E101583918269955", "minzoom": 2, "maxzoom": 8 }, "properties": { "halo": 1.6, "title": "盖塔人", "fontsize": 12, "tyid": "304001", "oid": "103:1576575201055", "color": "#0056E7" }, "geometry": { "type": "Point", "coordinates": [ 27.246094, 44.213710 ] } }
{"year": "BC209",  "type": "Feature", "tippecanoe": { "layer": "2AFCA7B40E101583918269955", "minzoom": 2, "maxzoom": 8 }, "properties": { "halo": 1.6, "title": "帕夫拉哥尼亚独立区", "fontsize": 12, "tyid": "304002", "oid": "103:1576575201420", "color": "#0056E7" }, "geometry": { "type": "Point", "coordinates": [ 33.486328, 41.178654 ] } }
{"year": "BC209",  "type": "Feature", "tippecanoe": { "layer": "2AFCA7B40E101583918269955", "minzoom": 2, "maxzoom": 8 }, "properties": { "halo": 1.6, "title": "上奥卡文化", "fontsize": 12, "tyid": "304002", "oid": "103:1576575201028", "color": "#0056E7" }, "geometry": { "type": "Point", "coordinates": [ 37.353516, 53.540307 ] } }
{"year": "BC209",  "type": "Feature", "tippecanoe": { "layer": "2AFCA7B40E101583918269955", "minzoom": 2, "maxzoom": 8 }, "properties": { "halo": 1.6, "title": "尤赫诺夫文化", "fontsize": 12, "tyid": "304002", "oid": "103:1576575201276", "color": "#0056E7" }, "geometry": { "type": "Point", "coordinates": [ 34.716797, 52.160455 ] } }
{"year": "BC209",  "type": "Feature", "tippecanoe": { "layer": "2AFCA7B40E101583918269955", "minzoom": 2, "maxzoom": 8 }, "properties": { "halo": 1.6, "title": "梅田人", "fontsize": 12, "tyid": "304001", "oid": "103:1576575201263", "color": "#0056E7" }, "geometry": { "type": "Point", "coordinates": [ 38.144531, 45.644768 ] } }
{"year": "BC209",  "type": "Feature", "tippecanoe": { "layer": "2AFCA7B40E101583918269955", "minzoom": 2, "maxzoom": 8 }, "properties": { "halo": 1.6, "title": "西雷斯人", "fontsize": 12, "tyid": "304001", "oid": "103:1576575201356", "color": "#0056E7" }, "geometry": { "type": "Point", "coordinates": [ 41.308594, 45.460131 ] } }
{"year": "BC209",  "type": "Feature", "tippecanoe": { "layer": "2AFCA7B40E101583918269955", "minzoom": 2, "maxzoom": 8 }, "properties": { "halo": 1.6, "title": "切尔克斯人", "fontsize": 12, "tyid": "304001", "oid": "103:1576575201260", "color": "#0056E7" }, "geometry": { "type": "Point", "coordinates": [ 42.011719, 43.707594 ] } }
{"year": "BC209",  "type": "Feature", "tippecanoe": { "layer": "2AFCA7B40E101583918269955", "minzoom": 2, "maxzoom": 8 }, "properties": { "halo": 1.8, "title": "科尔基斯王国", "fontsize": 12, "tyid": "304000", "oid": "103:1576575201606", "color": "#0056E7" }, "geometry": { "type": "Point", "coordinates": [ 42.539062, 42.617791 ] } }
{"year": "BC209",  "type": "Feature", "tippecanoe": { "layer": "2AFCA7B40E101583918269955", "minzoom": 2, "maxzoom": 8 }, "properties": { "halo": 1.8, "title": "高加索伊比利亚王国", "fontsize": 12, "tyid": "304000", "oid": "103:1576575201030", "color": "#0056E7" }, "geometry": { "type": "Point", "coordinates": [ 43.857422, 41.705729 ] } }
{"year": "BC209",  "type": "Feature", "tippecanoe": { "layer": "2AFCA7B40E101583918269955", "minzoom": 2, "maxzoom": 8 }, "properties": { "halo": 1.6, "title": "马萨希利", "fontsize": 12, "tyid": "304001", "oid": "103:1576575201035", "color": "#0056E7" }, "geometry": { "type": "Point", "coordinates": [ 3.867188, 36.031332 ] } }
{"year": "BC209",  "type": "Feature", "tippecanoe": { "layer": "2AFCA7B40E101583918269955", "minzoom": 2, "maxzoom": 8 }, "properties": { "halo": 1.6, "title": "马希利联盟", "fontsize": 12, "tyid": "304002", "oid": "103:1576575201507", "color": "#0056E7" }, "geometry": { "type": "Point", "coordinates": [ 7.910156, 35.460670 ] } }
{"year": "BC209",  "type": "Feature", "tippecanoe": { "layer": "2AFCA7B40E101583918269955", "minzoom": 2, "maxzoom": 8 }, "properties": { "halo": 1.8, "title": "伊庇鲁斯联盟", "fontsize": 12, "tyid": "304000", "oid": "103:1576575201570", "color": "#0056E7" }, "geometry": { "type": "Point", "coordinates": [ 20.478516, 39.977120 ] } }
{"year": "BC209",  "type": "Feature", "tippecanoe": { "layer": "2AFCA7B40E101583918269955", "minzoom": 2, "maxzoom": 8 }, "properties": { "halo": 1.8, "title": "安提柯王朝", "fontsize": 12, "tyid": "304000", "oid": "103:1576575201134", "color": "#0056E7" }, "geometry": { "type": "Point", "coordinates": [ 22.236328, 40.847060 ] } }
{"year": "BC209",  "type": "Feature", "tippecanoe": { "layer": "2AFCA7B40E101583918269955", "minzoom": 2, "maxzoom": 8 }, "properties": { "halo": 1.8, "title": "加拉曼特王国", "fontsize": 12, "tyid": "304000", "oid": "103:1576575201437", "color": "#0056E7" }, "geometry": { "type": "Point", "coordinates": [ 13.886719, 26.902477 ] } }
{"year": "BC209",  "type": "Feature", "tippecanoe": { "layer": "2AFCA7B40E101583918269955", "minzoom": 2, "maxzoom": 8 }, "properties": { "halo": 1.6, "title": "约鲁巴人", "fontsize": 12, "tyid": "304001", "oid": "103:1576575201113", "color": "#0056E7" }, "geometry": { "type": "Point", "coordinates": [ 3.427734, 7.536764 ] } }
{"year": "BC209",  "type": "Feature", "tippecanoe": { "layer": "2AFCA7B40E101583918269955", "minzoom": 2, "maxzoom": 8 }, "properties": { "halo": 1.6, "title": "伊博人", "fontsize": 12, "tyid": "304001", "oid": "103:1576575201211", "color": "#0056E7" }, "geometry": { "type": "Point", "coordinates": [ 7.998047, 5.965754 ] } }
{"year": "BC209",  "type": "Feature", "tippecanoe": { "layer": "2AFCA7B40E101583918269955", "minzoom": 2, "maxzoom": 8 }, "properties": { "halo": 1.8, "title": "比提尼亚王国", "fontsize": 12, "tyid": "304000", "oid": "103:1576575201423", "color": "#0056E7" }, "geometry": { "type": "Point", "coordinates": [ 30.410156, 40.713956 ] } }
{"year": "BC209",  "type": "Feature", "tippecanoe": { "layer": "2AFCA7B40E101583918269955", "minzoom": 2, "maxzoom": 8 }, "properties": { "halo": 1.6, "title": "加拉提亚高卢人", "fontsize": 12, "tyid": "304001", "oid": "103:1576575201177", "color": "#0056E7" }, "geometry": { "type": "Point", "coordinates": [ 32.695312, 39.774769 ] } }
{"year": "BC209",  "type": "Feature", "tippecanoe": { "layer": "2AFCA7B40E101583918269955", "minzoom": 2, "maxzoom": 8 }, "properties": { "halo": 1.8, "title": "卡帕多西亚王国", "fontsize": 12, "tyid": "304000", "oid": "103:1576575201551", "color": "#0056E7" }, "geometry": { "type": "Point", "coordinates": [ 35.771484, 38.616870 ] } }
{"year": "BC209",  "type": "Feature", "tippecanoe": { "layer": "2AFCA7B40E101583918269955", "minzoom": 2, "maxzoom": 8 }, "properties": { "halo": 1.8, "title": "本都王国", "fontsize": 12, "tyid": "304000", "oid": "103:1576575201370", "color": "#0056E7" }, "geometry": { "type": "Point", "coordinates": [ 36.738281, 40.446947 ] } }
{"year": "BC209",  "type": "Feature", "tippecanoe": { "layer": "2AFCA7B40E101583918269955", "minzoom": 2, "maxzoom": 8 }, "properties": { "halo": 1.8, "title": "小亚美尼亚王国", "fontsize": 12, "tyid": "304000", "oid": "103:1576575201418", "color": "#0056E7" }, "geometry": { "type": "Point", "coordinates": [ 38.935547, 40.111689 ] } }
{"year": "BC209",  "type": "Feature", "tippecanoe": { "layer": "2AFCA7B40E101583918269955", "minzoom": 2, "maxzoom": 8 }, "properties": { "halo": 1.8, "title": "索芬尼王国", "fontsize": 12, "tyid": "304000", "oid": "103:1576575201024", "color": "#0056E7" }, "geometry": { "type": "Point", "coordinates": [ 39.902344, 38.548165 ] } }
{"year": "BC209",  "type": "Feature", "tippecanoe": { "layer": "2AFCA7B40E101583918269955", "minzoom": 2, "maxzoom": 8 }, "properties": { "halo": 1.8, "title": "大亚美尼亚王国", "fontsize": 12, "tyid": "304000", "oid": "103:1576575201373", "color": "#0056E7" }, "geometry": { "type": "Point", "coordinates": [ 42.626953, 39.639538 ] } }
{"year": "BC209",  "type": "Feature", "tippecanoe": { "layer": "2AFCA7B40E101583918269955", "minzoom": 2, "maxzoom": 8 }, "properties": { "halo": 1.6, "title": "塔努联盟", "fontsize": 12, "tyid": "304002", "oid": "103:1576575201429", "color": "#0056E7" }, "geometry": { "type": "Point", "coordinates": [ 39.375000, 32.694866 ] } }
{"year": "BC209",  "type": "Feature", "tippecanoe": { "layer": "2AFCA7B40E101583918269955", "minzoom": 2, "maxzoom": 8 }, "properties": { "halo": 1.8, "title": "纳巴泰王国", "fontsize": 12, "tyid": "304000", "oid": "103:1576575201274", "color": "#0056E7" }, "geometry": { "type": "Point", "coordinates": [ 35.332031, 29.458731 ] } }
{"year": "BC209",  "type": "Feature", "tippecanoe": { "layer": "2AFCA7B40E101583918269955", "minzoom": 2, "maxzoom": 8 }, "properties": { "halo": 1.6, "title": "纳巴泰人", "fontsize": 12, "tyid": "304001", "oid": "103:1576575201495", "color": "#0056E7" }, "geometry": { "type": "Point", "coordinates": [ 37.617188, 30.600094 ] } }
{"year": "BC209",  "type": "Feature", "tippecanoe": { "layer": "2AFCA7B40E101583918269955", "minzoom": 2, "maxzoom": 8 }, "properties": { "halo": 1.6, "title": "贝扎人", "fontsize": 12, "tyid": "304001", "oid": "103:1576575201528", "color": "#0056E7" }, "geometry": { "type": "Point", "coordinates": [ 35.771484, 16.214675 ] } }
{"year": "BC209",  "type": "Feature", "tippecanoe": { "layer": "2AFCA7B40E101583918269955", "minzoom": 2, "maxzoom": 8 }, "properties": { "halo": 1.6, "title": "原始-阿克苏姆铁器时代", "fontsize": 12, "tyid": "304002", "oid": "103:1576575201241", "color": "#0056E7" }, "geometry": { "type": "Point", "coordinates": [ 39.023438, 13.923404 ] } }
{"year": "BC209",  "type": "Feature", "tippecanoe": { "layer": "2AFCA7B40E101583918269955", "minzoom": 2, "maxzoom": 8 }, "properties": { "halo": 1.6, "title": "高原诸小王国", "fontsize": 12, "tyid": "304002", "oid": "103:1576575201306", "color": "#0056E7" }, "geometry": { "type": "Point", "coordinates": [ 41.748047, 12.726084 ] } }
{"year": "BC209",  "type": "Feature", "tippecanoe": { "layer": "2AFCA7B40E101583918269955", "minzoom": 2, "maxzoom": 8 }, "properties": { "halo": 1.8, "title": "迈因王国", "fontsize": 12, "tyid": "304000", "oid": "103:1576575201191", "color": "#0056E7" }, "geometry": { "type": "Point", "coordinates": [ 44.824219, 16.299051 ] } }
{"year": "BC209",  "type": "Feature", "tippecanoe": { "layer": "2AFCA7B40E101583918269955", "minzoom": 2, "maxzoom": 8 }, "properties": { "halo": 1.8, "title": "塞巴王国", "fontsize": 12, "tyid": "304000", "oid": "103:1576575201304", "color": "#0056E7" }, "geometry": { "type": "Point", "coordinates": [ 43.945312, 14.604847 ] } }
{"year": "BC209",  "type": "Feature", "tippecanoe": { "layer": "2AFCA7B40E101583918269955", "minzoom": 2, "maxzoom": 8 }, "properties": { "halo": 1.6, "title": "安纳尼诺文化", "fontsize": 12, "tyid": "304002", "oid": "103:1576575201484", "color": "#0056E7" }, "geometry": { "type": "Point", "coordinates": [ 50.625000, 56.413901 ] } }
{"year": "BC209",  "type": "Feature", "tippecanoe": { "layer": "2AFCA7B40E101583918269955", "minzoom": 2, "maxzoom": 8 }, "properties": { "halo": 1.6, "title": "大益人", "fontsize": 12, "tyid": "304001", "oid": "103:1576575201479", "color": "#0056E7" }, "geometry": { "type": "Point", "coordinates": [ 55.458984, 41.178654 ] } }
{"year": "BC209",  "type": "Feature", "tippecanoe": { "layer": "2AFCA7B40E101583918269955", "minzoom": 2, "maxzoom": 8 }, "properties": { "halo": 1.8, "title": "驩潜国", "fontsize": 12, "tyid": "304000", "oid": "103:1576575201229", "color": "#0056E7" }, "geometry": { "type": "Point", "coordinates": [ 60.117188, 42.488302 ] } }
{"year": "BC209",  "type": "Feature", "tippecanoe": { "layer": "2AFCA7B40E101583918269955", "minzoom": 2, "maxzoom": 8 }, "properties": { "halo": 1.6, "title": "塞迦人", "fontsize": 12, "tyid": "304001", "oid": "103:1576575201421", "color": "#0056E7" }, "geometry": { "type": "Point", "coordinates": [ 62.929688, 42.098222 ] } }
{"year": "BC209",  "type": "Feature", "tippecanoe": { "layer": "2AFCA7B40E101583918269955", "minzoom": 2, "maxzoom": 8 }, "properties": { "halo": 1.8, "title": "龟兹国", "fontsize": 12, "tyid": "304000", "oid": "103:1576575201125", "color": "#0056E7" }, "geometry": { "type": "Point", "coordinates": [ 82.792969, 41.442726 ] } }
{"year": "BC209",  "type": "Feature", "tippecanoe": { "layer": "2AFCA7B40E101583918269955", "minzoom": 2, "maxzoom": 8 }, "properties": { "halo": 1.8, "title": "车师国", "fontsize": 12, "tyid": "304000", "oid": "103:1576575201312", "color": "#0056E7" }, "geometry": { "type": "Point", "coordinates": [ 89.560547, 43.197167 ] } }
{"year": "BC209",  "type": "Feature", "tippecanoe": { "layer": "2AFCA7B40E101583918269955", "minzoom": 2, "maxzoom": 8 }, "properties": { "halo": 1.8, "title": "危须国", "fontsize": 12, "tyid": "304000", "oid": "103:1576575201108", "color": "#0056E7" }, "geometry": { "type": "Point", "coordinates": [ 87.363281, 42.423457 ] } }
{"year": "BC209",  "type": "Feature", "tippecanoe": { "layer": "2AFCA7B40E101583918269955", "minzoom": 2, "maxzoom": 8 },