{"year": "BC204",  "type": "Feature", "tippecanoe": { "layer": "7F5D7CD340801585559446460", "minzoom": 2, "maxzoom": 8 }, "properties": { "title": "拉霍亚文化", "color": "#0056E7", "oid": "103:1585278512844", "tyid": "304002", "fontsize": 12, "halo": 1.6 }, "geometry": { "type": "Point", "coordinates": [ -118.916016, 34.597042 ] } }
{"year": "BC204",  "type": "Feature", "tippecanoe": { "layer": "7F5D7CD340801585559446460", "minzoom": 2, "maxzoom": 8 }, "properties": { "title": "古普韦布洛人", "color": "#0056E7", "oid": "103:1585278512699", "tyid": "304001", "fontsize": 12, "halo": 1.6 }, "geometry": { "type": "Point", "coordinates": [ -110.126953, 36.949892 ] } }
{"year": "BC204",  "type": "Feature", "tippecanoe": { "layer": "7F5D7CD340801585559446460", "minzoom": 2, "maxzoom": 8 }, "properties": { "title": "科奇斯文化", "color": "#0056E7", "oid": "103:1585278512952", "tyid": "304002", "fontsize": 12, "halo": 1.6 }, "geometry": { "type": "Point", "coordinates": [ -110.039062, 32.249974 ] } }
{"year": "BC204",  "type": "Feature", "tippecanoe": { "layer": "7F5D7CD340801585559446460", "minzoom": 2, "maxzoom": 8 }, "properties": { "title": "奇瓦瓦文化", "color": "#0056E7", "oid": "103:1585278512753", "tyid": "304002", "fontsize": 12, "halo": 1.6 }, "geometry": { "type": "Point", "coordinates": [ -107.226562, 32.768800 ] } }
{"year": "BC204",  "type": "Feature", "tippecanoe": { "layer": "7F5D7CD340801585559446460", "minzoom": 2, "maxzoom": 8 }, "properties": { "title": "奥沙拉文化", "color": "#0056E7", "oid": "103:1585278512563", "tyid": "304002", "fontsize": 12, "halo": 1.6 }, "geometry": { "type": "Point", "coordinates": [ -106.699219, 37.579413 ] } }
{"year": "BC204",  "type": "Feature", "tippecanoe": { "layer": "7F5D7CD340801585559446460", "minzoom": 2, "maxzoom": 8 }, "properties": { "title": "瓜伊库拉人", "color": "#0056E7", "oid": "103:1585278512550", "tyid": "304001", "fontsize": 12, "halo": 1.6 }, "geometry": { "type": "Point", "coordinates": [ -111.269531, 24.846565 ] } }
{"year": "BC204",  "type": "Feature", "tippecanoe": { "layer": "7F5D7CD340801585559446460", "minzoom": 2, "maxzoom": 8 }, "properties": { "title": "福切马里尼文化", "color": "#0056E7", "oid": "103:1585278512826", "tyid": "304002", "fontsize": 12, "halo": 1.6 }, "geometry": { "type": "Point", "coordinates": [ -94.306641, 33.358062 ] } }
{"year": "BC204",  "type": "Feature", "tippecanoe": { "layer": "7F5D7CD340801585559446460", "minzoom": 2, "maxzoom": 8 }, "properties": { "title": "楚拉时期", "color": "#0056E7", "oid": "103:1585278512892", "tyid": "304002", "fontsize": 12, "halo": 1.6 }, "geometry": { "type": "Point", "coordinates": [ -92.021484, 32.472695 ] } }
{"year": "BC204",  "type": "Feature", "tippecanoe": { "layer": "7F5D7CD340801585559446460", "minzoom": 2, "maxzoom": 8 }, "properties": { "title": "华斯塔克文明", "color": "#0056E7", "oid": "103:1585278512751", "tyid": "304002", "fontsize": 12, "halo": 1.6 }, "geometry": { "type": "Point", "coordinates": [ -98.613281, 22.105999 ] } }
{"year": "BC204",  "type": "Feature", "tippecanoe": { "layer": "7F5D7CD340801585559446460", "minzoom": 2, "maxzoom": 8 }, "properties": { "title": "奇蒂玛察人", "color": "#0056E7", "oid": "103:1585278512577", "tyid": "304001", "fontsize": 12, "halo": 1.6 }, "geometry": { "type": "Point", "coordinates": [ -91.054688, 30.372875 ] } }
{"year": "BC204",  "type": "Feature", "tippecanoe": { "layer": "7F5D7CD340801585559446460", "minzoom": 2, "maxzoom": 8 }, "properties": { "title": "特切特兰文化", "color": "#0056E7", "oid": "103:1585278512589", "tyid": "304002", "fontsize": 12, "halo": 1.6 }, "geometry": { "type": "Point", "coordinates": [ -104.326172, 20.468189 ] } }
{"year": "BC204",  "type": "Feature", "tippecanoe": { "layer": "7F5D7CD340801585559446460", "minzoom": 2, "maxzoom": 8 }, "properties": { "title": "埃尔欧朋文化", "color": "#0056E7", "oid": "103:1585278512904", "tyid": "304002", "fontsize": 12, "halo": 1.6 }, "geometry": { "type": "Point", "coordinates": [ -101.865234, 19.642588 ] } }
{"year": "BC204",  "type": "Feature", "tippecanoe": { "layer": "7F5D7CD340801585559446460", "minzoom": 2, "maxzoom": 8 }, "properties": { "title": "梅斯卡拉文化", "color": "#0056E7", "oid": "103:1585278512989", "tyid": "304002", "fontsize": 12, "halo": 1.6 }, "geometry": { "type": "Point", "coordinates": [ -100.810547, 17.895114 ] } }
{"year": "BC204",  "type": "Feature", "tippecanoe": { "layer": "7F5D7CD340801585559446460", "minzoom": 2, "maxzoom": 8 }, "properties": { "title": "萨波特克文明", "color": "#0056E7", "oid": "103:1585278512521", "tyid": "304002", "fontsize": 12, "halo": 1.6 }, "geometry": { "type": "Point", "coordinates": [ -96.064453, 16.636192 ] } }
{"year": "BC204",  "type": "Feature", "tippecanoe": { "layer": "7F5D7CD340801585559446460", "minzoom": 2, "maxzoom": 8 }, "properties": { "title": "德普特福德文化", "color": "#0056E7", "oid": "103:1585278512796", "tyid": "304002", "fontsize": 12, "halo": 1.6 }, "geometry": { "type": "Point", "coordinates": [ -79.628906, 33.358062 ] } }
{"year": "BC204",  "type": "Feature", "tippecanoe": { "layer": "7F5D7CD340801585559446460", "minzoom": 2, "maxzoom": 8 }, "properties": { "title": "切格文特文化", "color": "#0056E7", "oid": "103:1585278512702", "tyid": "304002", "fontsize": 12, "halo": 1.6 }, "geometry": { "type": "Point", "coordinates": [ -89.208984, 30.600094 ] } }
{"year": "BC204",  "type": "Feature", "tippecanoe": { "layer": "7F5D7CD340801585559446460", "minzoom": 2, "maxzoom": 8 }, "properties": { "title": "玛雅文明[前古典时期]", "color": "#0056E7", "oid": "103:1585278512501", "tyid": "304002", "fontsize": 12, "halo": 1.6 }, "geometry": { "type": "Point", "coordinates": [ -89.296875, 17.140790 ] } }
{"year": "BC204",  "type": "Feature", "tippecanoe": { "layer": "7F5D7CD340801585559446460", "minzoom": 2, "maxzoom": 8 }, "properties": { "title": "拉托利塔文化", "color": "#0056E7", "oid": "103:1585278512709", "tyid": "304002", "fontsize": 12, "halo": 1.6 }, "geometry": { "type": "Point", "coordinates": [ -78.046875, 1.757537 ] } }
{"year": "BC204",  "type": "Feature", "tippecanoe": { "layer": "7F5D7CD340801585559446460", "minzoom": 2, "maxzoom": 8 }, "properties": { "title": "埃雷拉时期", "color": "#0056E7", "oid": "103:1585278512791", "tyid": "304002", "fontsize": 12, "halo": 1.6 }, "geometry": { "type": "Point", "coordinates": [ -73.476562, 5.441022 ] } }
{"year": "BC204",  "type": "Feature", "tippecanoe": { "layer": "7F5D7CD340801585559446460", "minzoom": 2, "maxzoom": 8 }, "properties": { "title": "伊奈里人", "color": "#0056E7", "oid": "103:1585278512990", "tyid": "304001", "fontsize": 12, "halo": 1.6 }, "geometry": { "type": "Point", "coordinates": [ -61.787109, 8.754795 ] } }
{"year": "BC204",  "type": "Feature", "tippecanoe": { "layer": "7F5D7CD340801585559446460", "minzoom": 2, "maxzoom": 8 }, "properties": { "title": "皮克特人", "color": "#0056E7", "oid": "103:1585278512681", "tyid": "304001", "fontsize": 12, "halo": 1.6 }, "geometry": { "type": "Point", "coordinates": [ -4.042969, 56.704506 ] } }
{"year": "BC204",  "type": "Feature", "tippecanoe": { "layer": "7F5D7CD340801585559446460", "minzoom": 2, "maxzoom": 8 }, "properties": { "title": "盖尔人", "color": "#0056E7", "oid": "103:1585278512777", "tyid": "304001", "fontsize": 12, "halo": 1.6 }, "geometry": { "type": "Point", "coordinates": [ -7.910156, 53.435719 ] } }
{"year": "BC204",  "type": "Feature", "tippecanoe": { "layer": "7F5D7CD340801585559446460", "minzoom": 2, "maxzoom": 8 }, "properties": { "title": "加利西亚人", "color": "#0056E7", "oid": "103:1585278512741", "tyid": "304001", "fontsize": 12, "halo": 1.6 }, "geometry": { "type": "Point", "coordinates": [ -7.998047, 42.488302 ] } }
{"year": "BC204",  "type": "Feature", "tippecanoe": { "layer": "7F5D7CD340801585559446460", "minzoom": 2, "maxzoom": 8 }, "properties": { "title": "阿斯图尔人", "color": "#0056E7", "oid": "103:1585278512515", "tyid": "304001", "fontsize": 12, "halo": 1.6 }, "geometry": { "type": "Point", "coordinates": [ -6.152344, 42.553080 ] } }
{"year": "BC204",  "type": "Feature", "tippecanoe": { "layer": "7F5D7CD340801585559446460", "minzoom": 2, "maxzoom": 8 }, "properties": { "title": "瓦凯伊人", "color": "#0056E7", "oid": "103:1585278512978", "tyid": "304001", "fontsize": 12, "halo": 1.6 }, "geometry": { "type": "Point", "coordinates": [ -4.658203, 41.640078 ] } }
{"year": "BC204",  "type": "Feature", "tippecanoe": { "layer": "7F5D7CD340801585559446460", "minzoom": 2, "maxzoom": 8 }, "properties": { "title": "阿奎丹人", "color": "#0056E7", "oid": "103:1585278512499", "tyid": "304001", "fontsize": 12, "halo": 1.6 }, "geometry": { "type": "Point", "coordinates": [ -0.175781, 43.834527 ] } }
{"year": "BC204",  "type": "Feature", "tippecanoe": { "layer": "7F5D7CD340801585559446460", "minzoom": 2, "maxzoom": 8 }, "properties": { "title": "卢西塔利亚人", "color": "#0056E7", "oid": "103:1585278512509", "tyid": "304001", "fontsize": 12, "halo": 1.6 }, "geometry": { "type": "Point", "coordinates": [ -7.646484, 40.313043 ] } }
{"year": "BC204",  "type": "Feature", "tippecanoe": { "layer": "7F5D7CD340801585559446460", "minzoom": 2, "maxzoom": 8 }, "properties": { "title": "凯蒂奇人", "color": "#0056E7", "oid": "103:1585278512518", "tyid": "304001", "fontsize": 12, "halo": 1.6 }, "geometry": { "type": "Point", "coordinates": [ -7.646484, 38.959409 ] } }
{"year": "BC204",  "type": "Feature", "tippecanoe": { "layer": "7F5D7CD340801585559446460", "minzoom": 2, "maxzoom": 8 }, "properties": { "title": "维托内人", "color": "#0056E7", "oid": "103:1585278512962", "tyid": "304001", "fontsize": 12, "halo": 1.6 }, "geometry": { "type": "Point", "coordinates": [ -5.800781, 40.313043 ] } }
{"year": "BC204",  "type": "Feature", "tippecanoe": { "layer": "7F5D7CD340801585559446460", "minzoom": 2, "maxzoom": 8 }, "properties": { "title": "图尔杜利人", "color": "#0056E7", "oid": "103:1585278512516", "tyid": "304001", "fontsize": 12, "halo": 1.6 }, "geometry": { "type": "Point", "coordinates": [ -5.976562, 38.616870 ] } }
{"year": "BC204",  "type": "Feature", "tippecanoe": { "layer": "7F5D7CD340801585559446460", "minzoom": 2, "maxzoom": 8 }, "properties": { "title": "卡佩塔尼人", "color": "#0056E7", "oid": "103:1585278512571", "tyid": "304001", "fontsize": 12, "halo": 1.6 }, "geometry": { "type": "Point", "coordinates": [ -3.955078, 39.977120 ] } }
{"year": "BC204",  "type": "Feature", "tippecanoe": { "layer": "7F5D7CD340801585559446460", "minzoom": 2, "maxzoom": 8 }, "properties": { "title": "凯尔特伊比利亚人", "color": "#0056E7", "oid": "103:1585278512595", "tyid": "304001", "fontsize": 12, "halo": 1.6 }, "geometry": { "type": "Point", "coordinates": [ -2.285156, 40.780541 ] } }
{"year": "BC204",  "type": "Feature", "tippecanoe": { "layer": "7F5D7CD340801585559446460", "minzoom": 2, "maxzoom": 8 }, "properties": { "title": "毛里塔尼亚王国", "color": "#0056E7", "oid": "103:1585278512893", "tyid": "304000", "fontsize": 12, "halo": 1.8 }, "geometry": { "type": "Point", "coordinates": [ -5.009766, 34.524661 ] } }
{"year": "BC204",  "type": "Feature", "tippecanoe": { "layer": "7F5D7CD340801585559446460", "minzoom": 2, "maxzoom": 8 }, "properties": { "title": "杰内-杰诺文化一期", "color": "#0056E7", "oid": "103:1585278512972", "tyid": "304002", "fontsize": 12, "halo": 1.6 }, "geometry": { "type": "Point", "coordinates": [ -4.482422, 13.667338 ] } }
{"year": "BC204",  "type": "Feature", "tippecanoe": { "layer": "7F5D7CD340801585559446460", "minzoom": 2, "maxzoom": 8 }, "properties": { "title": "楚真文化", "color": "#0056E7", "oid": "103:1585278512758", "tyid": "304002", "fontsize": 12, "halo": 1.6 }, "geometry": { "type": "Point", "coordinates": [ -70.576172, -16.299051 ] } }
{"year": "BC204",  "type": "Feature", "tippecanoe": { "layer": "7F5D7CD340801585559446460", "minzoom": 2, "maxzoom": 8 }, "properties": { "title": "普卡拉文化", "color": "#0056E7", "oid": "103:1585278513002", "tyid": "304002", "fontsize": 12, "halo": 1.6 }, "geometry": { "type": "Point", "coordinates": [ -69.873047, -14.604847 ] } }
{"year": "BC204",  "type": "Feature", "tippecanoe": { "layer": "7F5D7CD340801585559446460", "minzoom": 2, "maxzoom": 8 }, "properties": { "title": "艾马拉人", "color": "#0056E7", "oid": "103:1585278512797", "tyid": "304001", "fontsize": 12, "halo": 1.6 }, "geometry": { "type": "Point", "coordinates": [ -68.291016, -17.224758 ] } }
{"year": "BC204",  "type": "Feature", "tippecanoe": { "layer": "7F5D7CD340801585559446460", "minzoom": 2, "maxzoom": 8 }, "properties": { "title": "昌戈人", "color": "#0056E7", "oid": "103:1585278512588", "tyid": "304001", "fontsize": 12, "halo": 1.6 }, "geometry": { "type": "Point", "coordinates": [ -69.960938, -23.725012 ] } }
{"year": "BC204",  "type": "Feature", "tippecanoe": { "layer": "7F5D7CD340801585559446460", "minzoom": 2, "maxzoom": 8 }, "properties": { "title": "阿拉米托文化", "color": "#0056E7", "oid": "103:1585278512986", "tyid": "304002", "fontsize": 12, "halo": 1.6 }, "geometry": { "type": "Point", "coordinates": [ -67.851562, -26.588527 ] } }
{"year": "BC204",  "type": "Feature", "tippecanoe": { "layer": "7F5D7CD340801585559446460", "minzoom": 2, "maxzoom": 8 }, "properties": { "title": "埃尔莫尔文化", "color": "#0056E7", "oid": "103:1585278512889", "tyid": "304002", "fontsize": 12, "halo": 1.6 }, "geometry": { "type": "Point", "coordinates": [ -70.927734, -30.675715 ] } }
{"year": "BC204",  "type": "Feature", "tippecanoe": { "layer": "7F5D7CD340801585559446460", "minzoom": 2, "maxzoom": 8 }, "properties": { "title": "安西尔塔文化", "color": "#0056E7", "oid": "103:1585278512584", "tyid": "304002", "fontsize": 12, "halo": 1.6 }, "geometry": { "type": "Point", "coordinates": [ -68.818359, -31.353637 ] } }
{"year": "BC204",  "type": "Feature", "tippecanoe": { "layer": "7F5D7CD340801585559446460", "minzoom": 2, "maxzoom": 8 }, "properties": { "title": "巴托文化", "color": "#0056E7", "oid": "103:1585278512643", "tyid": "304002", "fontsize": 12, "halo": 1.6 }, "geometry": { "type": "Point", "coordinates": [ -70.839844, -33.431441 ] } }
{"year": "BC204",  "type": "Feature", "tippecanoe": { "layer": "7F5D7CD340801585559446460", "minzoom": 2, "maxzoom": 8 }, "properties": { "title": "马普切人", "color": "#0056E7", "oid": "103:1585278512505", "tyid": "304001", "fontsize": 12, "halo": 1.6 }, "geometry": { "type": "Point", "coordinates": [ -71.455078, -38.959409 ] } }
{"year": "BC204",  "type": "Feature", "tippecanoe": { "layer": "7F5D7CD340801585559446460", "minzoom": 2, "maxzoom": 8 }, "properties": { "title": "希德拉里卡文化", "color": "#0056E7", "oid": "103:1585278512954", "tyid": "304002", "fontsize": 12, "halo": 1.6 }, "geometry": { "type": "Point", "coordinates": [ -66.005859, -12.297068 ] } }
{"year": "BC204",  "type": "Feature", "tippecanoe": { "layer": "7F5D7CD340801585559446460", "minzoom": 2, "maxzoom": 8 }, "properties": { "title": "摩克索人", "color": "#0056E7", "oid": "103:1585278512966", "tyid": "304001", "fontsize": 12, "halo": 1.6 }, "geometry": { "type": "Point", "coordinates": [ -65.830078, -13.923404 ] } }
{"year": "BC204",  "type": "Feature", "tippecanoe": { "layer": "7F5D7CD340801585559446460", "minzoom": 2, "maxzoom": 8 }, "properties": { "title": "瓦卡拉尼文化", "color": "#0056E7", "oid": "103:1585278512955", "tyid": "304002", "fontsize": 12, "halo": 1.6 }, "geometry": { "type": "Point", "coordinates": [ -64.951172, -17.811456 ] } }
{"year": "BC204",  "type": "Feature", "tippecanoe": { "layer": "7F5D7CD340801585559446460", "minzoom": 2, "maxzoom": 8 }, "properties": { "title": "康多拉瓦西文化", "color": "#0056E7", "oid": "103:1585278512569", "tyid": "304002", "fontsize": 12, "halo": 1.6 }, "geometry": { "type": "Point", "coordinates": [ -66.708984, -27.293689 ] } }
{"year": "BC204",  "type": "Feature", "tippecanoe": { "layer": "7F5D7CD340801585559446460", "minzoom": 2, "maxzoom": 8 }, "properties": { "title": "拉斯梅塞德斯文化", "color": "#0056E7", "oid": "103:1585278513051", "tyid": "304002", "fontsize": 12, "halo": 1.6 }, "geometry": { "type": "Point", "coordinates": [ -63.808594, -27.605671 ] } }
{"year": "BC204",  "type": "Feature", "tippecanoe": { "layer": "7F5D7CD340801585559446460", "minzoom": 2, "maxzoom": 8 }, "properties": { "title": "查鲁亚人", "color": "#0056E7", "oid": "103:1585278513010", "tyid": "304001", "fontsize": 12, "halo": 1.6 }, "geometry": { "type": "Point", "coordinates": [ -57.128906, -32.398516 ] } }
{"year": "BC204",  "type": "Feature", "tippecanoe": { "layer": "7F5D7CD340801585559446460", "minzoom": 2, "maxzoom": 8 }, "properties": { "title": "特胡尔切人", "color": "#0056E7", "oid": "103:1585278512553", "tyid": "304001", "fontsize": 12, "halo": 1.6 }, "geometry": { "type": "Point", "coordinates": [ -70.751953, -50.176898 ] } }
{"year": "BC204",  "type": "Feature", "tippecanoe": { "layer": "7F5D7CD340801585559446460", "minzoom": 2, "maxzoom": 8 }, "properties": { "title": "塞尔克南人", "color": "#0056E7", "oid": "103:1585278513067", "tyid": "304001", "fontsize": 12, "halo": 1.6 }, "geometry": { "type": "Point", "coordinates": [ -68.378906, -53.696706 ] } }
{"year": "BC204",  "type": "Feature", "tippecanoe": { "layer": "7F5D7CD340801585559446460", "minzoom": 2, "maxzoom": 8 }, "properties": { "title": "雅干人", "color": "#0056E7", "oid": "103:1585278512532", "tyid": "304001", "fontsize": 12, "halo": 1.6 }, "geometry": { "type": "Point", "coordinates": [ -68.554688, -54.521081 ] } }
{"year": "BC204",  "type": "Feature", "tippecanoe": { "layer": "7F5D7CD340801585559446460", "minzoom": 2, "maxzoom": 8 }, "properties": { "title": "赫尔维蒂人", "color": "#0056E7", "oid": "103:1585278512503", "tyid": "304001", "fontsize": 12, "halo": 1.6 }, "geometry": { "type": "Point", "coordinates": [ 7.207031, 46.920255 ] } }
{"year": "BC204",  "type": "Feature", "tippecanoe": { "layer": "7F5D7CD340801585559446460", "minzoom": 2, "maxzoom": 8 }, "properties": { "title": "蕾蒂人", "color": "#0056E7", "oid": "103:1585278512809", "tyid": "304001", "fontsize": 12, "halo": 1.6 }, "geometry": { "type": "Point", "coordinates": [ 11.074219, 46.860191 ] } }
{"year": "BC204",  "type": "Feature", "tippecanoe": { "layer": "7F5D7CD340801585559446460", "minzoom": 2, "maxzoom": 8 }, "properties": { "title": "沃康蒂人", "color": "#0056E7", "oid": "103:1585278512496", "tyid": "304001", "fontsize": 12, "halo": 1.6 }, "geometry": { "type": "Point", "coordinates": [ 5.800781, 44.653024 ] } }
{"year": "BC204",  "type": "Feature", "tippecanoe": { "layer": "7F5D7CD340801585559446460", "minzoom": 2, "maxzoom": 8 }, "properties": { "title": "利古里亚人", "color": "#0056E7", "oid": "103:1585278512779", "tyid": "304002", "fontsize": 12, "halo": 1.6 }, "geometry": { "type": "Point", "coordinates": [ 7.382812, 44.087585 ] } }
{"year": "BC204",  "type": "Feature", "tippecanoe": { "layer": "7F5D7CD340801585559446460", "minzoom": 2, "maxzoom": 8 }, "properties": { "title": "西波罗的海坟文化", "color": "#0056E7", "oid": "103:1585278512615", "tyid": "304002", "fontsize": 12, "halo": 1.6 }, "geometry": { "type": "Point", "coordinates": [ 21.708984, 54.213861 ] } }
{"year": "BC204",  "type": "Feature", "tippecanoe": { "layer": "7F5D7CD340801585559446460", "minzoom": 2, "maxzoom": 8 }, "properties": { "title": "普热沃斯克文化", "color": "#0056E7", "oid": "103:1585278512626", "tyid": "304002", "fontsize": 12, "halo": 1.6 }, "geometry": { "type": "Point", "coordinates": [ 20.126953, 51.069017 ] } }
{"year": "BC204",  "type": "Feature", "tippecanoe": { "layer": "7F5D7CD340801585559446460", "minzoom": 2, "maxzoom": 8 }, "properties": { "title": "伊利里亚诸王国", "color": "#0056E7", "oid": "103:1585278513065", "tyid": "304000", "fontsize": 12, "halo": 1.8 }, "geometry": { "type": "Point", "coordinates": [ 17.050781, 44.339565 ] } }
{"year": "BC204",  "type": "Feature", "tippecanoe": { "layer": "7F5D7CD340801585559446460", "minzoom": 2, "maxzoom": 8 }, "properties": { "title": "阿尔迪安王国", "color": "#0056E7", "oid": "103:1585278512918", "tyid": "304000", "fontsize": 12, "halo": 1.8 }, "geometry": { "type": "Point", "coordinates": [ 19.072266, 42.617791 ] } }
{"year": "BC204",  "type": "Feature", "tippecanoe": { "layer": "7F5D7CD340801585559446460", "minzoom": 2, "maxzoom": 8 }, "properties": { "title": "潘诺尼亚人", "color": "#0056E7", "oid": "103:1585278512911", "tyid": "304001", "fontsize": 12, "halo": 1.6 }, "geometry": { "type": "Point", "coordinates": [ 19.775391, 44.590467 ] } }
{"year": "BC204",  "type": "Feature", "tippecanoe": { "layer": "7F5D7CD340801585559446460", "minzoom": 2, "maxzoom": 8 }, "properties": { "title": "达尔达尼亚王国", "color": "#0056E7", "oid": "103:1585278512686", "tyid": "304000", "fontsize": 12, "halo": 1.8 }, "geometry": { "type": "Point", "coordinates": [ 21.445312, 42.617791 ] } }
{"year": "BC204",  "type": "Feature", "tippecanoe": { "layer": "7F5D7CD340801585559446460", "minzoom": 2, "maxzoom": 8 }, "properties": { "title": "古爱沙尼亚人", "color": "#0056E7", "oid": "103:1585278512541", "tyid": "304001", "fontsize": 12, "halo": 1.6 }, "geometry": { "type": "Point", "coordinates": [ 25.576172, 58.995311 ] } }
{"year": "BC204",  "type": "Feature", "tippecanoe": { "layer": "7F5D7CD340801585559446460", "minzoom": 2, "maxzoom": 8 }, "properties": { "title": "利沃尼亚人", "color": "#0056E7", "oid": "103:1585278512519", "tyid": "304001", "fontsize": 12, "halo": 1.6 }, "geometry": { "type": "Point", "coordinates": [ 26.279297, 57.231503 ] } }
{"year": "BC204",  "type": "Feature", "tippecanoe": { "layer": "7F5D7CD340801585559446460", "minzoom": 2, "maxzoom": 8 }, "properties": { "title": "沃茨人", "color": "#0056E7", "oid": "103:1585278512881", "tyid": "304001", "fontsize": 12, "halo": 1.6 }, "geometry": { "type": "Point", "coordinates": [ 29.794922, 59.040555 ] } }
{"year": "BC204",  "type": "Feature", "tippecanoe": { "layer": "7F5D7CD340801585559446460", "minzoom": 2, "maxzoom": 8 }, "properties": { "title": "卡累利阿文化", "color": "#0056E7", "oid": "103:1585278512544", "tyid": "304002", "fontsize": 12, "halo": 1.6 }, "geometry": { "type": "Point", "coordinates": [ 33.925781, 63.074866 ] } }
{"year": "BC204",  "type": "Feature", "tippecanoe": { "layer": "7F5D7CD340801585559446460", "minzoom": 2, "maxzoom": 8 }, "properties": { "title": "阴影陶文化", "color": "#0056E7", "oid": "103:1585278512744", "tyid": "304002", "fontsize": 12, "halo": 1.6 }, "geometry": { "type": "Point", "coordinates": [ 24.785156, 55.627996 ] } }
{"year": "BC204",  "type": "Feature", "tippecanoe": { "layer": "7F5D7CD340801585559446460", "minzoom": 2, "maxzoom": 8 }, "properties": { "title": "米洛格勒文化", "color": "#0056E7", "oid": "103:1585278512623", "tyid": "304002", "fontsize": 12, "halo": 1.6 }, "geometry": { "type": "Point", "coordinates": [ 26.718750, 53.435719 ] } }
{"year": "BC204",  "type": "Feature", "tippecanoe": { "layer": "7F5D7CD340801585559446460", "minzoom": 2, "maxzoom": 8 }, "properties": { "title": "维内德人", "color": "#0056E7", "oid": "103:1585278512632", "tyid": "304001", "fontsize": 12, "halo": 1.6 }, "geometry": { "type": "Point", "coordinates": [ 24.609375, 51.234407 ] } }
{"year": "BC204",  "type": "Feature", "tippecanoe": { "layer": "7F5D7CD340801585559446460", "minzoom": 2, "maxzoom": 8 }, "properties": { "title": "奥德里西亚王国", "color": "#0056E7", "oid": "103:1585278512648", "tyid": "304000", "fontsize": 12, "halo": 1.8 }, "geometry": { "type": "Point", "coordinates": [ 25.136719, 42.682435 ] } }
{"year": "BC204",  "type": "Feature", "tippecanoe": { "layer": "7F5D7CD340801585559446460", "minzoom": 2, "maxzoom": 8 }, "properties": { "title": "盖塔人", "color": "#0056E7", "oid": "103:1585278512773", "tyid": "304001", "fontsize": 12, "halo": 1.6 }, "geometry": { "type": "Point", "coordinates": [ 27.246094, 44.213710 ] } }
{"year": "BC204",  "type": "Feature", "tippecanoe": { "layer": "7F5D7CD340801585559446460", "minzoom": 2, "maxzoom": 8 }, "properties": { "title": "帕夫拉哥尼亚独立区", "color": "#0056E7", "oid": "103:1585278512896", "tyid": "304002", "fontsize": 12, "halo": 1.6 }, "geometry": { "type": "Point", "coordinates": [ 33.486328, 41.178654 ] } }
{"year": "BC204",  "type": "Feature", "tippecanoe": { "layer": "7F5D7CD340801585559446460", "minzoom": 2, "maxzoom": 8 }, "properties": { "title": "上奥卡文化", "color": "#0056E7", "oid": "103:1585278512489", "tyid": "304002", "fontsize": 12, "halo": 1.6 }, "geometry": { "type": "Point", "coordinates": [ 37.353516, 53.540307 ] } }
{"year": "BC204",  "type": "Feature", "tippecanoe": { "layer": "7F5D7CD340801585559446460", "minzoom": 2, "maxzoom": 8 }, "properties": { "title": "尤赫诺夫文化", "color": "#0056E7", "oid": "103:1585278512513", "tyid": "304002", "fontsize": 12, "halo": 1.6 }, "geometry": { "type": "Point", "coordinates": [ 34.716797, 52.214339 ] } }
{"year": "BC204",  "type": "Feature", "tippecanoe": { "layer": "7F5D7CD340801585559446460", "minzoom": 2, "maxzoom": 8 }, "properties": { "title": "梅田人", "color": "#0056E7", "oid": "103:1585278513034", "tyid": "304001", "fontsize": 12, "halo": 1.6 }, "geometry": { "type": "Point", "coordinates": [ 38.144531, 45.644768 ] } }
{"year": "BC204",  "type": "Feature", "tippecanoe": { "layer": "7F5D7CD340801585559446460", "minzoom": 2, "maxzoom": 8 }, "properties": { "title": "西雷斯人", "color": "#0056E7", "oid": "103:1585278513032", "tyid": "304001", "fontsize": 12, "halo": 1.6 }, "geometry": { "type": "Point", "coordinates": [ 41.308594, 45.460131 ] } }
{"year": "BC204",  "type": "Feature", "tippecanoe": { "layer": "7F5D7CD340801585559446460", "minzoom": 2, "maxzoom": 8 }, "properties": { "title": "切尔克斯人", "color": "#0056E7", "oid": "103:1585278513040", "tyid": "304001", "fontsize": 12, "halo": 1.6 }, "geometry": { "type": "Point", "coordinates": [ 42.011719, 43.707594 ] } }
{"year": "BC204",  "type": "Feature", "tippecanoe": { "layer": "7F5D7CD340801585559446460", "minzoom": 2, "maxzoom": 8 }, "properties": { "title": "科尔基斯王国", "color": "#0056E7", "oid": "103:1585278512895", "tyid": "304000", "fontsize": 12, "halo": 1.8 }, "geometry": { "type": "Point", "coordinates": [ 42.539062, 42.617791 ] } }
{"year": "BC204",  "type": "Feature", "tippecanoe": { "layer": "7F5D7CD340801585559446460", "minzoom": 2, "maxzoom": 8 }, "properties": { "title": "高加索伊比利亚王国", "color": "#0056E7", "oid": "103:1585278512666", "tyid": "304000", "fontsize": 12, "halo": 1.8 }, "geometry": { "type": "Point", "coordinates": [ 44.912109, 41.771312 ] } }
{"year": "BC204",  "type": "Feature", "tippecanoe": { "layer": "7F5D7CD340801585559446460", "minzoom": 2, "maxzoom": 8 }, "properties": { "title": "马萨希利", "color": "#0056E7", "oid": "103:1585278512512", "tyid": "304001", "fontsize": 12, "halo": 1.6 }, "geometry": { "type": "Point", "coordinates": [ 3.867188, 36.031332 ] } }
{"year": "BC204",  "type": "Feature", "tippecanoe": { "layer": "7F5D7CD340801585559446460", "minzoom": 2, "maxzoom": 8 }, "properties": { "title": "马希利联盟", "color": "#0056E7", "oid": "103:1585278512973", "tyid": "304002", "fontsize": 12, "halo": 1.6 }, "geometry": { "type": "Point", "coordinates": [ 7.910156, 35.460670 ] } }
{"year": "BC204",  "type": "Feature", "tippecanoe": { "layer": "7F5D7CD340801585559446460", "minzoom": 2, "maxzoom": 8 }, "properties": { "title": "迦太基帝国", "color": "#0056E7", "oid": "103:1585278512655", "tyid": "304000", "fontsize": 12, "halo": 1.8 }, "geometry": { "type": "Point", "coordinates": [ 9.843750, 36.597889 ] } }
{"year": "BC204",  "type": "Feature", "tippecanoe": { "layer": "7F5D7CD340801585559446460", "minzoom": 2, "maxzoom": 8 }, "properties": { "title": "伊庇鲁斯联盟", "color": "#0056E7", "oid": "103:1585278512916", "tyid": "304000", "fontsize": 12, "halo": 1.8 }, "geometry": { "type": "Point", "coordinates": [ 20.478516, 39.977120 ] } }
{"year": "BC204",  "type": "Feature", "tippecanoe": { "layer": "7F5D7CD340801585559446460", "minzoom": 2, "maxzoom": 8 }, "properties": { "title": "安提柯王朝", "color": "#0056E7", "oid": "103:1585278512688", "tyid": "304000", "fontsize": 12, "halo": 1.8 }, "geometry": { "type": "Point", "coordinates": [ 21.708984, 40.446947 ] } }
{"year": "BC204",  "type": "Feature", "tippecanoe": { "layer": "7F5D7CD340801585559446460", "minzoom": 2, "maxzoom": 8 }, "properties": { "title": "加拉曼特王国", "color": "#0056E7", "oid": "103:1585278512703", "tyid": "304000", "fontsize": 12, "halo": 1.8 }, "geometry": { "type": "Point", "coordinates": [ 13.886719, 26.902477 ] } }
{"year": "BC204",  "type": "Feature", "tippecanoe": { "layer": "7F5D7CD340801585559446460", "minzoom": 2, "maxzoom": 8 }, "properties": { "title": "约鲁巴人", "color": "#0056E7", "oid": "103:1585278512558", "tyid": "304001", "fontsize": 12, "halo": 1.6 }, "geometry": { "type": "Point", "coordinates": [ 3.427734, 7.536764 ] } }
{"year": "BC204",  "type": "Feature", "tippecanoe": { "layer": "7F5D7CD340801585559446460", "minzoom": 2, "maxzoom": 8 }, "properties": { "title": "伊博人", "color": "#0056E7", "oid": "103:1585278512556", "tyid": "304001", "fontsize": 12, "halo": 1.6 }, "geometry": { "type": "Point", "coordinates": [ 7.998047, 5.965754 ] } }
{"year": "BC204",  "type": "Feature", "tippecanoe": { "layer": "7F5D7CD340801585559446460", "minzoom": 2, "maxzoom": 8 }, "properties": { "title": "比提尼亚王国", "color": "#0056E7", "oid": "103:1585278513006", "tyid": "304000", "fontsize": 12, "halo": 1.8 }, "geometry": { "type": "Point", "coordinates": [ 30.410156, 40.713956 ] } }
{"year": "BC204",  "type": "Feature", "tippecanoe": { "layer": "7F5D7CD340801585559446460", "minzoom": 2, "maxzoom": 8 }, "properties": { "title": "加拉提亚高卢人", "color": "#0056E7", "oid": "103:1585278512899", "tyid": "304001", "fontsize": 12, "halo": 1.6 }, "geometry": { "type": "Point", "coordinates": [ 32.695312, 39.774769 ] } }
{"year": "BC204",  "type": "Feature", "tippecanoe": { "layer": "7F5D7CD340801585559446460", "minzoom": 2, "maxzoom": 8 }, "properties": { "title": "纳巴泰人", "color": "#0056E7", "oid": "103:1585278512902", "tyid": "304001", "fontsize": 12, "halo": 1.6 }, "geometry": { "type": "Point", "coordinates": [ 33.486328, 28.844674 ] } }
{"year": "BC204",  "type": "Feature", "tippecanoe": { "layer": "7F5D7CD340801585559446460", "minzoom": 2, "maxzoom": 8 }, "properties": { "title": "卡帕多西亚王国", "color": "#0056E7", "oid": "103:1585278512746", "tyid": "304000", "fontsize": 12, "halo": 1.8 }, "geometry": { "type": "Point", "coordinates": [ 35.771484, 38.616870 ] } }
{"year": "BC204",  "type": "Feature", "tippecanoe": { "layer": "7F5D7CD340801585559446460", "minzoom": 2, "maxzoom": 8 }, "properties": { "title": "本都王国", "color": "#0056E7", "oid": "103:1585278512591", "tyid": "304000", "fontsize": 12, "halo": 1.8 }, "geometry": { "type": "Point", "coordinates": [ 36.738281, 40.446947 ] } }
{"year": "BC204",  "type": "Feature", "tippecanoe": { "layer": "7F5D7CD340801585559446460", "minzoom": 2, "maxzoom": 8 }, "properties": { "title": "小亚美尼亚王国", "color": "#0056E7", "oid": "103:1585278512898", "tyid": "304000", "fontsize": 12, "halo": 1.8 }, "geometry": { "type": "Point", "coordinates": [ 38.935547, 40.111689 ] } }
{"year": "BC204",  "type": "Feature", "tippecanoe": { "layer": "7F5D7CD340801585559446460", "minzoom": 2, "maxzoom": 8 }, "properties": { "title": "塔努联盟", "color": "#0056E7", "oid": "103:1585278512668", "tyid": "304002", "fontsize": 12, "halo": 1.6 }, "geometry": { "type": "Point", "coordinates": [ 39.287109, 32.694866 ] } }
{"year": "BC204",  "type": "Feature", "tippecanoe": { "layer": "7F5D7CD340801585559446460", "minzoom": 2, "maxzoom": 8 }, "properties": { "title": "索芬尼王国", "color": "#0056E7", "oid": "103:1585278512488", "tyid": "304000", "fontsize": 12, "halo": 1.8 }, "geometry": { "type": "Point", "coordinates": [ 39.902344, 38.548165 ] } }
{"year": "BC204",  "type": "Feature", "tippecanoe": { "layer": "7F5D7CD340801585559446460", "minzoom": 2, "maxzoom": 8 }, "properties": { "title": "大亚美尼亚王国", "color": "#0056E7", "oid": "103:1585278512592", "tyid": "304000", "fontsize": 12, "halo": 1.8 }, "geometry": { "type": "Point", "coordinates": [ 42.626953, 39.639538 ] } }
{"year": "BC204",  "type": "Feature", "tippecanoe": { "layer": "7F5D7CD340801585559446460", "minzoom": 2, "maxzoom": 8 }, "properties": { "title": "纳巴泰王国", "color": "#0056E7", "oid": "103:1585278512667", "tyid": "304000", "fontsize": 12, "halo": 1.8 }, "geometry": { "type": "Point", "coordinates": [ 36.914062, 31.052934 ] } }
{"year": "BC204",  "type": "Feature", "tippecanoe": { "layer": "7F5D7CD340801585559446460", "minzoom": 2, "maxzoom": 8 }, "properties": { "title": "贝扎人", "color": "#0056E7", "oid": "103:1585278513000", "tyid": "304001", "fontsize": 12, "halo": 1.6 }, "geometry": { "type": "Point", "coordinates": [ 35.771484, 16.214675 ] } }
{"year": "BC204",  "type": "Feature", "tippecanoe": { "layer": "7F5D7CD340801585559446460", "minzoom": 2, "maxzoom": 8 }, "properties": { "title": "原始-阿克苏姆铁器时代", "color": "#0056E7", "oid": "103:1585278512971", "tyid": "304002", "fontsize": 12, "halo": 1.6 }, "geometry": { "type": "Point", "coordinates": [ 39.111328, 13.923404 ] } }
{"year": "BC204",  "type": "Feature", "tippecanoe": { "layer": "7F5D7CD340801585559446460", "minzoom": 2, "maxzoom": 8 }, "properties": { "title": "高原诸小王国", "color": "#0056E7", "oid": "103:1585278512672", "tyid": "304002", "fontsize": 12, "halo": 1.6 }, "geometry": { "type": "Point", "coordinates": [ 41.835938, 12.726084 ] } }
{"year": "BC204",  "type": "Feature", "tippecanoe": { "layer": "7F5D7CD340801585559446460", "minzoom": 2, "maxzoom": 8 }, "properties": { "title": "迈因王国", "color": "#0056E7", "oid": "103:1585278512673", "tyid": "304000", "fontsize": 12, "halo": 1.8 }, "geometry": { "type": "Point", "coordinates": [ 44.824219, 16.299051 ] } }
{"year": "BC204",  "type": "Feature", "tippecanoe": { "layer": "7F5D7CD340801585559446460", "minzoom": 2, "maxzoom": 8 }, "properties": { "title": "塞巴王国", "color": "#0056E7", "oid": "103:1585278512903", "tyid": "304000", "fontsize": 12, "halo": 1.8 }, "geometry": { "type": "Point", "coordinates": [ 44.033203, 14.689881 ] } }
{"year": "BC204",  "type": "Feature", "tippecanoe": { "layer": "7F5D7CD340801585559446460", "minzoom": 2, "maxzoom": 8 }, "properties": { "title": "安纳尼诺文化", "color": "#0056E7", "oid": "103:1585278513030", "tyid": "304002", "fontsize": 12, "halo": 1.6 }, "geometry": { "type": "Point", "coordinates": [ 50.625000, 56.413901 ] } }
{"year": "BC204",  "type": "Feature", "tippecanoe": { "layer": "7F5D7CD340801585559446460", "minzoom": 2, "maxzoom": 8 }, "properties": { "title": "大益人", "color": "#0056E7", "oid": "103:1585278512886", "tyid": "304001", "fontsize": 12, "halo": 1.6 }, "geometry": { "type": "Point", "coordinates": [ 55.458984, 41.178654 ] } }
{"year": "BC204",  "type": "Feature", "tippecanoe": { "layer": "7F5D7CD340801585559446460", "minzoom": 2, "maxzoom": 8 }, "properties": { "title": "驩潜国", "color": "#0056E7", "oid": "103:1585278512872", "tyid": "304000", "fontsize": 12, "halo": 1.8 }, "geometry": { "type": "Point", "coordinates": [ 60.117188, 42.488302 ] } }
{"year": "BC204",  "type": "Feature", "tippecanoe": { "layer": "7F5D7CD340801585559446460", "minzoom": 2, "maxzoom": 8 }, "properties": { "title": "塞迦人", "color": "#0056E7", "oid": "103:1585278512735", "tyid": "304001", "fontsize": 12, "halo": 1.6 }, "geometry": { "type": "Point", "coordinates": [ 62.929688, 42.098222 ] } }
{"year": "BC204",  "type": "Feature", "tippecanoe": { "layer": "7F5D7CD340801585559446460", "minzoom": 2, "maxzoom": 8 }, "properties": { "title": "龟兹国", "color": "#0056E7", "oid": "103:1585278512711", "tyid": "304000", "fontsize": 12, "halo": 1.8 }, "geometry": { "type": "Point", "coordinates": [ 82.792969, 41.442726 ] } }
{"year": "BC204",  "type": "Feature", "tippecanoe": { "layer": "7F5D7CD340801585559446460", "minzoom": 2, "maxzoom": 8 }, "properties": { "title": "车师国", "color": "#0056E7", "oid": "103:1585278512548", "tyid": "304000", "fontsize": 12, "halo": 1.8 }, "geometry": { "type": "Point", "coordinates": [ 89.560547, 43.197167 ] } }
{"year": "BC204",  "type": "Feature", "tippecanoe": { "layer": "7F5D7CD340801585559446460", "minzoom": 2, "maxzoom": 8 }, "properties": { "title": "危须国", "color": "#0056E7", "oid": "103:1585278512876", "tyid": "304000", "fontsize": 12, "halo": 1.8 }, "geometry": { "type": "Point", "coordinates": [ 87.363281, 42.423457 ] } }
{"year": "BC204",  "type": "Feature", "tippecanoe": { "layer": "7F5D7CD340801585559446460", "minzoom": 2, "maxzoom": 8 }, "properties": { "title": "墨山国", "color": "#0056E7", "oid": "103:1585278512976", "tyid": "304000", "fontsize": 12, "halo": 1.8 }, "geometry": { "type": "Point", "coordinates": [ 88.593750, 41.310824 ] } }
{"year": "BC204",  "type": "Feature", "tippecanoe": { "layer": "7F5D7CD340801585559446460", "minzoom": 2, "maxzoom": 8 }, "properties": { "title": "阿特罗帕特尼王国", "color": "#0056E7", "oid": "103:1585278512590", "tyid": "304000", "fontsize": 12, "halo": 1.8 }, "geometry": { "type": "Point", "coordinates": [ 47.021484, 38.134557 ] } }
{"year": "BC204",  "type": "Feature", "tippecanoe": { "layer": "7F5D7CD340801585559446460", "minzoom": 2, "maxzoom": 8 }, "properties": { "title": "高加索阿尔巴尼亚人", "color": "#0056E7", "oid": "103:1585278512662", "tyid": "304001", "fontsize": 12, "halo": 1.6 }, "geometry": { "type": "Point", "coordinates": [ 47.988281, 40.580585 ] } }
{"year": "BC204",  "type": "Feature", "tippecanoe": { "layer": "7F5D7CD340801585559446460", "minzoom": 2, "maxzoom": 8 }, "properties": { "title": "格拉", "color": "#0056E7", "oid": "103:1585278512949", "tyid": "304002", "fontsize": 12, "halo": 1.6 }, "geometry": { "type": "Point", "coordinates": [ 51.240234, 25.403585 ] } }
{"year": "BC204",  "type": "Feature", "tippecanoe": { "layer": "7F5D7CD340801585559446460", "minzoom": 2, "maxzoom": 8 }, "properties": { "title": "马干", "color": "#0056E7", "oid": "103:1585278512492", "tyid": "304002", "fontsize": 12, "halo": 1.6 }, "geometry": { "type": "Point", "coordinates": [ 57.744141, 23.241346 ] } }
{"year": "BC204",  "type": "Feature", "tippecanoe": { "layer": "7F5D7CD340801585559446460", "minzoom": 2, "maxzoom": 8 }, "properties": { "title": "奥桑王国", "color": "#0056E7", "oid": "103:1585278513062", "tyid": "304000", "fontsize": 12, "halo": 1.8 }, "geometry": { "type": "Point", "coordinates": [ 45.966797, 13.923404 ] } }
{"year": "BC204",  "type": "Feature", "tippecanoe": { "layer": "7F5D7CD340801585559446460", "minzoom": 2, "maxzoom": 8 }, "properties": { "title": "阿德王国", "color": "#0056E7", "oid": "103:1585278512946", "tyid": "304000", "fontsize": 12, "halo": 1.8 }, "geometry": { "type": "Point", "coordinates": [ 52.382812, 18.646245 ] } }
{"year": "BC204",  "type": "Feature", "tippecanoe": { "layer": "7F5D7CD340801585559446460", "minzoom": 2, "maxzoom": 8 }, "properties": { "title": "哈德拉毛王国", "color": "#0056E7", "oid": "103:1585278512947", "tyid": "304000", "fontsize": 12, "halo": 1.8 }, "geometry": { "type": "Point", "coordinates": [ 50.976562, 16.299051 ] } }
{"year": "BC204",  "type": "Feature", "tippecanoe": { "layer": "7F5D7CD340801585559446460", "minzoom": 2, "maxzoom": 8 }, "properties": { "title": "幸军王", "color": "#0056E7", "oid": "103:1585278512833", "tyid": "304002", "fontsize": 12, "halo": 1.6 }, "geometry": { "type": "Point", "coordinates": [ 68.115234, 34.234512 ] } }
{"year": "BC204",  "type": "Feature", "tippecanoe": { "layer": "7F5D7CD340801585559446460", "minzoom": 2, "maxzoom": 8 }, "properties": { "title": "莎车国", "color": "#0056E7", "oid": "103:1585278512658", "tyid": "304000", "fontsize": 12, "halo": 1.8 }, "geometry": { "type": "Point", "coordinates": [ 77.431641, 38.822591 ] } }
{"year": "BC204",  "type": "Feature", "tippecanoe": { "layer": "7F5D7CD340801585559446460", "minzoom": 2, "maxzoom": 8 }, "properties": { "title": "西夜国", "color": "#0056E7", "oid": "103:1585278512930", "tyid": "304000", "fontsize": 12, "halo": 1.8 }, "geometry": { "type": "Point", "coordinates": [ 78.046875, 36.949892 ] } }
{"year": "BC204",  "type": "Feature", "tippecanoe": { "layer": "7F5D7CD340801585559446460", "minzoom": 2, "maxzoom": 8 }, "properties": { "title": "乌秅国", "color": "#0056E7", "oid": "103:1585278512528", "tyid": "304000", "fontsize": 12, "halo": 1.8 }, "geometry": { "type": "Point", "coordinates": [ 76.728516, 36.385913 ] } }
{"year": "BC204",  "type": "Feature", "tippecanoe": { "layer": "7F5D7CD340801585559446460", "minzoom": 2, "maxzoom": 8 }, "properties": { "title": "姑墨国", "color": "#0056E7", "oid": "103:1585278512788", "tyid": "304000", "fontsize": 12, "halo": 1.8 }, "geometry": { "type": "Point", "coordinates": [ 80.683594, 40.847060 ] } }
{"year": "BC204",  "type": "Feature", "tippecanoe": { "layer": "7F5D7CD340801585559446460", "minzoom": 2, "maxzoom": 8 }, "properties": { "title": "于阗国", "color": "#0056E7", "oid": "103:1585278512715", "tyid": "304000", "fontsize": 12, "halo": 1.8 }, "geometry": { "type": "Point", "coordinates": [ 80.156250, 38.272689 ] } }
{"year": "BC204",  "type": "Feature", "tippecanoe": { "layer": "7F5D7CD340801585559446460", "minzoom": 2, "maxzoom": 8 }, "properties": { "title": "扜弥国", "color": "#0056E7", "oid": "103:1585278512585", "tyid": "304000", "fontsize": 12, "halo": 1.8 }, "geometry": { "type": "Point", "coordinates": [ 81.914062, 38.616870 ] } }
{"year": "BC204",  "type": "Feature", "tippecanoe": { "layer": "7F5D7CD340801585559446460", "minzoom": 2, "maxzoom": 8 }, "properties": { "title": "精绝国", "color": "#0056E7", "oid": "103:1585278512877", "tyid": "304000", "fontsize": 12, "halo": 1.8 }, "geometry": { "type": "Point", "coordinates": [ 82.880859, 37.509726 ] } }
{"year": "BC204",  "type": "Feature", "tippecanoe": { "layer": "7F5D7CD340801585559446460", "minzoom": 2, "maxzoom": 8 }, "properties": { "title": "尉犁国", "color": "#0056E7", "oid": "103:1585278512551", "tyid": "304000", "fontsize": 12, "halo": 1.8 }, "geometry": { "type": "Point", "coordinates": [ 86.923828, 40.979898 ] } }
{"year": "BC204",  "type": "Feature", "tippecanoe": { "layer": "7F5D7CD340801585559446460", "minzoom": 2, "maxzoom": 8 }, "properties": { "title": "且末国", "color": "#0056E7", "oid": "103:1585278512771", "tyid": "304000", "fontsize": 12, "halo": 1.8 }, "geometry": { "type": "Point", "coordinates": [ 86.044922, 38.341656 ] } }
{"year": "BC204",  "type": "Feature", "tippecanoe": { "layer": "7F5D7CD340801585559446460", "minzoom": 2, "maxzoom": 8 }, "properties": { "title": "楼兰国", "color": "#0056E7", "oid": "103:1585278513004", "tyid": "304000", "fontsize": 12, "halo": 1.8 }, "geometry": { "type": "Point", "coordinates": [ 89.824219, 40.044438 ] } }
{"year": "BC204",  "type": "Feature", "tippecanoe": { "layer": "7F5D7CD340801585559446460", "minzoom": 2, "maxzoom": 8 }, "properties": { "title": "婼羌国", "color": "#0056E7", "oid": "103:1585278512579", "tyid": "304000", "fontsize": 12, "halo": 1.8 }, "geometry": { "type": "Point", "coordinates": [ 89.912109, 38.134557 ] } }
{"year": "BC204",  "type": "Feature", "tippecanoe": { "layer": "7F5D7CD340801585559446460", "minzoom": 2, "maxzoom": 8 }, "properties": { "title": "克拉底王国", "color": "#0056E7", "oid": "103:1585278512765", "tyid": "304000", "fontsize": 12, "halo": 1.8 }, "geometry": { "type": "Point", "coordinates": [ 84.199219, 28.071980 ] } }
{"year": "BC204",  "type": "Feature", "tippecanoe": { "layer": "7F5D7CD340801585559446460", "minzoom": 2, "maxzoom": 8 }, "properties": { "title": "阿西亚曼王国", "color": "#0056E7", "oid": "103:1585278512698", "tyid": "304000", "fontsize": 12, "halo": 1.8 }, "geometry": { "type": "Point", "coordinates": [ 77.519531, 11.781325 ] } }
{"year": "BC204",  "type": "Feature", "tippecanoe": { "layer": "7F5D7CD340801585559446460", "minzoom": 2, "maxzoom": 8 }, "properties": { "title": "哲罗国", "color": "#0056E7", "oid": "103:1585278512840", "tyid": "304000", "fontsize": 12, "halo": 1.8 }, "geometry": { "type": "Point", "coordinates": [ 76.464844, 10.314919 ] } }
{"year": "BC204",  "type": "Feature", "tippecanoe": { "layer": "7F5D7CD340801585559446460", "minzoom": 2, "maxzoom": 8 }, "properties": { "title": "潘地亚王国", "color": "#0056E7", "oid": "103:1585278512784", "tyid": "304000", "fontsize": 12, "halo": 1.8 }, "geometry": { "type": "Point", "coordinates": [ 77.958984, 9.535749 ] } }
{"year": "BC204",  "type": "Feature", "tippecanoe": { "layer": "7F5D7CD340801585559446460", "minzoom": 2, "maxzoom": 8 }, "properties": { "title": "质多王朝", "color": "#0056E7", "oid": "103:1585278512727", "tyid": "304000", "fontsize": 12, "halo": 1.8 }, "geometry": { "type": "Point", "coordinates": [ 84.375000, 20.385825 ] } }
{"year": "BC204",  "type": "Feature", "tippecanoe": { "layer": "7F5D7CD340801585559446460", "minzoom": 2, "maxzoom": 8 }, "properties": { "title": "朱罗国", "color": "#0056E7", "oid": "103:1585278512789", "tyid": "304000", "fontsize": 12, "halo": 1.8 }, "geometry": { "type": "Point", "coordinates": [ 78.750000, 11.178402 ] } }
{"year": "BC204",  "type": "Feature", "tippecanoe": { "layer": "7F5D7CD340801585559446460", "minzoom": 2, "maxzoom": 8 }, "properties": { "title": "阿努拉德普勒王国", "color": "#0056E7", "oid": "103:1585278512831", "tyid": "304000", "fontsize": 12, "halo": 1.8 }, "geometry": { "type": "Point", "coordinates": [ 80.683594, 7.623887 ] } }
{"year": "BC204",  "type": "Feature", "tippecanoe": { "layer": "7F5D7CD340801585559446460", "minzoom": 2, "maxzoom": 8 }, "properties": { "title": "塔施提克文化", "color": "#0056E7", "oid": "103:1585278512982", "tyid": "304002", "fontsize": 12, "halo": 1.6 }, "geometry": { "type": "Point", "coordinates": [ 90.000000, 54.418930 ] } }
{"year": "BC204",  "type": "Feature", "tippecanoe": { "layer": "7F5D7CD340801585559446460", "minzoom": 2, "maxzoom": 8 }, "properties": { "title": "蒲类国", "color": "#0056E7", "oid": "103:1585278512991", "tyid": "304000", "fontsize": 12, "halo": 1.8 }, "geometry": { "type": "Point", "coordinates": [ 92.109375, 44.087585 ] } }
{"year": "BC204",  "type": "Feature", "tippecanoe": { "layer": "7F5D7CD340801585559446460", "minzoom": 2, "maxzoom": 8 }, "properties": { "title": "乌桓", "color": "#0056E7", "oid": "103:1585278513054", "tyid": "304001", "fontsize": 12, "halo": 1.6 }, "geometry": { "type": "Point", "coordinates": [ 120.673828, 43.580391 ] } }
{"year": "BC204",  "type": "Feature", "tippecanoe": { "layer": "7F5D7CD340801585559446460", "minzoom": 2, "maxzoom": 8 }, "properties": { "title": "扶余", "color": "#0056E7", "oid": "103:1585278512701", "tyid": "304000", "fontsize": 12, "halo": 1.8 }, "geometry": { "type": "Point", "coordinates": [ 124.541016, 45.706179 ] } }
{"year": "BC204",  "type": "Feature", "tippecanoe": { "layer": "7F5D7CD340801585559446460", "minzoom": 2, "maxzoom": 8 }, "properties": { "title": "濊貊", "color": "#0056E7", "oid": "103:1585278512868", "tyid": "304001", "fontsize": 12, "halo": 1.6 }, "geometry": { "type": "Point", "coordinates": [ 126.650391, 41.640078 ] } }
{"year": "BC204",  "type": "Feature", "tippecanoe": { "layer": "7F5D7CD340801585559446460", "minzoom": 2, "maxzoom": 8 }, "properties": { "title": "巂", "color": "#0056E7", "oid": "103:1585278512855", "tyid": "304001", "fontsize": 12, "halo": 1.6 }, "geometry": { "type": "Point", "coordinates": [ 98.261719, 25.799891 ] } }
{"year": "BC204",  "type": "Feature", "tippecanoe": { "layer": "7F5D7CD340801585559446460", "minzoom": 2, "maxzoom": 8 }, "properties": { "title": "昆明", "color": "#0056E7", "oid": "103:1585278512530", "tyid": "304001", "fontsize": 12, "halo": 1.6 }, "geometry": { "type": "Point", "coordinates": [ 100.283203, 25.720735 ] } }
{"year": "BC204",  "type": "Feature", "tippecanoe": { "layer": "7F5D7CD340801585559446460", "minzoom": 2, "maxzoom": 8 }, "properties": { "title": "氐人", "color": "#0056E7", "oid": "103:1585278512821", "tyid": "304001", "fontsize": 12, "halo": 1.6 }, "geometry": { "type": "Point", "coordinates": [ 104.150391, 33.211116 ] } }
{"year": "BC204",  "type": "Feature", "tippecanoe": { "layer": "7F5D7CD340801585559446460", "minzoom": 2, "maxzoom": 8 }, "properties": { "title": "邛都", "color": "#0056E7", "oid": "103:1585278512860", "tyid": "304001", "fontsize": 12, "halo": 1.6 }, "geometry": { "type": "Point", "coordinates": [ 102.128906, 27.449790 ] } }
{"year": "BC204",  "type": "Feature", "tippecanoe": { "layer": "7F5D7CD340801585559446460", "minzoom": 2, "maxzoom": 8 }, "properties": { "title": "古僰人", "color": "#0056E7", "oid": "103:1585278512564", "tyid": "304001", "fontsize": 12, "halo": 1.6 }, "geometry": { "type": "Point", "coordinates": [ 103.974609, 28.149503 ] } }
{"year": "BC204",  "type": "Feature", "tippecanoe": { "layer": "7F5D7CD340801585559446460", "minzoom": 2, "maxzoom": 8 }, "properties": { "title": "滇国", "color": "#0056E7", "oid": "103:1585278512933", "tyid": "304000", "fontsize": 12, "halo": 1.8 }, "geometry": { "type": "Point", "coordinates": [ 102.128906, 25.244696 ] } }
{"year": "BC204",  "type": "Feature", "tippecanoe": { "layer": "7F5D7CD340801585559446460", "minzoom": 2, "maxzoom": 8 }, "properties": { "title": "夜郎", "color": "#0056E7", "oid": "103:1585278512736", "tyid": "304001", "fontsize": 12, "halo": 1.6 }, "geometry": { "type": "Point", "coordinates": [ 105.820312, 26.273714 ] } }
{"year": "BC204",  "type": "Feature", "tippecanoe": { "layer": "7F5D7CD340801585559446460", "minzoom": 2, "maxzoom": 8 }, "properties": { "title": "钩町", "color": "#0056E7", "oid": "103:1585278512830", "tyid": "304000", "fontsize": 12, "halo": 1.8 }, "geometry": { "type": "Point", "coordinates": [ 104.238281, 23.644524 ] } }
{"year": "BC204",  "type": "Feature", "tippecanoe": { "layer": "7F5D7CD340801585559446460", "minzoom": 2, "maxzoom": 8 }, "properties": { "title": "达雅瓦底王国", "color": "#0056E7", "oid": "103:1585278512634", "tyid": "304000", "fontsize": 12, "halo": 1.8 }, "geometry": { "type": "Point", "coordinates": [ 93.339844, 20.550509 ] } }
{"year": "BC204",  "type": "Feature", "tippecanoe": { "layer": "7F5D7CD340801585559446460", "minzoom": 2, "maxzoom": 8 }, "properties": { "title": "室利差呾罗王国", "color": "#0056E7", "oid": "103:1585278513064", "tyid": "304000", "fontsize": 12, "halo": 1.8 }, "geometry": { "type": "Point", "coordinates": [ 95.625000, 19.145168 ] } }
{"year": "BC204",  "type": "Feature", "tippecanoe": { "layer": "7F5D7CD340801585559446460", "minzoom": 2, "maxzoom": 8 }, "properties": { "title": "直通王国", "color": "#0056E7", "oid": "103:1585278512523", "tyid": "304000", "fontsize": 12, "halo": 1.8 }, "geometry": { "type": "Point", "coordinates": [ 96.152344, 17.392579 ] } }
{"year": "BC204",  "type": "Feature", "tippecanoe": { "layer": "7F5D7CD340801585559446460", "minzoom": 2, "maxzoom": 8 }, "properties": { "title": "班清文化", "color": "#0056E7", "oid": "103:1585278513020", "tyid": "304002", "fontsize": 12, "halo": 1.6 }, "geometry": { "type": "Point", "coordinates": [ 103.271484, 17.560247 ] } }
{"year": "BC204",  "type": "Feature", "tippecanoe": { "layer": "7F5D7CD340801585559446460", "minzoom": 2, "maxzoom": 8 }, "properties": { "title": "蓬斯尼文化", "color": "#0056E7", "oid": "103:1585278512848", "tyid": "304002", "fontsize": 12, "halo": 1.6 }, "geometry": { "type": "Point", "coordinates": [ 103.535156, 13.410994 ] } }
{"year": "BC204",  "type": "Feature", "tippecanoe": { "layer": "7F5D7CD340801585559446460", "minzoom": 2, "maxzoom": 8 }, "properties": { "title": "沙黄文化", "color": "#0056E7", "oid": "103:1585278512850", "tyid": "304002", "fontsize": 12, "halo": 1.6 }, "geometry": { "type": "Point", "coordinates": [ 108.369141, 11.264612 ] } }
{"year": "BC204",  "type": "Feature", "tippecanoe": { "layer": "7F5D7CD340801585559446460", "minzoom": 2, "maxzoom": 8 }, "properties": { "title": "同奈文化", "color": "#0056E7", "oid": "103:1585278513026", "tyid": "304002", "fontsize": 12, "halo": 1.6 }, "geometry": { "type": "Point", "coordinates": [ 105.468750, 10.055403 ] } }
{"year": "BC204",  "type": "Feature", "tippecanoe": { "layer": "7F5D7CD340801585559446460", "minzoom": 2, "maxzoom": 8 }, "properties": { "title": "尼格利陀人", "color": "#0056E7", "oid": "103:1585278512730", "tyid": "304001", "fontsize": 12, "halo": 1.6 }, "geometry": { "type": "Point", "coordinates": [ 101.953125, 4.740675 ] } }
{"year": "BC204",  "type": "Feature", "tippecanoe": { "layer": "7F5D7CD340801585559446460", "minzoom": 2, "maxzoom": 8 }, "properties": { "title": "齐", "color": "#0056E7", "oid": "103:1585278512974", "tyid": "304000", "fontsize": 12, "halo": 1.8 }, "geometry": { "type": "Point", "coordinates": [ 119.003906, 36.102376 ] } }
{"year": "BC204",  "type": "Feature", "tippecanoe": { "layer": "7F5D7CD340801585559446460", "minzoom": 2, "maxzoom": 8 }, "properties": { "title": "衡山", "color": "#0056E7", "oid": "103:1585278512987", "tyid": "304000", "fontsize": 12, "halo": 1.8 }, "geometry": { "type": "Point", "coordinates": [ 115.224609, 31.052934 ] } }
{"year": "BC204",  "type": "Feature", "tippecanoe": { "layer": "7F5D7CD340801585559446460", "minzoom": 2, "maxzoom": 8 }, "properties": { "title": "九江", "color": "#0056E7", "oid": "103:1585278512959", "tyid": "304000", "fontsize": 12, "halo": 1.8 }, "geometry": { "type": "Point", "coordinates": [ 116.279297, 28.844674 ] } }
{"year": "BC204",  "type": "Feature", "tippecanoe": { "layer": "7F5D7CD340801585559446460", "minzoom": 2, "maxzoom": 8 }, "properties": { "title": "闽越国", "color": "#0056E7", "oid": "103:1585278513052", "tyid": "304001", "fontsize": 12, "halo": 1.6 }, "geometry": { "type": "Point", "coordinates": [ 117.949219, 26.194877 ] } }
{"year": "BC204",  "type": "Feature", "tippecanoe": { "layer": "7F5D7CD340801585559446460", "minzoom": 2, "maxzoom": 8 }, "properties": { "title": "东瓯国", "color": "#0056E7", "oid": "103:1585278512901", "tyid": "304001", "fontsize": 12, "halo": 1.6 }, "geometry": { "type": "Point", "coordinates": [ 120.146484, 28.304381 ] } }
{"year": "BC204",  "type": "Feature", "tippecanoe": { "layer": "7F5D7CD340801585559446460", "minzoom": 2, "maxzoom": 8 }, "properties": { "title": "箕子朝鲜", "color": "#0056E7", "oid": "103:1585278512963", "tyid": "304000", "fontsize": 12, "halo": 1.8 }, "geometry": { "type": "Point", "coordinates": [ 126.914062, 38.479395 ] } }
{"year": "BC204",  "type": "Feature", "tippecanoe": { "layer": "7F5D7CD340801585559446460", "minzoom": 2, "maxzoom": 8 }, "properties": { "title": "辰国", "color": "#0056E7", "oid": "103:1585278512561", "tyid": "304000", "fontsize": 12, "halo": 1.8 }, "geometry": { "type": "Point", "coordinates": [ 127.792969, 36.031332 ] } }
{"year": "BC204",  "type": "Feature", "tippecanoe": { "layer": "7F5D7CD340801585559446460", "minzoom": 2, "maxzoom": 8 }, "properties": { "title": "绳文人", "color": "#0056E7", "oid": "103:1585278512761", "tyid": "304001", "fontsize": 12, "halo": 1.6 }, "geometry": { "type": "Point", "coordinates": [ 142.558594, 43.389082 ] } }
{"year": "BC204",  "type": "Feature", "tippecanoe": { "layer": "7F5D7CD340801585559446460", "minzoom": 2, "maxzoom": 8 }, "properties": { "title": "乌莱维文明", "color": "#0056E7", "oid": "103:1585278512849", "tyid": "304002", "fontsize": 12, "halo": 1.6 }, "geometry": { "type": "Point", "coordinates": [ 29.882812, -2.547988 ] } }
{"year": "BC204",  "type": "Feature", "tippecanoe": { "layer": "7F5D7CD340801585559446460", "minzoom": 2, "maxzoom": 8 }, "properties": { "title": "艾布兰文化五期", "color": "#0056E7", "oid": "103:1585278512734", "tyid": "304002", "fontsize": 12, "halo": 1.6 }, "geometry": { "type": "Point", "coordinates": [ 36.474609, -0.175781 ] } }
{"year": "BC204",  "type": "Feature", "tippecanoe": { "layer": "7F5D7CD340801585559446460", "minzoom": 2, "maxzoom": 8 }, "properties": { "title": "布尼文化", "color": "#0056E7", "oid": "103:1585278512888", "tyid": "304002", "fontsize": 12, "halo": 1.6 }, "geometry": { "type": "Point", "coordinates": [ 107.226562, -6.751896 ] } }
{"year": "BC204",  "type": "Feature", "tippecanoe": { "layer": "7F5D7CD340801585559446460", "minzoom": 2, "maxzoom": 8 }, "properties": { "title": "巴拉瓦人", "color": "#0056E7", "oid": "103:1585278512726", "tyid": "304001", "fontsize": 12, "halo": 1.6 }, "geometry": { "type": "Point", "coordinates": [ 146.513672, -41.967659 ] } }
{"year": "BC204",  "type": "Feature", "tippecanoe": { "layer": "7F5D7CD34BA81585559446457", "minzoom": 2, "maxzoom": 8 }, "properties": { "title": "古白令海文化", "color": "#262626", "oid": "103:1585278512769", "tyid": "304002", "fontsize": 12, "halo": 0.8 }, "geometry": { "type": "Point", "coordinates": [ -170.332031, 63.470145 ] } }
{"year": "BC204",  "type": "Feature", "tippecanoe": { "layer": "7F5D7CD34BA81585559446457", "minzoom": 2, "maxzoom": 8 }, "properties": { "title": "查普卡洛文化", "color": "#262626", "oid": "103:1585278512999", "tyid": "304002", "fontsize": 12, "halo": 0.8 }, "geometry": { "type": "Point", "coordinates": [ -99.931641, 20.303418 ] } }
{"year": "BC204",  "type": "Feature", "tippecanoe": { "layer": "7F5D7CD34BA81585559446457", "minzoom": 2, "maxzoom": 8 }, "properties": { "title": "米斯特克人", "color": "#262626", "oid": "103:1585278512557", "tyid": "304001", "fontsize": 12, "halo": 0.8 }, "geometry": { "type": "Point", "coordinates": [ -98.349609, 17.224758 ] } }
{"year": "BC204",  "type": "Feature", "tippecanoe": { "layer": "7F5D7CD34BA81585559446457", "minzoom": 2, "maxzoom": 8 }, "properties": { "title": "特里克人", "color": "#262626", "oid": "103:1585278512527", "tyid": "304001", "fontsize": 12, "halo": 0.8 }, "geometry": { "type": "Point", "coordinates": [ -97.294922, 17.644022 ] } }
{"year": "BC204",  "type": "Feature", "tippecanoe": { "layer": "7F5D7CD34BA81585559446457", "minzoom": 2, "maxzoom": 8 }, "properties": { "title": "麦克斯人", "color": "#262626", "oid": "103:1585278512856", "tyid": "304001", "fontsize": 12, "halo": 0.8 }, "geometry": { "type": "Point", "coordinates": [ -96.328125, 18.062312 ] } }
{"year": "BC204",  "type": "Feature", "tippecanoe": { "layer": "7F5D7CD34BA81585559446457", "minzoom": 2, "maxzoom": 8 }, "properties": { "title": "后奥尔梅克文化", "color": "#262626", "oid": "103:1585278512576", "tyid": "304002", "fontsize": 12, "halo": 0.8 }, "geometry": { "type": "Point", "coordinates": [ -95.625000, 18.479609 ] } }
{"year": "BC204",  "type": "Feature", "tippecanoe": { "layer": "7F5D7CD34BA81585559446457", "minzoom": 2, "maxzoom": 8 }, "properties": { "title": "祖赫人", "color": "#262626", "oid": "103:1585278512967", "tyid": "304001", "fontsize": 12, "halo": 0.8 }, "geometry": { "type": "Point", "coordinates": [ -92.109375, 16.045813 ] } }
{"year": "BC204",  "type": "Feature", "tippecanoe": { "layer": "7F5D7CD34BA81585559446457", "minzoom": 2, "maxzoom": 8 }, "properties": { "title": "基切人", "color": "#262626", "oid": "103:1585278512568", "tyid": "304001", "fontsize": 12, "halo": 0.8 }, "geometry": { "type": "Point", "coordinates": [ -90.966797, 15.029686 ] } }
{"year": "BC204",  "type": "Feature", "tippecanoe": { "layer": "7F5D7CD34BA81585559446457", "minzoom": 2, "maxzoom": 8 }, "properties": { "title": "阿尔托山文化", "color": "#262626", "oid": "103:1585278512792", "tyid": "304002", "fontsize": 12, "halo": 0.8 }, "geometry": { "type": "Point", "coordinates": [ -91.054688, 14.349548 ] } }
{"year": "BC204",  "type": "Feature", "tippecanoe": { "layer": "7F5D7CD34BA81585559446457", "minzoom": 2, "maxzoom": 8 }, "properties": { "title": "玛纳索塔文化", "color": "#262626", "oid": "103:1585278512928", "tyid": "304002", "fontsize": 12, "halo": 0.8 }, "geometry": { "type": "Point", "coordinates": [ -82.441406, 27.683528 ] } }
{"year": "BC204",  "type": "Feature", "tippecanoe": { "layer": "7F5D7CD34BA81585559446457", "minzoom": 2, "maxzoom": 8 }, "properties": { "title": "卡卢萨人", "color": "#262626", "oid": "103:1585278513043", "tyid": "304001", "fontsize": 12, "halo": 0.8 }, "geometry": { "type": "Point", "coordinates": [ -81.650391, 27.137368 ] } }
{"year": "BC204",  "type": "Feature", "tippecanoe": { "layer": "7F5D7CD34BA81585559446457", "minzoom": 2, "maxzoom": 8 }, "properties": { "title": "圣约翰文化", "color": "#262626", "oid": "103:1585278512587", "tyid": "304002", "fontsize": 12, "halo": 0.8 }, "geometry": { "type": "Point", "coordinates": [ -81.474609, 29.382175 ] } }
{"year": "BC204",  "type": "Feature", "tippecanoe": { "layer": "7F5D7CD34BA81585559446457", "minzoom": 2, "maxzoom": 8 }, "properties": { "title": "贝尔格莱德文化", "color": "#262626", "oid": "103:1585278512719", "tyid": "304002", "fontsize": 12, "halo": 0.8 }, "geometry": { "type": "Point", "coordinates": [ -80.859375, 27.449790 ] } }
{"year": "BC204",  "type": "Feature", "tippecanoe": { "layer": "7F5D7CD34BA81585559446457", "minzoom": 2, "maxzoom": 8 }, "properties": { "title": "格莱兹文化", "color": "#262626", "oid": "103:1585278512759", "tyid": "304002", "fontsize": 12, "halo": 0.8 }, "geometry": { "type": "Point", "coordinates": [ -80.771484, 26.037042 ] } }
{"year": "BC204",  "type": "Feature", "tippecanoe": { "layer": "7F5D7CD34BA81585559446457", "minzoom": 2, "maxzoom": 8 }, "properties": { "title": "德贵斯塔族", "color": "#262626", "oid": "103:1585278512535", "tyid": "304001", "fontsize": 12, "halo": 0.8 }, "geometry": { "type": "Point", "coordinates": [ -80.419922, 25.562265 ] } }
{"year": "BC204",  "type": "Feature", "tippecanoe": { "layer": "7F5D7CD34BA81585559446457", "minzoom": 2, "maxzoom": 8 }, "properties": { "title": "雷卡人", "color": "#262626", "oid": "103:1585278512770", "tyid": "304001", "fontsize": 12, "halo": 0.8 }, "geometry": { "type": "Point", "coordinates": [ -87.802734, 13.752725 ] } }
{"year": "BC204",  "type": "Feature", "tippecanoe": { "layer": "7F5D7CD34BA81585559446457", "minzoom": 2, "maxzoom": 8 }, "properties": { "title": "格兰科克勒文化", "color": "#262626", "oid": "103:1585278512750", "tyid": "304002", "fontsize": 12, "halo": 0.8 }, "geometry": { "type": "Point", "coordinates": [ -80.507812, 8.581021 ] } }
{"year": "BC204",  "type": "Feature", "tippecanoe": { "layer": "7F5D7CD34BA81585559446457", "minzoom": 2, "maxzoom": 8 }, "properties": { "title": "伊拉玛文化", "color": "#262626", "oid": "103:1585278513048", "tyid": "304002", "fontsize": 12, "halo": 0.8 }, "geometry": { "type": "Point", "coordinates": [ -76.201172, 4.302591 ] } }
{"year": "BC204",  "type": "Feature", "tippecanoe": { "layer": "7F5D7CD34BA81585559446457", "minzoom": 2, "maxzoom": 8 }, "properties": { "title": "马拉加纳文化", "color": "#262626", "oid": "103:1585278512574", "tyid": "304002", "fontsize": 12, "halo": 0.8 }, "geometry": { "type": "Point", "coordinates": [ -76.289062, 3.425692 ] } }
{"year": "BC204",  "type": "Feature", "tippecanoe": { "layer": "7F5D7CD34BA81585559446457", "minzoom": 2, "maxzoom": 8 }, "properties": { "title": "科罗索文化", "color": "#262626", "oid": "103:1585278512731", "tyid": "304002", "fontsize": 12, "halo": 0.8 }, "geometry": { "type": "Point", "coordinates": [ -66.533203, 18.229351 ] } }
{"year": "BC204",  "type": "Feature", "tippecanoe": { "layer": "7F5D7CD34BA81585559446457", "minzoom": 2, "maxzoom": 8 }, "properties": { "title": "大庄园文化", "color": "#262626", "oid": "103:1585278512546", "tyid": "304002", "fontsize": 12, "halo": 0.8 }, "geometry": { "type": "Point", "coordinates": [ -65.917969, 18.396230 ] } }
{"year": "BC204",  "type": "Feature", "tippecanoe": { "layer": "7F5D7CD34BA81585559446457", "minzoom": 2, "maxzoom": 8 }, "properties": { "title": "克鲁姆湾文化", "color": "#262626", "oid": "103:1585278512708", "tyid": "304002", "fontsize": 12, "halo": 0.8 }, "geometry": { "type": "Point", "coordinates": [ -64.775391, 17.811456 ] } }
{"year": "BC204",  "type": "Feature", "tippecanoe": { "layer": "7F5D7CD34BA81585559446457", "minzoom": 2, "maxzoom": 8 }, "properties": { "title": "萨拉杜文化", "color": "#262626", "oid": "103:1585278512834", "tyid": "304002", "fontsize": 12, "halo": 0.8 }, "geometry": { "type": "Point", "coordinates": [ -61.699219, 16.214675 ] } }
{"year": "BC204",  "type": "Feature", "tippecanoe": { "layer": "7F5D7CD34BA81585559446457", "minzoom": 2, "maxzoom": 8 }, "properties": { "title": "坎塔布里人", "color": "#262626", "oid": "103:1585278512937", "tyid": "304001", "fontsize": 12, "halo": 0.8 }, "geometry": { "type": "Point", "coordinates": [ -4.394531, 43.068888 ] } }
{"year": "BC204",  "type": "Feature", "tippecanoe": { "layer": "7F5D7CD34BA81585559446457", "minzoom": 2, "maxzoom": 8 }, "properties": { "title": "特罗莫吉人", "color": "#262626", "oid": "103:1585278512936", "tyid": "304001", "fontsize": 12, "halo": 0.8 }, "geometry": { "type": "Point", "coordinates": [ -3.691406, 42.228517 ] } }
{"year": "BC204",  "type": "Feature", "tippecanoe": { "layer": "7F5D7CD34BA81585559446457", "minzoom": 2, "maxzoom": 8 }, "properties": { "title": "奥特里冈人", "color": "#262626", "oid": "103:1585278512961", "tyid": "304001", "fontsize": 12, "halo": 0.8 }, "geometry": { "type": "Point", "coordinates": [ -3.251953, 42.875964 ] } }
{"year": "BC204",  "type": "Feature", "tippecanoe": { "layer": "7F5D7CD34BA81585559446457", "minzoom": 2, "maxzoom": 8 }, "properties": { "title": "卡斯蒂利人", "color": "#262626", "oid": "103:1585278512940", "tyid": "304001", "fontsize": 12, "halo": 0.8 }, "geometry": { "type": "Point", "coordinates": [ -2.812500, 43.068888 ] } }
{"year": "BC204",  "type": "Feature", "tippecanoe": { "layer": "7F5D7CD34BA81585559446457", "minzoom": 2, "maxzoom": 8 }, "properties": { "title": "瓦杜里人", "color": "#262626", "oid": "103:1585278512958", "tyid": "304001", "fontsize": 12, "halo": 0.8 }, "geometry": { "type": "Point", "coordinates": [ -2.285156, 42.940339 ] } }
{"year": "BC204",  "type": "Feature", "tippecanoe": { "layer": "7F5D7CD34BA81585559446457", "minzoom": 2, "maxzoom": 8 }, "properties": { "title": "伯罗内人", "color": "#262626", "oid": "103:1585278512942", "tyid": "304001", "fontsize": 12, "halo": 0.8 }, "geometry": { "type": "Point", "coordinates": [ -2.548828, 42.293564 ] } }
{"year": "BC204",  "type": "Feature", "tippecanoe": { "layer": "7F5D7CD34BA81585559446457", "minzoom": 2, "maxzoom": 8 }, "properties": { "title": "巴斯克人", "color": "#262626", "oid": "103:1585278512742", "tyid": "304001", "fontsize": 12, "halo": 0.8 }, "geometry": { "type": "Point", "coordinates": [ -1.494141, 42.811522 ] } }
{"year": "BC204",  "type": "Feature", "tippecanoe": { "layer": "7F5D7CD34BA81585559446457", "minzoom": 2, "maxzoom": 8 }, "properties": { "title": "伊塞塔尼人", "color": "#262626", "oid": "103:1585278512599", "tyid": "304001", "fontsize": 12, "halo": 0.8 }, "geometry": { "type": "Point", "coordinates": [ -1.054688, 42.293564 ] } }
{"year": "BC204",  "type": "Feature", "tippecanoe": { "layer": "7F5D7CD34BA81585559446457", "minzoom": 2, "maxzoom": 8 }, "properties": { "title": "关切人", "color": "#262626", "oid": "103:1585278512926", "tyid": "304001", "fontsize": 12, "halo": 0.8 }, "geometry": { "type": "Point", "coordinates": [ -16.611328, 28.304381 ] } }
{"year": "BC204",  "type": "Feature", "tippecanoe": { "layer": "7F5D7CD34BA81585559446457", "minzoom": 2, "maxzoom": 8 }, "properties": { "title": "图尔杜利奥皮迪尼人", "color": "#262626", "oid": "103:1585278512997", "tyid": "304001", "fontsize": 12, "halo": 0.8 }, "geometry": { "type": "Point", "coordinates": [ -8.789062, 39.909736 ] } }
{"year": "BC204",  "type": "Feature", "tippecanoe": { "layer": "7F5D7CD34BA81585559446457", "minzoom": 2, "maxzoom": 8 }, "properties": { "title": "西尼特人", "color": "#262626", "oid": "103:1585278512827", "tyid": "304001", "fontsize": 12, "halo": 0.8 }, "geometry": { "type": "Point", "coordinates": [ -7.998047, 37.649034 ] } }
{"year": "BC204",  "type": "Feature", "tippecanoe": { "layer": "7F5D7CD34BA81585559446457", "minzoom": 2, "maxzoom": 8 }, "properties": { "title": "图尔德泰尼人", "color": "#262626", "oid": "103:1585278512996", "tyid": "304001", "fontsize": 12, "halo": 0.8 }, "geometry": { "type": "Point", "coordinates": [ -5.449219, 38.203655 ] } }
{"year": "BC204",  "type": "Feature", "tippecanoe": { "layer": "7F5D7CD34BA81585559446457", "minzoom": 2, "maxzoom": 8 }, "properties": { "title": "奥雷塔尼人", "color": "#262626", "oid": "103:1585278512644", "tyid": "304001", "fontsize": 12, "halo": 0.8 }, "geometry": { "type": "Point", "coordinates": [ -3.339844, 38.754083 ] } }
{"year": "BC204",  "type": "Feature", "tippecanoe": { "layer": "7F5D7CD34BA81585559446457", "minzoom": 2, "maxzoom": 8 }, "properties": { "title": "埃德塔尼人", "color": "#262626", "oid": "103:1585278513047", "tyid": "304001", "fontsize": 12, "halo": 0.8 }, "geometry": { "type": "Point", "coordinates": [ -1.757812, 39.436193 ] } }
{"year": "BC204",  "type": "Feature", "tippecanoe": { "layer": "7F5D7CD34BA81585559446457", "minzoom": 2, "maxzoom": 8 }, "properties": { "title": "巴斯塔尼人", "color": "#262626", "oid": "103:1585278513045", "tyid": "304001", "fontsize": 12, "halo": 0.8 }, "geometry": { "type": "Point", "coordinates": [ -1.933594, 38.891033 ] } }
{"year": "BC204",  "type": "Feature", "tippecanoe": { "layer": "7F5D7CD34BA81585559446457", "minzoom": 2, "maxzoom": 8 }, "properties": { "title": "瓜纳加拉文化", "color": "#262626", "oid": "103:1585278512953", "tyid": "304002", "fontsize": 12, "halo": 0.8 }, "geometry": { "type": "Point", "coordinates": [ -80.595703, -1.669686 ] } }
{"year": "BC204",  "type": "Feature", "tippecanoe": { "layer": "7F5D7CD34BA81585559446457", "minzoom": 2, "maxzoom": 8 }, "properties": { "title": "巴伊亚文化", "color": "#262626", "oid": "103:1585278513011", "tyid": "304002", "fontsize": 12, "halo": 0.8 }, "geometry": { "type": "Point", "coordinates": [ -80.068359, -0.527336 ] } }
{"year": "BC204",  "type": "Feature", "tippecanoe": { "layer": "7F5D7CD34BA81585559446457", "minzoom": 2, "maxzoom": 8 }, "properties": { "title": "查文文化", "color": "#262626", "oid": "103:1585278512641", "tyid": "304002", "fontsize": 12, "halo": 0.8 }, "geometry": { "type": "Point", "coordinates": [ -77.958984, -8.320212 ] } }
{"year": "BC204",  "type": "Feature", "tippecanoe": { "layer": "7F5D7CD34BA81585559446457", "minzoom": 2, "maxzoom": 8 }, "properties": { "title": "卡斯马-赛钦文化", "color": "#262626", "oid": "103:1585278512977", "tyid": "304002", "fontsize": 12, "halo": 0.8 }, "geometry": { "type": "Point", "coordinates": [ -77.958984, -9.622414 ] } }
{"year": "BC204",  "type": "Feature", "tippecanoe": { "layer": "7F5D7CD34BA81585559446457", "minzoom": 2, "maxzoom": 8 }, "properties": { "title": "帕拉卡斯文化", "color": "#262626", "oid": "103:1585278512969", "tyid": "304002", "fontsize": 12, "halo": 0.8 }, "geometry": { "type": "Point", "coordinates": [ -75.673828, -14.179186 ] } }
{"year": "BC204",  "type": "Feature", "tippecanoe": { "layer": "7F5D7CD34BA81585559446457", "minzoom": 2, "maxzoom": 8 }, "properties": { "title": "塔夫文化", "color": "#262626", "oid": "103:1585278512487", "tyid": "304002", "fontsize": 12, "halo": 0.8 }, "geometry": { "type": "Point", "coordinates": [ -65.654297, -26.980829 ] } }
{"year": "BC204",  "type": "Feature", "tippecanoe": { "layer": "7F5D7CD34BA81585559446457", "minzoom": 2, "maxzoom": 8 }, "properties": { "title": "豪什人", "color": "#262626", "oid": "103:1585278512887", "tyid": "304001", "fontsize": 12, "halo": 0.8 }, "geometry": { "type": "Point", "coordinates": [ -65.917969, -54.724620 ] } }
{"year": "BC204",  "type": "Feature", "tippecanoe": { "layer": "7F5D7CD34BA81585559446457", "minzoom": 2, "maxzoom": 8 }, "properties": { "title": "阿洛布罗基人", "color": "#262626", "oid": "103:1585278512805", "tyid": "304001", "fontsize": 12, "halo": 0.8 }, "geometry": { "type": "Point", "coordinates": [ 5.537109, 45.706179 ] } }
{"year": "BC204",  "type": "Feature", "tippecanoe": { "layer": "7F5D7CD34BA81585559446457", "minzoom": 2, "maxzoom": 8 }, "properties": { "title": "伊勒格泰人", "color": "#262626", "oid": "103:1585278512529", "tyid": "304001", "fontsize": 12, "halo": 0.8 }, "geometry": { "type": "Point", "coordinates": [ 0.527344, 42.682435 ] } }
{"year": "BC204",  "type": "Feature", "tippecanoe": { "layer": "7F5D7CD34BA81585559446457", "minzoom": 2, "maxzoom": 8 }, "properties": { "title": "英迪格人", "color": "#262626", "oid": "103:1585278512707", "tyid": "304001", "fontsize": 12, "halo": 0.8 }, "geometry": { "type": "Point", "coordinates": [ 2.548828, 42.617791 ] } }
{"year": "BC204",  "type": "Feature", "tippecanoe": { "layer": "7F5D7CD34BA81585559446457", "minzoom": 2, "maxzoom": 8 }, "properties": { "title": "马萨利亚", "color": "#202020", "oid": "103:1585278512923", "tyid": "304000", "fontsize": 12, "halo": 0.8 }, "geometry": { "type": "Point", "coordinates": [ 5.449219, 43.325178 ] } }
{"year": "BC204",  "type": "Feature", "tippecanoe": { "layer": "7F5D7CD34BA81585559446457", "minzoom": 2, "maxzoom": 8 }, "properties": { "title": "帕莱波利斯", "color": "#202020", "oid": "103:1585278513053", "tyid": "304000", "fontsize": 12, "halo": 0.8 }, "geometry": { "type": "Point", "coordinates": [ 3.076172, 42.163403 ] } }
{"year": "BC204",  "type": "Feature", "tippecanoe": { "layer": "7F5D7CD34BA81585559446457", "minzoom": 2, "maxzoom": 8 }, "properties": { "title": "萨拉西人", "color": "#262626", "oid": "103:1585278512908", "tyid": "304001", "fontsize": 12, "halo": 0.8 }, "geometry": { "type": "Point", "coordinates": [ 6.943359, 45.521744 ] } }
{"year": "BC204",  "type": "Feature", "tippecanoe": { "layer": "7F5D7CD34BA81585559446457", "minzoom": 2, "maxzoom": 8 }, "properties": { "title": "西杜里人", "color": "#262626", "oid": "103:1585278512906", "tyid": "304001", "fontsize": 12, "halo": 0.8 }, "geometry": { "type": "Point", "coordinates": [ 7.470703, 46.195042 ] } }
{"year": "BC204",  "type": "Feature", "tippecanoe": { "layer": "7F5D7CD34BA81585559446457", "minzoom": 2, "maxzoom": 8 }, "properties": { "title": "勒庞提人", "color": "#262626", "oid": "103:1585278512630", "tyid": "304001", "fontsize": 12, "halo": 0.8 }, "geometry": { "type": "Point", "coordinates": [ 8.437500, 46.134170 ] } }
{"year": "BC204",  "type": "Feature", "tippecanoe": { "layer": "7F5D7CD34BA81585559446457", "minzoom": 2, "maxzoom": 8 }, "properties": { "title": "卡莫尼卡人", "color": "#262626", "oid": "103:1585278512493", "tyid": "304001", "fontsize": 12, "halo": 0.8 }, "geometry": { "type": "Point", "coordinates": [ 10.195312, 46.012224 ] } }
{"year": "BC204",  "type": "Feature", "tippecanoe": { "layer": "7F5D7CD34BA81585559446457", "minzoom": 2, "maxzoom": 8 }, "properties": { "title": "摩诺伊科", "color": "#202020", "oid": "103:1585278512683", "tyid": "304000", "fontsize": 12, "halo": 0.8 }, "geometry": { "type": "Point", "coordinates": [ 7.382812, 43.771094 ] } }
{"year": "BC204",  "type": "Feature", "tippecanoe": { "layer": "7F5D7CD34BA81585559446457", "minzoom": 2, "maxzoom": 8 }, "properties": { "title": "威尼蒂人[亚得里亚海]", "color": "#262626", "oid": "103:1585278512494", "tyid": "304001", "fontsize": 12, "halo": 0.8 }, "geometry": { "type": "Point", "coordinates": [ 12.216797, 46.012224 ] } }
{"year": "BC204",  "type": "Feature", "tippecanoe": { "layer": "7F5D7CD34BA81585559446457", "minzoom": 2, "maxzoom": 8 }, "properties": { "title": "皮斯特罗斯", "color": "#202020", "oid": "103:1585278513022", "tyid": "304000", "fontsize": 12, "halo": 0.8 }, "geometry": { "type": "Point", "coordinates": [ 23.994141, 42.293564 ] } }
{"year": "BC204",  "type": "Feature", "tippecanoe": { "layer": "7F5D7CD34BA81585559446457", "minzoom": 2, "maxzoom": 8 }, "properties": { "title": "奥德索斯", "color": "#202020", "oid": "103:1585278512922", "tyid": "304000", "fontsize": 12, "halo": 0.8 }, "geometry": { "type": "Point", "coordinates": [ 27.861328, 43.261206 ] } }
{"year": "BC204",  "type": "Feature", "tippecanoe": { "layer": "7F5D7CD34BA81585559446457", "minzoom": 2, "maxzoom": 8 }, "properties": { "title": "安恰罗斯", "color": "#202020", "oid": "103:1585278512798", "tyid": "304000", "fontsize": 12, "halo": 0.8 }, "geometry": { "type": "Point", "coordinates": [ 27.509766, 42.617791 ] } }
{"year": "BC204",  "type": "Feature", "tippecanoe": { "layer": "7F5D7CD34BA81585559446457", "minzoom": 2, "maxzoom": 8 }, "properties": { "title": "梅森布里亚", "color": "#202020", "oid": "103:1585278513015", "tyid": "304000", "fontsize": 12, "halo": 0.8 }, "geometry": { "type": "Point", "coordinates": [ 27.597656, 42.682435 ] } }
{"year": "BC204",  "type": "Feature", "tippecanoe": { "layer": "7F5D7CD34BA81585559446457", "minzoom": 2, "maxzoom": 8 }, "properties": { "title": "阿波罗尼亚·潘提卡", "color": "#202020", "oid": "103:1585278513016", "tyid": "304000", "fontsize": 12, "halo": 0.8 }, "geometry": { "type": "Point", "coordinates": [ 27.597656, 42.423457 ] } }
{"year": "BC204",  "type": "Feature", "tippecanoe": { "layer": "7F5D7CD34BA81585559446457", "minzoom": 2, "maxzoom": 8 }, "properties": { "title": "提拉斯", "color": "#202020", "oid": "103:1585278512807", "tyid": "304000", "fontsize": 12, "halo": 0.8 }, "geometry": { "type": "Point", "coordinates": [ 30.234375, 46.134170 ] } }
{"year": "BC204",  "type": "Feature", "tippecanoe": { "layer": "7F5D7CD34BA81585559446457", "minzoom": 2, "maxzoom": 8 }, "properties": { "title": "奥里维亚", "color": "#262626", "oid": "103:1585278512695", "tyid": "304002", "fontsize": 12, "halo": 0.8 }, "geometry": { "type": "Point", "coordinates": [ 31.816406, 46.679594 ] } }
{"year": "BC204",  "type": "Feature", "tippecanoe": { "layer": "7F5D7CD34BA81585559446457", "minzoom": 2, "maxzoom": 8 }, "properties": { "title": "克尔柯特", "color": "#202020", "oid": "103:1585278513013", "tyid": "304000", "fontsize": 12, "halo": 0.8 }, "geometry": { "type": "Point", "coordinates": [ 33.398438, 45.274886 ] } }
{"year": "BC204",  "type": "Feature", "tippecanoe": { "layer": "7F5D7CD34BA81585559446457", "minzoom": 2, "maxzoom": 8 }, "properties": { "title": "希斯特里亚", "color": "#202020", "oid": "103:1585278513017", "tyid": "304000", "fontsize": 12, "halo": 0.8 }, "geometry": { "type": "Point", "coordinates": [ 28.652344, 44.590467 ] } }
{"year": "BC204",  "type": "Feature", "tippecanoe": { "layer": "7F5D7CD34BA81585559446457", "minzoom": 2, "maxzoom": 8 }, "properties": { "title": "托米斯", "color": "#202020", "oid": "103:1585278513021", "tyid": "304000", "fontsize": 12, "halo": 0.8 }, "geometry": { "type": "Point", "coordinates": [ 28.476562, 44.213710 ] } }
{"year": "BC204",  "type": "Feature", "tippecanoe": { "layer": "7F5D7CD34BA81585559446457", "minzoom": 2, "maxzoom": 8 }, "properties": { "title": "埃吉索斯", "color": "#202020", "oid": "103:1585278512921", "tyid": "304000", "fontsize": 12, "halo": 0.8 }, "geometry": { "type": "Point", "coordinates": [ 29.355469, 45.026950 ] } }
{"year": "BC204",  "type": "Feature", "tippecanoe": { "layer": "7F5D7CD34BA81585559446457", "minzoom": 2, "maxzoom": 8 }, "properties": { "title": "卡拉提斯", "color": "#202020", "oid": "103:1585278512522", "tyid": "304000", "fontsize": 12, "halo": 0.8 }, "geometry": { "type": "Point", "coordinates": [ 28.564453, 43.834527 ] } }
{"year": "BC204",  "type": "Feature", "tippecanoe": { "layer": "7F5D7CD34BA81585559446457", "minzoom": 2, "maxzoom": 8 }, "properties": { "title": "迪奥尼索波利斯", "color": "#202020", "oid": "103:1585278512704", "tyid": "304000", "fontsize": 12, "halo": 0.8 }, "geometry": { "type": "Point", "coordinates": [ 28.125000, 43.452919 ] } }
{"year": "BC204",  "type": "Feature", "tippecanoe": { "layer": "7F5D7CD34BA81585559446457", "minzoom": 2, "maxzoom": 8 }, "properties": { "title": "拜佐恩", "color": "#202020", "oid": "103:1585278513012", "tyid": "304000", "fontsize": 12, "halo": 0.8 }, "geometry": { "type": "Point", "coordinates": [ 28.300781, 43.452919 ] } }
{"year": "BC204",  "type": "Feature", "tippecanoe": { "layer": "7F5D7CD34BA81585559446457", "minzoom": 2, "maxzoom": 8 }, "properties": { "title": "拜占庭", "color": "#202020", "oid": "103:1585278512811", "tyid": "304000", "fontsize": 12, "halo": 0.8 }, "geometry": { "type": "Point", "coordinates": [ 28.740234, 41.178654 ] } }
{"year": "BC204",  "type": "Feature", "tippecanoe": { "layer": "7F5D7CD34BA81585559446457", "minzoom": 2, "maxzoom": 8 }, "properties": { "title": "克森尼索", "color": "#202020", "oid": "103:1585278512661", "tyid": "304000", "fontsize": 12, "halo": 0.8 }, "geometry": { "type": "Point", "coordinates": [ 33.750000, 44.590467 ] } }
{"year": "BC204",  "type": "Feature", "tippecanoe": { "layer": "7F5D7CD34BA81585559446457", "minzoom": 2, "maxzoom": 8 }, "properties": { "title": "杜林人", "color": "#262626", "oid": "103:1585278512659", "tyid": "304001", "fontsize": 12, "halo": 0.8 }, "geometry": { "type": "Point", "coordinates": [ 34.541016, 44.964798 ] } }
{"year": "BC204",  "type": "Feature", "tippecanoe": { "layer": "7F5D7CD34BA81585559446457", "minzoom": 2, "maxzoom": 8 }, "properties": { "title": "博斯普鲁斯王国", "color": "#202020", "oid": "103:1585278512559", "tyid": "304000", "fontsize": 12, "halo": 0.8 }, "geometry": { "type": "Point", "coordinates": [ 37.441406, 45.026950 ] } }
{"year": "BC204",  "type": "Feature", "tippecanoe": { "layer": "7F5D7CD34BA81585559446457", "minzoom": 2, "maxzoom": 8 }, "properties": { "title": "辛迪人", "color": "#262626", "oid": "103:1585278513036", "tyid": "304001", "fontsize": 12, "halo": 0.8 }, "geometry": { "type": "Point", "coordinates": [ 38.759766, 44.715514 ] } }
{"year": "BC204",  "type": "Feature", "tippecanoe": { "layer": "7F5D7CD34BA81585559446457", "minzoom": 2, "maxzoom": 8 }, "properties": { "title": "庞蒂克希腊人", "color": "#262626", "oid": "103:1585278512649", "tyid": "304001", "fontsize": 12, "halo": 0.8 }, "geometry": { "type": "Point", "coordinates": [ 39.287109, 41.046217 ] } }
{"year": "BC204",  "type": "Feature", "tippecanoe": { "layer": "7F5D7CD34BA81585559446457", "minzoom": 2, "maxzoom": 8 }, "properties": { "title": "特里格莱特", "color": "#202020", "oid": "103:1585278512685", "tyid": "304000", "fontsize": 12, "halo": 0.8 }, "geometry": { "type": "Point", "coordinates": [ 40.253906, 43.261206 ] } }
{"year": "BC204",  "type": "Feature", "tippecanoe": { "layer": "7F5D7CD34BA81585559446457", "minzoom": 2, "maxzoom": 8 }, "properties": { "title": "狄奥斯库里亚", "color": "#202020", "oid": "103:1585278512654", "tyid": "304000", "fontsize": 12, "halo": 0.8 }, "geometry": { "type": "Point", "coordinates": [ 40.957031, 43.068888 ] } }
{"year": "BC204",  "type": "Feature", "tippecanoe": { "layer": "7F5D7CD34BA81585559446457", "minzoom": 2, "maxzoom": 8 }, "properties": { "title": "费西斯", "color": "#202020", "oid": "103:1585278512808", "tyid": "304000", "fontsize": 12, "halo": 0.8 }, "geometry": { "type": "Point", "coordinates": [ 41.660156, 42.163403 ] } }
{"year": "BC204",  "type": "Feature", "tippecanoe": { "layer": "7F5D7CD34BA81585559446457", "minzoom": 2, "maxzoom": 8 }, "properties": { "title": "巴斯", "color": "#202020", "oid": "103:1585278512801", "tyid": "304000", "fontsize": 12, "halo": 0.8 }, "geometry": { "type": "Point", "coordinates": [ 41.660156, 41.640078 ] } }
{"year": "BC204",  "type": "Feature", "tippecanoe": { "layer": "7F5D7CD34BA81585559446457", "minzoom": 2, "maxzoom": 8 }, "properties": { "title": "阿卡尔纳尼亚同盟", "color": "#202020", "oid": "103:1585278512802", "tyid": "304000", "fontsize": 12, "halo": 0.8 }, "geometry": { "type": "Point", "coordinates": [ 20.917969, 38.754083 ] } }
{"year": "BC204",  "type": "Feature", "tippecanoe": { "layer": "7F5D7CD34BA81585559446457", "minzoom": 2, "maxzoom": 8 }, "properties": { "title": "厄利斯", "color": "#202020", "oid": "103:1585278512680", "tyid": "304000", "fontsize": 12, "halo": 0.8 }, "geometry": { "type": "Point", "coordinates": [ 21.445312, 37.788081 ] } }
{"year": "BC204",  "type": "Feature", "tippecanoe": { "layer": "7F5D7CD34BA81585559446457", "minzoom": 2, "maxzoom": 8 }, "properties": { "title": "埃托利亚同盟", "color": "#202020", "oid": "103:1585278512602", "tyid": "304000", "fontsize": 12, "halo": 0.8 }, "geometry": { "type": "Point", "coordinates": [ 21.796875, 38.754083 ] } }
{"year": "BC204",  "type": "Feature", "tippecanoe": { "layer": "7F5D7CD34BA81585559446457", "minzoom": 2, "maxzoom": 8 }, "properties": { "title": "阿凯亚同盟", "color": "#202020", "oid": "103:1585278512651", "tyid": "304000", "fontsize": 12, "halo": 0.8 }, "geometry": { "type": "Point", "coordinates": [ 22.324219, 37.788081 ] } }
{"year": "BC204",  "type": "Feature", "tippecanoe": { "layer": "7F5D7CD34BA81585559446457", "minzoom": 2, "maxzoom": 8 }, "properties": { "title": "古美西尼", "color": "#202020", "oid": "103:1585278512912", "tyid": "304000", "fontsize": 12, "halo": 0.8 }, "geometry": { "type": "Point", "coordinates": [ 21.796875, 37.160317 ] } }
{"year": "BC204",  "type": "Feature", "tippecanoe": { "layer": "7F5D7CD34BA81585559446457", "minzoom": 2, "maxzoom": 8 }, "properties": { "title": "彼奥提亚同盟", "color": "#202020", "oid": "103:1585278512782", "tyid": "304000", "fontsize": 12, "halo": 0.8 }, "geometry": { "type": "Point", "coordinates": [ 23.115234, 38.410558 ] } }
{"year": "BC204",  "type": "Feature", "tippecanoe": { "layer": "7F5D7CD34BA81585559446457", "minzoom": 2, "maxzoom": 8 }, "properties": { "title": "优卑亚同盟", "color": "#202020", "oid": "103:1585278512774", "tyid": "304000", "fontsize": 12, "halo": 0.8 }, "geometry": { "type": "Point", "coordinates": [ 23.730469, 38.616870 ] } }
{"year": "BC204",  "type": "Feature", "tippecanoe": { "layer": "7F5D7CD34BA81585559446457", "minzoom": 2, "maxzoom": 8 }, "properties": { "title": "斯巴达", "color": "#202020", "oid": "103:1585278512604", "tyid": "304000", "fontsize": 12, "halo": 0.8 }, "geometry": { "type": "Point", "coordinates": [ 22.587891, 37.020098 ] } }
{"year": "BC204",  "type": "Feature", "tippecanoe": { "layer": "7F5D7CD34BA81585559446457", "minzoom": 2, "maxzoom": 8 }, "properties": { "title": "帕加马王国", "color": "#202020", "oid": "103:1585278512573", "tyid": "304000", "fontsize": 12, "halo": 0.8 }, "geometry": { "type": "Point", "coordinates": [ 27.246094, 39.436193 ] } }
{"year": "BC204",  "type": "Feature", "tippecanoe": { "layer": "7F5D7CD34BA81585559446457", "minzoom": 2, "maxzoom": 8 }, "properties": { "title": "克里特", "color": "#202020", "oid": "103:1585278512914", "tyid": "304000", "fontsize": 12, "halo": 0.8 }, "geometry": { "type": "Point", "coordinates": [ 24.785156, 35.245619 ] } }
{"year": "BC204",  "type": "Feature", "tippecanoe": { "layer": "7F5D7CD34BA81585559446457", "minzoom": 2, "maxzoom": 8 }, "properties": { "title": "罗德斯国", "color": "#202020", "oid": "103:1585278512781", "tyid": "304000", "fontsize": 12, "halo": 0.8 }, "geometry": { "type": "Point", "coordinates": [ 27.949219, 36.244273 ] } }
{"year": "BC204",  "type": "Feature", "tippecanoe": { "layer": "7F5D7CD34BA81585559446457", "minzoom": 2, "maxzoom": 8 }, "properties": { "title": "以东王国", "color": "#202020", "oid": "103:1585278512755", "tyid": "304000", "fontsize": 12, "halo": 0.8 }, "geometry": { "type": "Point", "coordinates": [ 35.595703, 30.751278 ] } }
{"year": "BC204",  "type": "Feature", "tippecanoe": { "layer": "7F5D7CD34BA81585559446457", "minzoom": 2, "maxzoom": 8 }, "properties": { "title": "列兹金人", "color": "#262626", "oid": "103:1585278512665", "tyid": "304001", "fontsize": 12, "halo": 0.8 }, "geometry": { "type": "Point", "coordinates": [ 47.636719, 41.640078 ] } }
{"year": "BC204",  "type": "Feature", "tippecanoe": { "layer": "7F5D7CD34BA81585559446457", "minzoom": 2, "maxzoom": 8 }, "properties": { "title": "温宿国", "color": "#202020", "oid": "103:1585278512620", "tyid": "304000", "fontsize": 12, "halo": 0.8 }, "geometry": { "type": "Point", "coordinates": [ 79.277344, 41.310824 ] } }
{"year": "BC204",  "type": "Feature", "tippecanoe": { "layer": "7F5D7CD34BA81585559446457", "minzoom": 2, "maxzoom": 8 }, "properties": { "title": "乌贪訾离国", "color": "#202020", "oid": "103:1585278512533", "tyid": "304000", "fontsize": 12, "halo": 0.8 }, "geometry": { "type": "Point", "coordinates": [ 86.748047, 44.465151 ] } }
{"year": "BC204",  "type": "Feature", "tippecanoe": { "layer": "7F5D7CD34BA81585559446457", "minzoom": 2, "maxzoom": 8 }, "properties": { "title": "西且弥国", "color": "#202020", "oid": "103:1585278512846", "tyid": "304000", "fontsize": 12, "halo": 0.8 }, "geometry": { "type": "Point", "coordinates": [ 86.220703, 43.834527 ] } }
{"year": "BC204",  "type": "Feature", "tippecanoe": { "layer": "7F5D7CD34BA81585559446457", "minzoom": 2, "maxzoom": 8 }, "properties": { "title": "东且弥国", "color": "#202020", "oid": "103:1585278512941", "tyid": "304000", "fontsize": 12, "halo": 0.8 }, "geometry": { "type": "Point", "coordinates": [ 86.923828, 43.707594 ] } }
{"year": "BC204",  "type": "Feature", "tippecanoe": { "layer": "7F5D7CD34BA81585559446457", "minzoom": 2, "maxzoom": 8 }, "properties": { "title": "仑头国", "color": "#202020", "oid": "103:1585278513025", "tyid": "304000", "fontsize": 12, "halo": 0.8 }, "geometry": { "type": "Point", "coordinates": [ 84.638672, 41.244772 ] } }
{"year": "BC204",  "type": "Feature", "tippecanoe": { "layer": "7F5D7CD34BA81585559446457", "minzoom": 2, "maxzoom": 8 }, "properties": { "title": "焉耆国", "color": "#202020", "oid": "103:1585278512929", "tyid": "304000", "fontsize": 12, "halo": 0.8 }, "geometry": { "type": "Point", "coordinates": [ 85.957031, 41.902277 ] } }
{"year": "BC204",  "type": "Feature", "tippecanoe": { "layer": "7F5D7CD34BA81585559446457", "minzoom": 2, "maxzoom": 8 }, "properties": { "title": "劫国", "color": "#202020", "oid": "103:1585278512614", "tyid": "304000", "fontsize": 12, "halo": 0.8 }, "geometry": { "type": "Point", "coordinates": [ 87.802734, 44.150681 ] } }
{"year": "BC204",  "type": "Feature", "tippecanoe": { "layer": "7F5D7CD34BA81585559446457", "minzoom": 2, "maxzoom": 8 }, "properties": { "title": "卑陆后国", "color": "#202020", "oid": "103:1585278512752", "tyid": "304000", "fontsize": 12, "halo": 0.8 }, "geometry": { "type": "Point", "coordinates": [ 88.154297, 44.276671 ] } }
{"year": "BC204",  "type": "Feature", "tippecanoe": { "layer": "7F5D7CD34BA81585559446457", "minzoom": 2, "maxzoom": 8 }, "properties": { "title": "单桓国", "color": "#202020", "oid": "103:1585278512612", "tyid": "304000", "fontsize": 12, "halo": 0.8 }, "geometry": { "type": "Point", "coordinates": [ 87.539062, 44.024422 ] } }
{"year": "BC204",  "type": "Feature", "tippecanoe": { "layer": "7F5D7CD34BA81585559446457", "minzoom": 2, "maxzoom": 8 }, "properties": { "title": "卑陆国", "color": "#202020", "oid": "103:1585278512611", "tyid": "304000", "fontsize": 12, "halo": 0.8 }, "geometry": { "type": "Point", "coordinates": [ 88.066406, 43.961191 ] } }
{"year": "BC204",  "type": "Feature", "tippecanoe": { "layer": "7F5D7CD34BA81585559446457", "minzoom": 2, "maxzoom": 8 }, "properties": { "title": "孤胡国", "color": "#202020", "oid": "103:1585278512829", "tyid": "304000", "fontsize": 12, "halo": 0.8 }, "geometry": { "type": "Point", "coordinates": [ 87.978516, 43.389082 ] } }
{"year": "BC204",  "type": "Feature", "tippecanoe": { "layer": "7F5D7CD34BA81585559446457", "minzoom": 2, "maxzoom": 8 }, "properties": { "title": "卡塔班王国", "color": "#202020", "oid": "103:1585278512693", "tyid": "304000", "fontsize": 12, "halo": 0.8 }, "geometry": { "type": "Point", "coordinates": [ 45.791016, 14.859850 ] } }
{"year": "BC204",  "type": "Feature", "tippecanoe": { "layer": "7F5D7CD34BA81585559446457", "minzoom": 2, "maxzoom": 8 }, "properties": { "title": "难兜国", "color": "#202020", "oid": "103:1585278513023", "tyid": "304000", "fontsize": 12, "halo": 0.8 }, "geometry": { "type": "Point", "coordinates": [ 74.091797, 36.949892 ] } }
{"year": "BC204",  "type": "Feature", "tippecanoe": { "layer": "7F5D7CD34BA81585559446457", "minzoom": 2, "maxzoom": 8 }, "properties": { "title": "依耐国", "color": "#202020", "oid": "103:1585278512610", "tyid": "304000", "fontsize": 12, "halo": 0.8 }, "geometry": { "type": "Point", "coordinates": [ 75.849609, 38.616870 ] } }
{"year": "BC204",  "type": "Feature", "tippecanoe": { "layer": "7F5D7CD34BA81585559446457", "minzoom": 2, "maxzoom": 8 }, "properties": { "title": "蒲犁国", "color": "#202020", "oid": "103:1585278512768", "tyid": "304000", "fontsize": 12, "halo": 0.8 }, "geometry": { "type": "Point", "coordinates": [ 75.146484, 37.718590 ] } }
{"year": "BC204",  "type": "Feature", "tippecanoe": { "layer": "7F5D7CD34BA81585559446457", "minzoom": 2, "maxzoom": 8 }, "properties": { "title": "疏勒国", "color": "#202020", "oid": "103:1585278512636", "tyid": "304000", "fontsize": 12, "halo": 0.8 }, "geometry": { "type": "Point", "coordinates": [ 76.289062, 39.504041 ] } }
{"year": "BC204",  "type": "Feature", "tippecanoe": { "layer": "7F5D7CD34BA81585559446457", "minzoom": 2, "maxzoom": 8 }, "properties": { "title": "子合国", "color": "#202020", "oid": "103:1585278512785", "tyid": "304000", "fontsize": 12, "halo": 0.8 }, "geometry": { "type": "Point", "coordinates": [ 76.376953, 37.718590 ] } }
{"year": "BC204",  "type": "Feature", "tippecanoe": { "layer": "7F5D7CD34BA81585559446457", "minzoom": 2, "maxzoom": 8 }, "properties": { "title": "皮山国", "color": "#202020", "oid": "103:1585278512852", "tyid": "304000", "fontsize": 12, "halo": 0.8 }, "geometry": { "type": "Point", "coordinates": [ 78.574219, 37.509726 ] } }
{"year": "BC204",  "type": "Feature", "tippecanoe": { "layer": "7F5D7CD34BA81585559446457", "minzoom": 2, "maxzoom": 8 }, "properties": { "title": "戎卢国", "color": "#202020", "oid": "103:1585278512542", "tyid": "304000", "fontsize": 12, "halo": 0.8 }, "geometry": { "type": "Point", "coordinates": [ 83.144531, 36.668419 ] } }
{"year": "BC204",  "type": "Feature", "tippecanoe": { "layer": "7F5D7CD34BA81585559446457", "minzoom": 2, "maxzoom": 8 }, "properties": { "title": "渠勒国", "color": "#202020", "oid": "103:1585278512866", "tyid": "304000", "fontsize": 12, "halo": 0.8 }, "geometry": { "type": "Point", "coordinates": [ 80.947266, 36.385913 ] } }
{"year": "BC204",  "type": "Feature", "tippecanoe": { "layer": "7F5D7CD34BA81585559446457", "minzoom": 2, "maxzoom": 8 }, "properties": { "title": "小宛国", "color": "#202020", "oid": "103:1585278512853", "tyid": "304000", "fontsize": 12, "halo": 0.8 }, "geometry": { "type": "Point", "coordinates": [ 85.078125, 37.090240 ] } }
{"year": "BC204",  "type": "Feature", "tippecanoe": { "layer": "7F5D7CD34BA81585559446457", "minzoom": 2, "maxzoom": 8 }, "properties": { "title": "罗昂", "color": "#202020", "oid": "103:1585278512861", "tyid": "304000", "fontsize": 12, "halo": 0.8 }, "geometry": { "type": "Point", "coordinates": [ 89.208984, 29.152161 ] } }
{"year": "BC204",  "type": "Feature", "tippecanoe": { "layer": "7F5D7CD34BA81585559446457", "minzoom": 2, "maxzoom": 8 }, "properties": { "title": "藏", "color": "#202020", "oid": "103:1585278512980", "tyid": "304000", "fontsize": 12, "halo": 0.8 }, "geometry": { "type": "Point", "coordinates": [ 89.736328, 28.844674 ] } }
{"year": "BC204",  "type": "Feature", "tippecanoe": { "layer": "7F5D7CD34BA81585559446457", "minzoom": 2, "maxzoom": 8 }, "properties": { "title": "卓木南木松", "color": "#202020", "oid": "103:1585278512601", "tyid": "304000", "fontsize": 12, "halo": 0.8 }, "geometry": { "type": "Point", "coordinates": [ 88.945312, 27.839076 ] } }
{"year": "BC204",  "type": "Feature", "tippecanoe": { "layer": "7F5D7CD34BA81585559446457", "minzoom": 2, "maxzoom": 8 }, "properties": { "title": "牟湿迦王国", "color": "#202020", "oid": "103:1585278513024", "tyid": "304000", "fontsize": 12, "halo": 0.8 }, "geometry": { "type": "Point", "coordinates": [ 75.234375, 12.811801 ] } }
{"year": "BC204",  "type": "Feature", "tippecanoe": { "layer": "7F5D7CD34BA81585559446457", "minzoom": 2, "maxzoom": 8 }, "properties": { "title": "阿伊王国", "color": "#202020", "oid": "103:1585278512635", "tyid": "304000", "fontsize": 12, "halo": 0.8 }, "geometry": { "type": "Point", "coordinates": [ 77.080078, 8.667918 ] } }
{"year": "BC204",  "type": "Feature", "tippecanoe": { "layer": "7F5D7CD34BA81585559446457", "minzoom": 2, "maxzoom": 8 }, "properties": { "title": "吉", "color": "#202020", "oid": "103:1585278512816", "tyid": "304000", "fontsize": 12, "halo": 0.8 }, "geometry": { "type": "Point", "coordinates": [ 91.406250, 29.764377 ] } }
{"year": "BC204",  "type": "Feature", "tippecanoe": { "layer": "7F5D7CD34BA81585559446457", "minzoom": 2, "maxzoom": 8 }, "properties": { "title": "琛", "color": "#202020", "oid": "103:1585278512863", "tyid": "304000", "fontsize": 12, "halo": 0.8 }, "geometry": { "type": "Point", "coordinates": [ 91.230469, 29.382175 ] } }
{"year": "BC204",  "type": "Feature", "tippecanoe": { "layer": "7F5D7CD34BA81585559446457", "minzoom": 2, "maxzoom": 8 }, "properties": { "title": "悉补野", "color": "#202020", "oid": "103:1585278512537", "tyid": "304000", "fontsize": 12, "halo": 0.8 }, "geometry": { "type": "Point", "coordinates": [ 91.845703, 29.152161 ] } }
{"year": "BC204",  "type": "Feature", "tippecanoe": { "layer": "7F5D7CD34BA81585559446457", "minzoom": 2, "maxzoom": 8 }, "properties": { "title": "俄玉邦噶", "color": "#202020", "oid": "103:1585278512536", "tyid": "304000", "fontsize": 12, "halo": 0.8 }, "geometry": { "type": "Point", "coordinates": [ 92.548828, 29.152161 ] } }
{"year": "BC204",  "type": "Feature", "tippecanoe": { "layer": "7F5D7CD34BA81585559446457", "minzoom": 2, "maxzoom": 8 }, "properties": { "title": "娘", "color": "#202020", "oid": "103:1585278512720", "tyid": "304000", "fontsize": 12, "halo": 0.8 }, "geometry": { "type": "Point", "coordinates": [ 93.339844, 29.916852 ] } }
{"year": "BC204",  "type": "Feature", "tippecanoe": { "layer": "7F5D7CD34BA81585559446457", "minzoom": 2, "maxzoom": 8 }, "properties": { "title": "贡", "color": "#202020", "oid": "103:1585278512814", "tyid": "304000", "fontsize": 12, "halo": 0.8 }, "geometry": { "type": "Point", "coordinates": [ 94.482422, 29.688053 ] } }
{"year": "BC204",  "type": "Feature", "tippecanoe": { "layer": "7F5D7CD34BA81585559446457", "minzoom": 2, "maxzoom": 8 }, "properties": { "title": "达", "color": "#202020", "oid": "103:1585278512713", "tyid": "304000", "fontsize": 12, "halo": 0.8 }, "geometry": { "type": "Point", "coordinates": [ 93.603516, 29.152161 ] } }
{"year": "BC204",  "type": "Feature", "tippecanoe": { "layer": "7F5D7CD34BA81585559446457", "minzoom": 2, "maxzoom": 8 }, "properties": { "title": "徙", "color": "#262626", "oid": "103:1585278512525", "tyid": "304001", "fontsize": 12, "halo": 0.8 }, "geometry": { "type": "Point", "coordinates": [ 102.392578, 30.069094 ] } }
{"year": "BC204",  "type": "Feature", "tippecanoe": { "layer": "7F5D7CD34BA81585559446457", "minzoom": 2, "maxzoom": 8 }, "properties": { "title": "冉駹羌", "color": "#202020", "oid": "103:1585278512691", "tyid": "304000", "fontsize": 12, "halo": 0.8 }, "geometry": { "type": "Point", "coordinates": [ 103.535156, 31.653381 ] } }
{"year": "BC204",  "type": "Feature", "tippecanoe": { "layer": "7F5D7CD34BA81585559446457", "minzoom": 2, "maxzoom": 8 }, "properties": { "title": "筰都", "color": "#262626", "oid": "103:1585278512925", "tyid": "304001", "fontsize": 12, "halo": 0.8 }, "geometry": { "type": "Point", "coordinates": [ 102.744141, 29.075375 ] } }
{"year": "BC204",  "type": "Feature", "tippecanoe": { "layer": "7F5D7CD34BA81585559446457", "minzoom": 2, "maxzoom": 8 }, "properties": { "title": "靡莫", "color": "#262626", "oid": "103:1585278512724", "tyid": "304001", "fontsize": 12, "halo": 0.8 }, "geometry": { "type": "Point", "coordinates": [ 103.886719, 25.799891 ] } }
{"year": "BC204",  "type": "Feature", "tippecanoe": { "layer": "7F5D7CD34BA81585559446457", "minzoom": 2, "maxzoom": 8 }, "properties": { "title": "劳浸", "color": "#262626", "oid": "103:1585278512600", "tyid": "304001", "fontsize": 12, "halo": 0.8 }, "geometry": { "type": "Point", "coordinates": [ 103.710938, 24.926295 ] } }
{"year": "BC204",  "type": "Feature", "tippecanoe": { "layer": "7F5D7CD34BA81585559446457", "minzoom": 2, "maxzoom": 8 }, "properties": { "title": "且兰", "color": "#262626", "oid": "103:1585278512994", "tyid": "304001", "fontsize": 12, "halo": 0.8 }, "geometry": { "type": "Point", "coordinates": [ 107.841797, 26.431228 ] } }
{"year": "BC204",  "type": "Feature", "tippecanoe": { "layer": "7F5D7CD34BA81585559446457", "minzoom": 2, "maxzoom": 8 }, "properties": { "title": "石坛文化", "color": "#262626", "oid": "103:1585278512723", "tyid": "304002", "fontsize": 12, "halo": 0.8 }, "geometry": { "type": "Point", "coordinates": [ 103.359375, 19.559790 ] } }
{"year": "BC204",  "type": "Feature", "tippecanoe": { "layer": "7F5D7CD34BA81585559446457", "minzoom": 2, "maxzoom": 8 }, "properties": { "title": "陈馀", "color": "#262626", "oid": "103:1585278512965", "tyid": "304002", "fontsize": 12, "halo": 0.8 }, "geometry": { "type": "Point", "coordinates": [ 116.542969, 37.926868 ] } }
{"year": "BC204",  "type": "Feature", "tippecanoe": { "layer": "7F5D7CD34BA81585559446457", "minzoom": 2, "maxzoom": 8 }, "properties": { "title": "彭越", "color": "#262626", "oid": "103:1585278512697", "tyid": "304002", "fontsize": 12, "halo": 0.8 }, "geometry": { "type": "Point", "coordinates": [ 116.103516, 35.746512 ] } }
{"year": "BC204",  "type": "Feature", "tippecanoe": { "layer": "7F5D7CD34BA81585559446457", "minzoom": 2, "maxzoom": 8 }, "properties": { "title": "营埔文化", "color": "#262626", "oid": "103:1585278513060", "tyid": "304002", "fontsize": 12, "halo": 0.8 },