{ "type": "Feature", "tippecanoe": { "layer": "2AFCA05305F81583918404108", "minzoom": 2, "maxzoom": 8 }, "properties": { "halo": 1.6, "title": "古白令海文化", "fontsize": 12, "tyid": "304002", "oid": "103:1576575202200", "color": "#0056E7" }, "geometry": { "type": "Point", "coordinates": [ -170.332031, 63.470145 ] } }
{ "type": "Feature", "tippecanoe": { "layer": "2AFCA05305F81583918404108", "minzoom": 2, "maxzoom": 8 }, "properties": { "halo": 1.6, "title": "查普卡洛文化", "fontsize": 12, "tyid": "304002", "oid": "103:1576575202067", "color": "#0056E7" }, "geometry": { "type": "Point", "coordinates": [ -99.931641, 20.303418 ] } }
{ "type": "Feature", "tippecanoe": { "layer": "2AFCA05305F81583918404108", "minzoom": 2, "maxzoom": 8 }, "properties": { "halo": 1.6, "title": "米斯特克人", "fontsize": 12, "tyid": "304001", "oid": "103:1576575202344", "color": "#0056E7" }, "geometry": { "type": "Point", "coordinates": [ -98.349609, 17.224758 ] } }
{ "type": "Feature", "tippecanoe": { "layer": "2AFCA05305F81583918404108", "minzoom": 2, "maxzoom": 8 }, "properties": { "halo": 1.6, "title": "特里克人", "fontsize": 12, "tyid": "304001", "oid": "103:1576575202258", "color": "#0056E7" }, "geometry": { "type": "Point", "coordinates": [ -97.294922, 17.644022 ] } }
{ "type": "Feature", "tippecanoe": { "layer": "2AFCA05305F81583918404108", "minzoom": 2, "maxzoom": 8 }, "properties": { "halo": 1.6, "title": "麦克斯人", "fontsize": 12, "tyid": "304001", "oid": "103:1576575202282", "color": "#0056E7" }, "geometry": { "type": "Point", "coordinates": [ -96.328125, 18.062312 ] } }
{ "type": "Feature", "tippecanoe": { "layer": "2AFCA05305F81583918404108", "minzoom": 2, "maxzoom": 8 }, "properties": { "halo": 1.6, "title": "后奥尔梅克文化", "fontsize": 12, "tyid": "304002", "oid": "103:1576575202424", "color": "#0056E7" }, "geometry": { "type": "Point", "coordinates": [ -95.625000, 18.479609 ] } }
{ "type": "Feature", "tippecanoe": { "layer": "2AFCA05305F81583918404108", "minzoom": 2, "maxzoom": 8 }, "properties": { "halo": 1.6, "title": "祖赫人", "fontsize": 12, "tyid": "304001", "oid": "103:1576575202356", "color": "#0056E7" }, "geometry": { "type": "Point", "coordinates": [ -92.021484, 16.045813 ] } }
{ "type": "Feature", "tippecanoe": { "layer": "2AFCA05305F81583918404108", "minzoom": 2, "maxzoom": 8 }, "properties": { "halo": 1.6, "title": "基切人", "fontsize": 12, "tyid": "304001", "oid": "103:1576575202100", "color": "#0056E7" }, "geometry": { "type": "Point", "coordinates": [ -90.966797, 15.029686 ] } }
{ "type": "Feature", "tippecanoe": { "layer": "2AFCA05305F81583918404108", "minzoom": 2, "maxzoom": 8 }, "properties": { "halo": 1.6, "title": "阿尔托山文化", "fontsize": 12, "tyid": "304002", "oid": "103:1576575202209", "color": "#0056E7" }, "geometry": { "type": "Point", "coordinates": [ -91.054688, 14.349548 ] } }
{ "type": "Feature", "tippecanoe": { "layer": "2AFCA05305F81583918404108", "minzoom": 2, "maxzoom": 8 }, "properties": { "halo": 1.6, "title": "玛纳索塔文化", "fontsize": 12, "tyid": "304002", "oid": "103:1576575202164", "color": "#0056E7" }, "geometry": { "type": "Point", "coordinates": [ -82.441406, 27.683528 ] } }
{ "type": "Feature", "tippecanoe": { "layer": "2AFCA05305F81583918404108", "minzoom": 2, "maxzoom": 8 }, "properties": { "halo": 1.6, "title": "卡卢萨人", "fontsize": 12, "tyid": "304001", "oid": "103:1576575202162", "color": "#0056E7" }, "geometry": { "type": "Point", "coordinates": [ -81.650391, 27.137368 ] } }
{ "type": "Feature", "tippecanoe": { "layer": "2AFCA05305F81583918404108", "minzoom": 2, "maxzoom": 8 }, "properties": { "halo": 1.6, "title": "圣约翰文化", "fontsize": 12, "tyid": "304002", "oid": "103:1576575201957", "color": "#0056E7" }, "geometry": { "type": "Point", "coordinates": [ -81.474609, 29.382175 ] } }
{ "type": "Feature", "tippecanoe": { "layer": "2AFCA05305F81583918404108", "minzoom": 2, "maxzoom": 8 }, "properties": { "halo": 1.6, "title": "贝尔格莱德文化", "fontsize": 12, "tyid": "304002", "oid": "103:1576575202084", "color": "#0056E7" }, "geometry": { "type": "Point", "coordinates": [ -80.859375, 27.449790 ] } }
{ "type": "Feature", "tippecanoe": { "layer": "2AFCA05305F81583918404108", "minzoom": 2, "maxzoom": 8 }, "properties": { "halo": 1.6, "title": "格莱兹文化", "fontsize": 12, "tyid": "304002", "oid": "103:1576575202176", "color": "#0056E7" }, "geometry": { "type": "Point", "coordinates": [ -80.771484, 26.037042 ] } }
{ "type": "Feature", "tippecanoe": { "layer": "2AFCA05305F81583918404108", "minzoom": 2, "maxzoom": 8 }, "properties": { "halo": 1.6, "title": "德贵斯塔族", "fontsize": 12, "tyid": "304001", "oid": "103:1576575202369", "color": "#0056E7" }, "geometry": { "type": "Point", "coordinates": [ -80.244141, 25.878994 ] } }
{ "type": "Feature", "tippecanoe": { "layer": "2AFCA05305F81583918404108", "minzoom": 2, "maxzoom": 8 }, "properties": { "halo": 1.6, "title": "雷卡人", "fontsize": 12, "tyid": "304001", "oid": "103:1576575202264", "color": "#0056E7" }, "geometry": { "type": "Point", "coordinates": [ -87.802734, 13.752725 ] } }
{ "type": "Feature", "tippecanoe": { "layer": "2AFCA05305F81583918404108", "minzoom": 2, "maxzoom": 8 }, "properties": { "halo": 1.6, "title": "格兰科克勒文化", "fontsize": 12, "tyid": "304002", "oid": "103:1576575201945", "color": "#0056E7" }, "geometry": { "type": "Point", "coordinates": [ -80.507812, 8.581021 ] } }
{ "type": "Feature", "tippecanoe": { "layer": "2AFCA05305F81583918404108", "minzoom": 2, "maxzoom": 8 }, "properties": { "halo": 1.6, "title": "伊拉玛文化", "fontsize": 12, "tyid": "304002", "oid": "103:1576575202461", "color": "#0056E7" }, "geometry": { "type": "Point", "coordinates": [ -76.201172, 4.302591 ] } }
{ "type": "Feature", "tippecanoe": { "layer": "2AFCA05305F81583918404108", "minzoom": 2, "maxzoom": 8 }, "properties": { "halo": 1.6, "title": "马拉加纳文化", "fontsize": 12, "tyid": "304002", "oid": "103:1576575202486", "color": "#0056E7" }, "geometry": { "type": "Point", "coordinates": [ -76.289062, 3.425692 ] } }
{ "type": "Feature", "tippecanoe": { "layer": "2AFCA05305F81583918404108", "minzoom": 2, "maxzoom": 8 }, "properties": { "halo": 1.6, "title": "科罗索文化", "fontsize": 12, "tyid": "304002", "oid": "103:1576575202523", "color": "#0056E7" }, "geometry": { "type": "Point", "coordinates": [ -66.533203, 18.229351 ] } }
{ "type": "Feature", "tippecanoe": { "layer": "2AFCA05305F81583918404108", "minzoom": 2, "maxzoom": 8 }, "properties": { "halo": 1.6, "title": "大庄园文化", "fontsize": 12, "tyid": "304002", "oid": "103:1576575201951", "color": "#0056E7" }, "geometry": { "type": "Point", "coordinates": [ -65.917969, 18.396230 ] } }
{ "type": "Feature", "tippecanoe": { "layer": "2AFCA05305F81583918404108", "minzoom": 2, "maxzoom": 8 }, "properties": { "halo": 1.6, "title": "克鲁姆湾文化", "fontsize": 12, "tyid": "304002", "oid": "103:1576575202239", "color": "#0056E7" }, "geometry": { "type": "Point", "coordinates": [ -64.775391, 17.811456 ] } }
{ "type": "Feature", "tippecanoe": { "layer": "2AFCA05305F81583918404108", "minzoom": 2, "maxzoom": 8 }, "properties": { "halo": 1.6, "title": "萨拉杜文化", "fontsize": 12, "tyid": "304002", "oid": "103:1576575202529", "color": "#0056E7" }, "geometry": { "type": "Point", "coordinates": [ -61.699219, 16.214675 ] } }
{ "type": "Feature", "tippecanoe": { "layer": "2AFCA05305F81583918404108", "minzoom": 2, "maxzoom": 8 }, "properties": { "halo": 1.6, "title": "坎塔布里人", "fontsize": 12, "tyid": "304001", "oid": "103:1576575202298", "color": "#0056E7" }, "geometry": { "type": "Point", "coordinates": [ -4.394531, 43.068888 ] } }
{ "type": "Feature", "tippecanoe": { "layer": "2AFCA05305F81583918404108", "minzoom": 2, "maxzoom": 8 }, "properties": { "halo": 1.6, "title": "特罗莫吉人", "fontsize": 12, "tyid": "304001", "oid": "103:1576575202064", "color": "#0056E7" }, "geometry": { "type": "Point", "coordinates": [ -3.691406, 42.228517 ] } }
{ "type": "Feature", "tippecanoe": { "layer": "2AFCA05305F81583918404108", "minzoom": 2, "maxzoom": 8 }, "properties": { "halo": 1.6, "title": "奥特里冈人", "fontsize": 12, "tyid": "304001", "oid": "103:1576575201929", "color": "#0056E7" }, "geometry": { "type": "Point", "coordinates": [ -3.251953, 42.875964 ] } }
{ "type": "Feature", "tippecanoe": { "layer": "2AFCA05305F81583918404108", "minzoom": 2, "maxzoom": 8 }, "properties": { "halo": 1.6, "title": "卡斯蒂利人", "fontsize": 12, "tyid": "304001", "oid": "103:1576575202315", "color": "#0056E7" }, "geometry": { "type": "Point", "coordinates": [ -2.812500, 43.068888 ] } }
{ "type": "Feature", "tippecanoe": { "layer": "2AFCA05305F81583918404108", "minzoom": 2, "maxzoom": 8 }, "properties": { "halo": 1.6, "title": "瓦杜里人", "fontsize": 12, "tyid": "304001", "oid": "103:1576575202537", "color": "#0056E7" }, "geometry": { "type": "Point", "coordinates": [ -2.285156, 42.940339 ] } }
{ "type": "Feature", "tippecanoe": { "layer": "2AFCA05305F81583918404108", "minzoom": 2, "maxzoom": 8 }, "properties": { "halo": 1.6, "title": "伯罗内人", "fontsize": 12, "tyid": "304001", "oid": "103:1576575202173", "color": "#0056E7" }, "geometry": { "type": "Point", "coordinates": [ -2.548828, 42.293564 ] } }
{ "type": "Feature", "tippecanoe": { "layer": "2AFCA05305F81583918404108", "minzoom": 2, "maxzoom": 8 }, "properties": { "halo": 1.6, "title": "巴斯克人", "fontsize": 12, "tyid": "304001", "oid": "103:1576575202110", "color": "#0056E7" }, "geometry": { "type": "Point", "coordinates": [ -1.494141, 42.811522 ] } }
{ "type": "Feature", "tippecanoe": { "layer": "2AFCA05305F81583918404108", "minzoom": 2, "maxzoom": 8 }, "properties": { "halo": 1.6, "title": "伊塞塔尼人", "fontsize": 12, "tyid": "304001", "oid": "103:1576575202451", "color": "#0056E7" }, "geometry": { "type": "Point", "coordinates": [ -1.054688, 42.163403 ] } }
{ "type": "Feature", "tippecanoe": { "layer": "2AFCA05305F81583918404108", "minzoom": 2, "maxzoom": 8 }, "properties": { "halo": 1.6, "title": "关切人", "fontsize": 12, "tyid": "304001", "oid": "103:1576575202381", "color": "#0056E7" }, "geometry": { "type": "Point", "coordinates": [ -16.611328, 28.304381 ] } }
{ "type": "Feature", "tippecanoe": { "layer": "2AFCA05305F81583918404108", "minzoom": 2, "maxzoom": 8 }, "properties": { "halo": 1.6, "title": "图尔杜利奥皮迪尼人", "fontsize": 12, "tyid": "304001", "oid": "103:1576575201958", "color": "#0056E7" }, "geometry": { "type": "Point", "coordinates": [ -8.789062, 39.909736 ] } }
{ "type": "Feature", "tippecanoe": { "layer": "2AFCA05305F81583918404108", "minzoom": 2, "maxzoom": 8 }, "properties": { "halo": 1.6, "title": "伊利尔卡沃尼人", "fontsize": 12, "tyid": "304001", "oid": "103:1576575202215", "color": "#0056E7" }, "geometry": { "type": "Point", "coordinates": [ -0.263672, 40.847060 ] } }
{ "type": "Feature", "tippecanoe": { "layer": "2AFCA05305F81583918404108", "minzoom": 2, "maxzoom": 8 }, "properties": { "halo": 1.6, "title": "埃德塔尼人", "fontsize": 12, "tyid": "304001", "oid": "103:1576575202533", "color": "#0056E7" }, "geometry": { "type": "Point", "coordinates": [ -0.966797, 39.639538 ] } }
{ "type": "Feature", "tippecanoe": { "layer": "2AFCA05305F81583918404108", "minzoom": 2, "maxzoom": 8 }, "properties": { "halo": 1.6, "title": "康斯塔尼人", "fontsize": 12, "tyid": "304001", "oid": "103:1576575202147", "color": "#0056E7" }, "geometry": { "type": "Point", "coordinates": [ -0.878906, 38.685510 ] } }
{ "type": "Feature", "tippecanoe": { "layer": "2AFCA05305F81583918404108", "minzoom": 2, "maxzoom": 8 }, "properties": { "halo": 1.6, "title": "瓜纳加拉文化", "fontsize": 12, "tyid": "304002", "oid": "103:1576575202343", "color": "#0056E7" }, "geometry": { "type": "Point", "coordinates": [ -80.595703, -1.669686 ] } }
{ "type": "Feature", "tippecanoe": { "layer": "2AFCA05305F81583918404108", "minzoom": 2, "maxzoom": 8 }, "properties": { "halo": 1.6, "title": "巴伊亚文化", "fontsize": 12, "tyid": "304002", "oid": "103:1576575202132", "color": "#0056E7" }, "geometry": { "type": "Point", "coordinates": [ -80.068359, -0.527336 ] } }
{ "type": "Feature", "tippecanoe": { "layer": "2AFCA05305F81583918404108", "minzoom": 2, "maxzoom": 8 }, "properties": { "halo": 1.6, "title": "查文文化", "fontsize": 12, "tyid": "304002", "oid": "103:1576575202062", "color": "#0056E7" }, "geometry": { "type": "Point", "coordinates": [ -77.958984, -8.320212 ] } }
{ "type": "Feature", "tippecanoe": { "layer": "2AFCA05305F81583918404108", "minzoom": 2, "maxzoom": 8 }, "properties": { "halo": 1.6, "title": "卡斯马-赛钦文化", "fontsize": 12, "tyid": "304002", "oid": "103:1576575202073", "color": "#0056E7" }, "geometry": { "type": "Point", "coordinates": [ -77.958984, -9.622414 ] } }
{ "type": "Feature", "tippecanoe": { "layer": "2AFCA05305F81583918404108", "minzoom": 2, "maxzoom": 8 }, "properties": { "halo": 1.6, "title": "帕拉卡斯文化", "fontsize": 12, "tyid": "304002", "oid": "103:1576575202060", "color": "#0056E7" }, "geometry": { "type": "Point", "coordinates": [ -75.673828, -14.179186 ] } }
{ "type": "Feature", "tippecanoe": { "layer": "2AFCA05305F81583918404108", "minzoom": 2, "maxzoom": 8 }, "properties": { "halo": 1.6, "title": "塔夫文化", "fontsize": 12, "tyid": "304002", "oid": "103:1576575201996", "color": "#0056E7" }, "geometry": { "type": "Point", "coordinates": [ -65.654297, -26.980829 ] } }
{ "type": "Feature", "tippecanoe": { "layer": "2AFCA05305F81583918404108", "minzoom": 2, "maxzoom": 8 }, "properties": { "halo": 1.6, "title": "豪什人", "fontsize": 12, "tyid": "304001", "oid": "103:1576575202525", "color": "#0056E7" }, "geometry": { "type": "Point", "coordinates": [ -65.917969, -54.724620 ] } }
{ "type": "Feature", "tippecanoe": { "layer": "2AFCA05305F81583918404108", "minzoom": 2, "maxzoom": 8 }, "properties": { "halo": 1.6, "title": "拉塞塔尼人", "fontsize": 12, "tyid": "304001", "oid": "103:1576575202450", "color": "#0056E7" }, "geometry": { "type": "Point", "coordinates": [ 1.054688, 41.442726 ] } }
{ "type": "Feature", "tippecanoe": { "layer": "2AFCA05305F81583918404108", "minzoom": 2, "maxzoom": 8 }, "properties": { "halo": 1.6, "title": "英迪格人", "fontsize": 12, "tyid": "304001", "oid": "103:1576575202254", "color": "#0056E7" }, "geometry": { "type": "Point", "coordinates": [ 2.285156, 42.163403 ] } }
{ "type": "Feature", "tippecanoe": { "layer": "2AFCA05305F81583918404108", "minzoom": 2, "maxzoom": 8 }, "properties": { "halo": 1.8, "title": "马萨利亚", "fontsize": 12, "tyid": "304000", "oid": "103:1576575202203", "color": "#0056E7" }, "geometry": { "type": "Point", "coordinates": [ 5.449219, 43.325178 ] } }
{ "type": "Feature", "tippecanoe": { "layer": "2AFCA05305F81583918404108", "minzoom": 2, "maxzoom": 8 }, "properties": { "halo": 1.8, "title": "帕莱波利斯", "fontsize": 12, "tyid": "304000", "oid": "103:1576575202103", "color": "#0056E7" }, "geometry": { "type": "Point", "coordinates": [ 3.076172, 42.163403 ] } }
{ "type": "Feature", "tippecanoe": { "layer": "2AFCA05305F81583918404108", "minzoom": 2, "maxzoom": 8 }, "properties": { "halo": 1.6, "title": "卡莫尼卡人", "fontsize": 12, "tyid": "304001", "oid": "103:1576575201982", "color": "#0056E7" }, "geometry": { "type": "Point", "coordinates": [ 10.283203, 46.012224 ] } }
{ "type": "Feature", "tippecanoe": { "layer": "2AFCA05305F81583918404108", "minzoom": 2, "maxzoom": 8 }, "properties": { "halo": 1.8, "title": "摩诺伊科", "fontsize": 12, "tyid": "304000", "oid": "103:1576575202178", "color": "#0056E7" }, "geometry": { "type": "Point", "coordinates": [ 7.382812, 43.771094 ] } }
{ "type": "Feature", "tippecanoe": { "layer": "2AFCA05305F81583918404108", "minzoom": 2, "maxzoom": 8 }, "properties": { "halo": 1.8, "title": "皮斯特罗斯", "fontsize": 12, "tyid": "304000", "oid": "103:1576575202437", "color": "#0056E7" }, "geometry": { "type": "Point", "coordinates": [ 23.994141, 42.293564 ] } }
{ "type": "Feature", "tippecanoe": { "layer": "2AFCA05305F81583918404108", "minzoom": 2, "maxzoom": 8 }, "properties": { "halo": 1.8, "title": "奥德索斯", "fontsize": 12, "tyid": "304000", "oid": "103:1576575202491", "color": "#0056E7" }, "geometry": { "type": "Point", "coordinates": [ 27.861328, 43.261206 ] } }
{ "type": "Feature", "tippecanoe": { "layer": "2AFCA05305F81583918404108", "minzoom": 2, "maxzoom": 8 }, "properties": { "halo": 1.8, "title": "安恰罗斯", "fontsize": 12, "tyid": "304000", "oid": "103:1576575202371", "color": "#0056E7" }, "geometry": { "type": "Point", "coordinates": [ 27.509766, 42.617791 ] } }
{ "type": "Feature", "tippecanoe": { "layer": "2AFCA05305F81583918404108", "minzoom": 2, "maxzoom": 8 }, "properties": { "halo": 1.8, "title": "梅森布里亚", "fontsize": 12, "tyid": "304000", "oid": "103:1576575202196", "color": "#0056E7" }, "geometry": { "type": "Point", "coordinates": [ 27.597656, 42.682435 ] } }
{ "type": "Feature", "tippecanoe": { "layer": "2AFCA05305F81583918404108", "minzoom": 2, "maxzoom": 8 }, "properties": { "halo": 1.8, "title": "阿波罗尼亚·潘提卡", "fontsize": 12, "tyid": "304000", "oid": "103:1576575202407", "color": "#0056E7" }, "geometry": { "type": "Point", "coordinates": [ 27.597656, 42.423457 ] } }
{ "type": "Feature", "tippecanoe": { "layer": "2AFCA05305F81583918404108", "minzoom": 2, "maxzoom": 8 }, "properties": { "halo": 1.8, "title": "提拉斯", "fontsize": 12, "tyid": "304000", "oid": "103:1576575202376", "color": "#0056E7" }, "geometry": { "type": "Point", "coordinates": [ 30.234375, 46.134170 ] } }
{ "type": "Feature", "tippecanoe": { "layer": "2AFCA05305F81583918404108", "minzoom": 2, "maxzoom": 8 }, "properties": { "halo": 1.8, "title": "敖德萨", "fontsize": 12, "tyid": "304000", "oid": "103:1576575202124", "color": "#0056E7" }, "geometry": { "type": "Point", "coordinates": [ 30.585938, 46.498392 ] } }
{ "type": "Feature", "tippecanoe": { "layer": "2AFCA05305F81583918404108", "minzoom": 2, "maxzoom": 8 }, "properties": { "halo": 1.6, "title": "奥里维亚", "fontsize": 12, "tyid": "304002", "oid": "103:1576575202152", "color": "#0056E7" }, "geometry": { "type": "Point", "coordinates": [ 31.816406, 46.679594 ] } }
{ "type": "Feature", "tippecanoe": { "layer": "2AFCA05305F81583918404108", "minzoom": 2, "maxzoom": 8 }, "properties": { "halo": 1.8, "title": "克尔柯特", "fontsize": 12, "tyid": "304000", "oid": "103:1576575202388", "color": "#0056E7" }, "geometry": { "type": "Point", "coordinates": [ 33.398438, 45.274886 ] } }
{ "type": "Feature", "tippecanoe": { "layer": "2AFCA05305F81583918404108", "minzoom": 2, "maxzoom": 8 }, "properties": { "halo": 1.8, "title": "希斯特里亚", "fontsize": 12, "tyid": "304000", "oid": "103:1576575202394", "color": "#0056E7" }, "geometry": { "type": "Point", "coordinates": [ 28.740234, 44.527843 ] } }
{ "type": "Feature", "tippecanoe": { "layer": "2AFCA05305F81583918404108", "minzoom": 2, "maxzoom": 8 }, "properties": { "halo": 1.8, "title": "托米斯", "fontsize": 12, "tyid": "304000", "oid": "103:1576575202079", "color": "#0056E7" }, "geometry": { "type": "Point", "coordinates": [ 28.476562, 44.213710 ] } }
{ "type": "Feature", "tippecanoe": { "layer": "2AFCA05305F81583918404108", "minzoom": 2, "maxzoom": 8 }, "properties": { "halo": 1.8, "title": "埃吉索斯", "fontsize": 12, "tyid": "304000", "oid": "103:1576575202205", "color": "#0056E7" }, "geometry": { "type": "Point", "coordinates": [ 29.355469, 45.026950 ] } }
{ "type": "Feature", "tippecanoe": { "layer": "2AFCA05305F81583918404108", "minzoom": 2, "maxzoom": 8 }, "properties": { "halo": 1.8, "title": "卡拉提斯", "fontsize": 12, "tyid": "304000", "oid": "103:1576575202083", "color": "#0056E7" }, "geometry": { "type": "Point", "coordinates": [ 28.564453, 43.834527 ] } }
{ "type": "Feature", "tippecanoe": { "layer": "2AFCA05305F81583918404108", "minzoom": 2, "maxzoom": 8 }, "properties": { "halo": 1.8, "title": "迪奥尼索波利斯", "fontsize": 12, "tyid": "304000", "oid": "103:1576575202429", "color": "#0056E7" }, "geometry": { "type": "Point", "coordinates": [ 28.125000, 43.452919 ] } }
{ "type": "Feature", "tippecanoe": { "layer": "2AFCA05305F81583918404108", "minzoom": 2, "maxzoom": 8 }, "properties": { "halo": 1.8, "title": "拜佐恩", "fontsize": 12, "tyid": "304000", "oid": "103:1576575202289", "color": "#0056E7" }, "geometry": { "type": "Point", "coordinates": [ 28.300781, 43.452919 ] } }
{ "type": "Feature", "tippecanoe": { "layer": "2AFCA05305F81583918404108", "minzoom": 2, "maxzoom": 8 }, "properties": { "halo": 1.8, "title": "拜占庭", "fontsize": 12, "tyid": "304000", "oid": "103:1576575202123", "color": "#0056E7" }, "geometry": { "type": "Point", "coordinates": [ 28.740234, 41.178654 ] } }
{ "type": "Feature", "tippecanoe": { "layer": "2AFCA05305F81583918404108", "minzoom": 2, "maxzoom": 8 }, "properties": { "halo": 1.8, "title": "克森尼索", "fontsize": 12, "tyid": "304000", "oid": "103:1576575201988", "color": "#0056E7" }, "geometry": { "type": "Point", "coordinates": [ 33.486328, 44.590467 ] } }
{ "type": "Feature", "tippecanoe": { "layer": "2AFCA05305F81583918404108", "minzoom": 2, "maxzoom": 8 }, "properties": { "halo": 1.6, "title": "杜林人", "fontsize": 12, "tyid": "304001", "oid": "103:1576575202271", "color": "#0056E7" }, "geometry": { "type": "Point", "coordinates": [ 34.365234, 44.902578 ] } }
{ "type": "Feature", "tippecanoe": { "layer": "2AFCA05305F81583918404108", "minzoom": 2, "maxzoom": 8 }, "properties": { "halo": 1.8, "title": "博斯普鲁斯王国", "fontsize": 12, "tyid": "304000", "oid": "103:1576575202276", "color": "#0056E7" }, "geometry": { "type": "Point", "coordinates": [ 37.441406, 45.026950 ] } }
{ "type": "Feature", "tippecanoe": { "layer": "2AFCA05305F81583918404108", "minzoom": 2, "maxzoom": 8 }, "properties": { "halo": 1.6, "title": "辛迪人", "fontsize": 12, "tyid": "304001", "oid": "103:1576575202036", "color": "#0056E7" }, "geometry": { "type": "Point", "coordinates": [ 38.759766, 44.715514 ] } }
{ "type": "Feature", "tippecanoe": { "layer": "2AFCA05305F81583918404108", "minzoom": 2, "maxzoom": 8 }, "properties": { "halo": 1.6, "title": "庞蒂克希腊人", "fontsize": 12, "tyid": "304001", "oid": "103:1576575202340", "color": "#0056E7" }, "geometry": { "type": "Point", "coordinates": [ 39.287109, 41.046217 ] } }
{ "type": "Feature", "tippecanoe": { "layer": "2AFCA05305F81583918404108", "minzoom": 2, "maxzoom": 8 }, "properties": { "halo": 1.8, "title": "特里格莱特", "fontsize": 12, "tyid": "304000", "oid": "103:1576575201911", "color": "#0056E7" }, "geometry": { "type": "Point", "coordinates": [ 40.253906, 43.261206 ] } }
{ "type": "Feature", "tippecanoe": { "layer": "2AFCA05305F81583918404108", "minzoom": 2, "maxzoom": 8 }, "properties": { "halo": 1.8, "title": "狄奥斯库里亚", "fontsize": 12, "tyid": "304000", "oid": "103:1576575202107", "color": "#0056E7" }, "geometry": { "type": "Point", "coordinates": [ 40.957031, 43.068888 ] } }
{ "type": "Feature", "tippecanoe": { "layer": "2AFCA05305F81583918404108", "minzoom": 2, "maxzoom": 8 }, "properties": { "halo": 1.8, "title": "费西斯", "fontsize": 12, "tyid": "304000", "oid": "103:1576575202274", "color": "#0056E7" }, "geometry": { "type": "Point", "coordinates": [ 41.660156, 42.163403 ] } }
{ "type": "Feature", "tippecanoe": { "layer": "2AFCA05305F81583918404108", "minzoom": 2, "maxzoom": 8 }, "properties": { "halo": 1.8, "title": "巴斯", "fontsize": 12, "tyid": "304000", "oid": "103:1576575201922", "color": "#0056E7" }, "geometry": { "type": "Point", "coordinates": [ 41.660156, 41.640078 ] } }
{ "type": "Feature", "tippecanoe": { "layer": "2AFCA05305F81583918404108", "minzoom": 2, "maxzoom": 8 }, "properties": { "halo": 1.8, "title": "叙拉古", "fontsize": 12, "tyid": "304000", "oid": "103:1582720950701", "color": "#0056E7" }, "geometry": { "type": "Point", "coordinates": [ 14.765625, 37.090240 ] } }
{ "type": "Feature", "tippecanoe": { "layer": "2AFCA05305F81583918404108", "minzoom": 2, "maxzoom": 8 }, "properties": { "halo": 1.8, "title": "厄利斯", "fontsize": 12, "tyid": "304000", "oid": "103:1576575202531", "color": "#0056E7" }, "geometry": { "type": "Point", "coordinates": [ 21.445312, 37.788081 ] } }
{ "type": "Feature", "tippecanoe": { "layer": "2AFCA05305F81583918404108", "minzoom": 2, "maxzoom": 8 }, "properties": { "halo": 1.8, "title": "埃托利亚同盟", "fontsize": 12, "tyid": "304000", "oid": "103:1576575202452", "color": "#0056E7" }, "geometry": { "type": "Point", "coordinates": [ 21.796875, 38.754083 ] } }
{ "type": "Feature", "tippecanoe": { "layer": "2AFCA05305F81583918404108", "minzoom": 2, "maxzoom": 8 }, "properties": { "halo": 1.8, "title": "阿凯亚同盟", "fontsize": 12, "tyid": "304000", "oid": "103:1576575201998", "color": "#0056E7" }, "geometry": { "type": "Point", "coordinates": [ 22.060547, 37.857507 ] } }
{ "type": "Feature", "tippecanoe": { "layer": "2AFCA05305F81583918404108", "minzoom": 2, "maxzoom": 8 }, "properties": { "halo": 1.8, "title": "古美西尼", "fontsize": 12, "tyid": "304000", "oid": "103:1576575202297", "color": "#0056E7" }, "geometry": { "type": "Point", "coordinates": [ 21.884766, 37.160317 ] } }
{ "type": "Feature", "tippecanoe": { "layer": "2AFCA05305F81583918404108", "minzoom": 2, "maxzoom": 8 }, "properties": { "halo": 1.8, "title": "彼奥提亚同盟", "fontsize": 12, "tyid": "304000", "oid": "103:1576575202069", "color": "#0056E7" }, "geometry": { "type": "Point", "coordinates": [ 23.115234, 38.410558 ] } }
{ "type": "Feature", "tippecanoe": { "layer": "2AFCA05305F81583918404108", "minzoom": 2, "maxzoom": 8 }, "properties": { "halo": 1.8, "title": "科林斯", "fontsize": 12, "tyid": "304000", "oid": "103:1576575202133", "color": "#0056E7" }, "geometry": { "type": "Point", "coordinates": [ 22.763672, 37.926868 ] } }
{ "type": "Feature", "tippecanoe": { "layer": "2AFCA05305F81583918404108", "minzoom": 2, "maxzoom": 8 }, "properties": { "halo": 1.8, "title": "优卑亚同盟", "fontsize": 12, "tyid": "304000", "oid": "103:1576575202212", "color": "#0056E7" }, "geometry": { "type": "Point", "coordinates": [ 23.730469, 38.616870 ] } }
{ "type": "Feature", "tippecanoe": { "layer": "2AFCA05305F81583918404108", "minzoom": 2, "maxzoom": 8 }, "properties": { "halo": 1.8, "title": "阿尔戈斯", "fontsize": 12, "tyid": "304000", "oid": "103:1576575202266", "color": "#0056E7" }, "geometry": { "type": "Point", "coordinates": [ 22.939453, 37.718590 ] } }
{ "type": "Feature", "tippecanoe": { "layer": "2AFCA05305F81583918404108", "minzoom": 2, "maxzoom": 8 }, "properties": { "halo": 1.8, "title": "帕加马王国", "fontsize": 12, "tyid": "304000", "oid": "103:1576575201990", "color": "#0056E7" }, "geometry": { "type": "Point", "coordinates": [ 27.246094, 39.368279 ] } }
{ "type": "Feature", "tippecanoe": { "layer": "2AFCA05305F81583918404108", "minzoom": 2, "maxzoom": 8 }, "properties": { "halo": 1.8, "title": "克里特", "fontsize": 12, "tyid": "304000", "oid": "103:1576575201991", "color": "#0056E7" }, "geometry": { "type": "Point", "coordinates": [ 24.785156, 35.245619 ] } }
{ "type": "Feature", "tippecanoe": { "layer": "2AFCA05305F81583918404108", "minzoom": 2, "maxzoom": 8 }, "properties": { "halo": 1.8, "title": "罗德斯国", "fontsize": 12, "tyid": "304000", "oid": "103:1576575202198", "color": "#0056E7" }, "geometry": { "type": "Point", "coordinates": [ 27.949219, 36.244273 ] } }
{ "type": "Feature", "tippecanoe": { "layer": "2AFCA05305F81583918404108", "minzoom": 2, "maxzoom": 8 }, "properties": { "halo": 1.8, "title": "以东王国", "fontsize": 12, "tyid": "304000", "oid": "103:1576575201983", "color": "#0056E7" }, "geometry": { "type": "Point", "coordinates": [ 35.595703, 30.751278 ] } }
{ "type": "Feature", "tippecanoe": { "layer": "2AFCA05305F81583918404108", "minzoom": 2, "maxzoom": 8 }, "properties": { "halo": 1.6, "title": "列兹金人", "fontsize": 12, "tyid": "304001", "oid": "103:1576575202011", "color": "#0056E7" }, "geometry": { "type": "Point", "coordinates": [ 47.636719, 41.640078 ] } }
{ "type": "Feature", "tippecanoe": { "layer": "2AFCA05305F81583918404108", "minzoom": 2, "maxzoom": 8 }, "properties": { "halo": 1.8, "title": "温宿国", "fontsize": 12, "tyid": "304000", "oid": "103:1576575202183", "color": "#0056E7" }, "geometry": { "type": "Point", "coordinates": [ 79.277344, 41.310824 ] } }
{ "type": "Feature", "tippecanoe": { "layer": "2AFCA05305F81583918404108", "minzoom": 2, "maxzoom": 8 }, "properties": { "halo": 1.8, "title": "乌贪訾离国", "fontsize": 12, "tyid": "304000", "oid": "103:1576575202400", "color": "#0056E7" }, "geometry": { "type": "Point", "coordinates": [ 86.748047, 44.465151 ] } }
{ "type": "Feature", "tippecanoe": { "layer": "2AFCA05305F81583918404108", "minzoom": 2, "maxzoom": 8 }, "properties": { "halo": 1.8, "title": "西且弥国", "fontsize": 12, "tyid": "304000", "oid": "103:1576575202334", "color": "#0056E7" }, "geometry": { "type": "Point", "coordinates": [ 86.220703, 43.834527 ] } }
{ "type": "Feature", "tippecanoe": { "layer": "2AFCA05305F81583918404108", "minzoom": 2, "maxzoom": 8 }, "properties": { "halo": 1.8, "title": "东且弥国", "fontsize": 12, "tyid": "304000", "oid": "103:1576575202476", "color": "#0056E7" }, "geometry": { "type": "Point", "coordinates": [ 86.923828, 43.707594 ] } }
{ "type": "Feature", "tippecanoe": { "layer": "2AFCA05305F81583918404108", "minzoom": 2, "maxzoom": 8 }, "properties": { "halo": 1.8, "title": "仑头国", "fontsize": 12, "tyid": "304000", "oid": "103:1576575202047", "color": "#0056E7" }, "geometry": { "type": "Point", "coordinates": [ 84.638672, 41.244772 ] } }
{ "type": "Feature", "tippecanoe": { "layer": "2AFCA05305F81583918404108", "minzoom": 2, "maxzoom": 8 }, "properties": { "halo": 1.8, "title": "焉耆国", "fontsize": 12, "tyid": "304000", "oid": "103:1576575202351", "color": "#0056E7" }, "geometry": { "type": "Point", "coordinates": [ 85.957031, 41.902277 ] } }
{ "type": "Feature", "tippecanoe": { "layer": "2AFCA05305F81583918404108", "minzoom": 2, "maxzoom": 8 }, "properties": { "halo": 1.8, "title": "劫国", "fontsize": 12, "tyid": "304000", "oid": "103:1576575202202", "color": "#0056E7" }, "geometry": { "type": "Point", "coordinates": [ 87.802734, 44.150681 ] } }
{ "type": "Feature", "tippecanoe": { "layer": "2AFCA05305F81583918404108", "minzoom": 2, "maxzoom": 8 }, "properties": { "halo": 1.8, "title": "卑陆后国", "fontsize": 12, "tyid": "304000", "oid": "103:1576575202413", "color": "#0056E7" }, "geometry": { "type": "Point", "coordinates": [ 88.154297, 44.276671 ] } }
{ "type": "Feature", "tippecanoe": { "layer": "2AFCA05305F81583918404108", "minzoom": 2, "maxzoom": 8 }, "properties": { "halo": 1.8, "title": "单桓国", "fontsize": 12, "tyid": "304000", "oid": "103:1576575202218", "color": "#0056E7" }, "geometry": { "type": "Point", "coordinates": [ 87.539062, 44.024422 ] } }
{ "type": "Feature", "tippecanoe": { "layer": "2AFCA05305F81583918404108", "minzoom": 2, "maxzoom": 8 }, "properties": { "halo": 1.8, "title": "卑陆国", "fontsize": 12, "tyid": "304000", "oid": "103:1576575201978", "color": "#0056E7" }, "geometry": { "type": "Point", "coordinates": [ 88.066406, 43.961191 ] } }
{ "type": "Feature", "tippecanoe": { "layer": "2AFCA05305F81583918404108", "minzoom": 2, "maxzoom": 8 }, "properties": { "halo": 1.8, "title": "孤胡国", "fontsize": 12, "tyid": "304000", "oid": "103:1576575202206", "color": "#0056E7" }, "geometry": { "type": "Point", "coordinates": [ 87.978516, 43.389082 ] } }
{ "type": "Feature", "tippecanoe": { "layer": "2AFCA05305F81583918404108", "minzoom": 2, "maxzoom": 8 }, "properties": { "halo": 1.8, "title": "卡塔班王国", "fontsize": 12, "tyid": "304000", "oid": "103:1576575202386", "color": "#0056E7" }, "geometry": { "type": "Point", "coordinates": [ 45.791016, 14.859850 ] } }
{ "type": "Feature", "tippecanoe": { "layer": "2AFCA05305F81583918404108", "minzoom": 2, "maxzoom": 8 }, "properties": { "halo": 1.8, "title": "难兜国", "fontsize": 12, "tyid": "304000", "oid": "103:1576575202155", "color": "#0056E7" }, "geometry": { "type": "Point", "coordinates": [ 74.091797, 36.949892 ] } }
{ "type": "Feature", "tippecanoe": { "layer": "2AFCA05305F81583918404108", "minzoom": 2, "maxzoom": 8 }, "properties": { "halo": 1.8, "title": "依耐国", "fontsize": 12, "tyid": "304000", "oid": "103:1576575202049", "color": "#0056E7" }, "geometry": { "type": "Point", "coordinates": [ 75.849609, 38.616870 ] } }
{ "type": "Feature", "tippecanoe": { "layer": "2AFCA05305F81583918404108", "minzoom": 2, "maxzoom": 8 }, "properties": { "halo": 1.8, "title": "蒲犁国", "fontsize": 12, "tyid": "304000", "oid": "103:1576575202418", "color": "#0056E7" }, "geometry": { "type": "Point", "coordinates": [ 75.146484, 37.718590 ] } }
{ "type": "Feature", "tippecanoe": { "layer": "2AFCA05305F81583918404108", "minzoom": 2, "maxzoom": 8 }, "properties": { "halo": 1.8, "title": "疏勒国", "fontsize": 12, "tyid": "304000", "oid": "103:1576575202066", "color": "#0056E7" }, "geometry": { "type": "Point", "coordinates": [ 76.289062, 39.504041 ] } }
{ "type": "Feature", "tippecanoe": { "layer": "2AFCA05305F81583918404108", "minzoom": 2, "maxzoom": 8 }, "properties": { "halo": 1.8, "title": "子合国", "fontsize": 12, "tyid": "304000", "oid": "103:1576575202527", "color": "#0056E7" }, "geometry": { "type": "Point", "coordinates": [ 76.376953, 37.718590 ] } }
{ "type": "Feature", "tippecanoe": { "layer": "2AFCA05305F81583918404108", "minzoom": 2, "maxzoom": 8 }, "properties": { "halo": 1.8, "title": "皮山国", "fontsize": 12, "tyid": "304000", "oid": "103:1576575202188", "color": "#0056E7" }, "geometry": { "type": "Point", "coordinates": [ 78.310547, 37.509726 ] } }
{ "type": "Feature", "tippecanoe": { "layer": "2AFCA05305F81583918404108", "minzoom": 2, "maxzoom": 8 }, "properties": { "halo": 1.8, "title": "戎卢国", "fontsize": 12, "tyid": "304000", "oid": "103:1576575202409", "color": "#0056E7" }, "geometry": { "type": "Point", "coordinates": [ 83.144531, 36.668419 ] } }
{ "type": "Feature", "tippecanoe": { "layer": "2AFCA05305F81583918404108", "minzoom": 2, "maxzoom": 8 }, "properties": { "halo": 1.8, "title": "渠勒国", "fontsize": 12, "tyid": "304000", "oid": "103:1576575201921", "color": "#0056E7" }, "geometry": { "type": "Point", "coordinates": [ 80.947266, 36.385913 ] } }
{ "type": "Feature", "tippecanoe": { "layer": "2AFCA05305F81583918404108", "minzoom": 2, "maxzoom": 8 }, "properties": { "halo": 1.8, "title": "小宛国", "fontsize": 12, "tyid": "304000", "oid": "103:1576575202268", "color": "#0056E7" }, "geometry": { "type": "Point", "coordinates": [ 85.078125, 37.090240 ] } }
{ "type": "Feature", "tippecanoe": { "layer": "2AFCA05305F81583918404108", "minzoom": 2, "maxzoom": 8 }, "properties": { "halo": 1.8, "title": "罗昂", "fontsize": 12, "tyid": "304000", "oid": "103:1576575202526", "color": "#0056E7" }, "geometry": { "type": "Point", "coordinates": [ 89.208984, 29.152161 ] } }
{ "type": "Feature", "tippecanoe": { "layer": "2AFCA05305F81583918404108", "minzoom": 2, "maxzoom": 8 }, "properties": { "halo": 1.8, "title": "藏", "fontsize": 12, "tyid": "304000", "oid": "103:1576575201948", "color": "#0056E7" }, "geometry": { "type": "Point", "coordinates": [ 89.736328, 28.844674 ] } }
{ "type": "Feature", "tippecanoe": { "layer": "2AFCA05305F81583918404108", "minzoom": 2, "maxzoom": 8 }, "properties": { "halo": 1.8, "title": "卓木南木松", "fontsize": 12, "tyid": "304000", "oid": "103:1576575201950", "color": "#0056E7" }, "geometry": { "type": "Point", "coordinates": [ 89.033203, 27.839076 ] } }
{ "type": "Feature", "tippecanoe": { "layer": "2AFCA05305F81583918404108", "minzoom": 2, "maxzoom": 8 }, "properties": { "halo": 1.8, "title": "牟湿迦王国", "fontsize": 12, "tyid": "304000", "oid": "103:1576575202197", "color": "#0056E7" }, "geometry": { "type": "Point", "coordinates": [ 75.234375, 12.811801 ] } }
{ "type": "Feature", "tippecanoe": { "layer": "2AFCA05305F81583918404108", "minzoom": 2, "maxzoom": 8 }, "properties": { "halo": 1.8, "title": "阿伊王国", "fontsize": 12, "tyid": "304000", "oid": "103:1576575202105", "color": "#0056E7" }, "geometry": { "type": "Point", "coordinates": [ 77.080078, 8.667918 ] } }
{ "type": "Feature", "tippecanoe": { "layer": "2AFCA05305F81583918404108", "minzoom": 2, "maxzoom": 8 }, "properties": { "halo": 1.8, "title": "吉", "fontsize": 12, "tyid": "304000", "oid": "103:1576575202101", "color": "#0056E7" }, "geometry": { "type": "Point", "coordinates": [ 91.406250, 29.764377 ] } }
{ "type": "Feature", "tippecanoe": { "layer": "2AFCA05305F81583918404108", "minzoom": 2, "maxzoom": 8 }, "properties": { "halo": 1.8, "title": "琛", "fontsize": 12, "tyid": "304000", "oid": "103:1576575202519", "color": "#0056E7" }, "geometry": { "type": "Point", "coordinates": [ 91.230469, 29.382175 ] } }
{ "type": "Feature", "tippecanoe": { "layer": "2AFCA05305F81583918404108", "minzoom": 2, "maxzoom": 8 }, "properties": { "halo": 1.8, "title": "悉补野", "fontsize": 12, "tyid": "304000", "oid": "103:1576575202395", "color": "#0056E7" }, "geometry": { "type": "Point", "coordinates": [ 91.845703, 29.152161 ] } }
{ "type": "Feature", "tippecanoe": { "layer": "2AFCA05305F81583918404108", "minzoom": 2, "maxzoom": 8 }, "properties": { "halo": 1.8, "title": "俄玉邦噶", "fontsize": 12, "tyid": "304000", "oid": "103:1576575202528", "color": "#0056E7" }, "geometry": { "type": "Point", "coordinates": [ 92.548828, 29.152161 ] } }
{ "type": "Feature", "tippecanoe": { "layer": "2AFCA05305F81583918404108", "minzoom": 2, "maxzoom": 8 }, "properties": { "halo": 1.8, "title": "娘", "fontsize": 12, "tyid": "304000", "oid": "103:1576575202322", "color": "#0056E7" }, "geometry": { "type": "Point", "coordinates": [ 93.339844, 29.916852 ] } }
{ "type": "Feature", "tippecanoe": { "layer": "2AFCA05305F81583918404108", "minzoom": 2, "maxzoom": 8 }, "properties": { "halo": 1.8, "title": "贡", "fontsize": 12, "tyid": "304000", "oid": "103:1576575201966", "color": "#0056E7" }, "geometry": { "type": "Point", "coordinates": [ 94.482422, 29.688053 ] } }
{ "type": "Feature", "tippecanoe": { "layer": "2AFCA05305F81583918404108", "minzoom": 2, "maxzoom": 8 }, "properties": { "halo": 1.8, "title": "达", "fontsize": 12, "tyid": "304000", "oid": "103:1576575202379", "color": "#0056E7" }, "geometry": { "type": "Point", "coordinates": [ 93.603516, 29.152161 ] } }
{ "type": "Feature", "tippecanoe": { "layer": "2AFCA05305F81583918404108", "minzoom": 2, "maxzoom": 8 }, "properties": { "halo": 1.8, "title": "冉駹羌", "fontsize": 12, "tyid": "304000", "oid": "103:1576575202280", "color": "#0056E7" }, "geometry": { "type": "Point", "coordinates": [ 103.535156, 31.578535 ] } }
{ "type": "Feature", "tippecanoe": { "layer": "2AFCA05305F81583918404108", "minzoom": 2, "maxzoom": 8 }, "properties": { "halo": 1.6, "title": "筰都", "fontsize": 12, "tyid": "304001", "oid": "103:1576575202243", "color": "#0056E7" }, "geometry": { "type": "Point", "coordinates": [ 102.568359, 29.228890 ] } }
{ "type": "Feature", "tippecanoe": { "layer": "2AFCA05305F81583918404108", "minzoom": 2, "maxzoom": 8 }, "properties": { "halo": 1.6, "title": "徙", "fontsize": 12, "tyid": "304001", "oid": "103:1576575202111", "color": "#0056E7" }, "geometry": { "type": "Point", "coordinates": [ 102.216797, 28.613459 ] } }
{ "type": "Feature", "tippecanoe": { "layer": "2AFCA05305F81583918404108", "minzoom": 2, "maxzoom": 8 }, "properties": { "halo": 1.6, "title": "靡莫", "fontsize": 12, "tyid": "304001", "oid": "103:1576575202137", "color": "#0056E7" }, "geometry": { "type": "Point", "coordinates": [ 103.886719, 25.799891 ] } }
{ "type": "Feature", "tippecanoe": { "layer": "2AFCA05305F81583918404108", "minzoom": 2, "maxzoom": 8 }, "properties": { "halo": 1.6, "title": "劳浸", "fontsize": 12, "tyid": "304001", "oid": "103:1576575202128", "color": "#0056E7" }, "geometry": { "type": "Point", "coordinates": [ 103.710938, 24.926295 ] } }
{ "type": "Feature", "tippecanoe": { "layer": "2AFCA05305F81583918404108", "minzoom": 2, "maxzoom": 8 }, "properties": { "halo": 1.6, "title": "石坛文化", "fontsize": 12, "tyid": "304002", "oid": "103:1576575202112", "color": "#0056E7" }, "geometry": { "type": "Point", "coordinates": [ 103.359375, 19.559790 ] } }
{ "type": "Feature", "tippecanoe": { "layer": "2AFCA05305F81583918404108", "minzoom": 2, "maxzoom": 8 }, "properties": { "halo": 1.8, "title": "卫", "fontsize": 12, "tyid": "304000", "oid": "103:1576575202540", "color": "#0056E7" }, "geometry": { "type": "Point", "coordinates": [ 114.960938, 35.746512 ] } }
{ "type": "Feature", "tippecanoe": { "layer": "2AFCA05305F81583918404108", "minzoom": 2, "maxzoom": 8 }, "properties": { "halo": 1.8, "title": "任", "fontsize": 12, "tyid": "304000", "oid": "103:1576575202542", "color": "#0056E7" }, "geometry": { "type": "Point", "coordinates": [ 116.630859, 35.389050 ] } }
{ "type": "Feature", "tippecanoe": { "layer": "2AFCA05305F81583918404108", "minzoom": 2, "maxzoom": 8 }, "properties": { "halo": 1.6, "title": "营埔文化", "fontsize": 12, "tyid": "304002", "oid": "103:1576575202547", "color": "#0056E7" }, "geometry": { "type": "Point", "coordinates": [ 120.673828, 24.287027 ] } }
{ "type": "Feature", "tippecanoe": { "layer": "2AFCA05305F81583918404108", "minzoom": 2, "maxzoom": 8 }, "properties": { "halo": 1.6, "title": "龟山文化", "fontsize": 12, "tyid": "304002", "oid": "103:1576575202546", "color": "#0056E7" }, "geometry": { "type": "Point", "coordinates": [ 120.585938, 22.674847 ] } }
{ "type": "Feature", "tippecanoe": { "layer": "2AFCA05305F81583918404108", "minzoom": 2, "maxzoom": 8 }, "properties": { "halo": 1.6, "title": "十三行文化", "fontsize": 12, "tyid": "304002", "oid": "103:1576575202543", "color": "#0056E7" }, "geometry": { "type": "Point", "coordinates": [ 121.464844, 24.846565 ] } }
{ "type": "Feature", "tippecanoe": { "layer": "2AFCA05305F81583918404108", "minzoom": 2, "maxzoom": 8 }, "properties": { "halo": 1.6, "title": "麒麟文化", "fontsize": 12, "tyid": "304002", "oid": "103:1576575202545", "color": "#0056E7" }, "geometry": { "type": "Point", "coordinates": [ 121.201172, 23.322080 ] } }
{ "type": "Feature", "tippecanoe": { "layer": "2AFCA05305F81583918404108", "minzoom": 2, "maxzoom": 8 }, "properties": { "halo": 1.6, "title": "托雷斯海峡岛民", "fontsize": 12, "tyid": "304001", "oid": "103:1576575202390", "color": "#0056E7" }, "geometry": { "type": "Point", "coordinates": [ 142.382812, -11.264612 ] } }
{ "type": "Feature", "tippecanoe": { "layer": "2AFCA13B3C501583918404110", "minzoom": 2, "maxzoom": 8 }, "properties": { "halo": 0.8, "title": "因纽特人", "fontsize": 12, "tyid": "304001", "oid": "103:1576575202246", "color": "#262626" }, "geometry": { "type": "Point", "coordinates": [ -91.318359, 67.272043 ] } }
{ "type": "Feature", "tippecanoe": { "layer": "2AFCA13B3C501583918404110", "minzoom": 2, "maxzoom": 8 }, "properties": { "halo": 0.8, "title": "诺顿文化", "fontsize": 12, "tyid": "304002", "oid": "103:1576575202335", "color": "#262626" }, "geometry": { "type": "Point", "coordinates": [ -161.894531, 65.476508 ] } }
{ "type": "Feature", "tippecanoe": { "layer": "2AFCA13B3C501583918404110", "minzoom": 2, "maxzoom": 8 }, "properties": { "halo": 0.8, "title": "尤皮克人", "fontsize": 12, "tyid": "304001", "oid": "103:1576575202052", "color": "#262626" }, "geometry": { "type": "Point", "coordinates": [ -155.478516, 62.267923 ] } }
{ "type": "Feature", "tippecanoe": { "layer": "2AFCA13B3C501583918404110", "minzoom": 2, "maxzoom": 8 }, "properties": { "halo": 0.8, "title": "因纽皮雅特人", "fontsize": 12, "tyid": "304001", "oid": "103:1576575202234", "color": "#262626" }, "geometry": { "type": "Point", "coordinates": [ -149.501953, 65.219894 ] } }
{ "type": "Feature", "tippecanoe": { "layer": "2AFCA13B3C501583918404110", "minzoom": 2, "maxzoom": 8 }, "properties": { "halo": 0.8, "title": "阿留申人", "fontsize": 12, "tyid": "304001", "oid": "103:1576575202372", "color": "#262626" }, "geometry": { "type": "Point", "coordinates": [ -152.226562, 61.312452 ] } }
{ "type": "Feature", "tippecanoe": { "layer": "2AFCA13B3C501583918404110", "minzoom": 2, "maxzoom": 8 }, "properties": { "halo": 0.8, "title": "泰萨勒页岩文化", "fontsize": 12, "tyid": "304002", "oid": "103:1576575202076", "color": "#262626" }, "geometry": { "type": "Point", "coordinates": [ -99.667969, 57.136239 ] } }
{ "type": "Feature", "tippecanoe": { "layer": "2AFCA13B3C501583918404110", "minzoom": 2, "maxzoom": 8 }, "properties": { "halo": 0.8, "title": "坎贝尔文化", "fontsize": 12, "tyid": "304002", "oid": "103:1576575202454", "color": "#262626" }, "geometry": { "type": "Point", "coordinates": [ -121.289062, 38.685510 ] } }
{ "type": "Feature", "tippecanoe": { "layer": "2AFCA13B3C501583918404110", "minzoom": 2, "maxzoom": 8 }, "properties": { "halo": 0.8, "title": "圣迪基图文化", "fontsize": 12, "tyid": "304002", "oid": "103:1576575202316", "color": "#262626" }, "geometry": { "type": "Point", "coordinates": [ -115.224609, 33.211116 ] } }
{ "type": "Feature", "tippecanoe": { "layer": "2AFCA13B3C501583918404110", "minzoom": 2, "maxzoom": 8 }, "properties": { "halo": 0.8, "title": "独立二期文化", "fontsize": 12, "tyid": "304002", "oid": "103:1576575202397", "color": "#262626" }, "geometry": { "type": "Point", "coordinates": [ -41.220703, 81.960148 ] } }
{ "type": "Feature", "tippecanoe": { "layer": "2AFCA13B3C501583918404110", "minzoom": 2, "maxzoom": 8 }, "properties": { "halo": 0.8, "title": "波茵特半岛文化", "fontsize": 12, "tyid": "304002", "oid": "103:1576575202095", "color": "#262626" }, "geometry": { "type": "Point", "coordinates": [ -76.816406, 45.336702 ] } }
{ "type": "Feature", "tippecanoe": { "layer": "2AFCA13B3C501583918404110", "minzoom": 2, "maxzoom": 8 }, "properties": { "halo": 0.8, "title": "古海洋文化", "fontsize": 12, "tyid": "304002", "oid": "103:1576575202431", "color": "#262626" }, "geometry": { "type": "Point", "coordinates": [ -68.466797, 46.920255 ] } }
{ "type": "Feature", "tippecanoe": { "layer": "2AFCA13B3C501583918404110", "minzoom": 2, "maxzoom": 8 }, "properties": { "halo": 0.8, "title": "阿登纳文化", "fontsize": 12, "tyid": "304002", "oid": "103:1576575202444", "color": "#262626" }, "geometry": { "type": "Point", "coordinates": [ -81.826172, 40.513799 ] } }
{ "type": "Feature", "tippecanoe": { "layer": "2AFCA13B3C501583918404110", "minzoom": 2, "maxzoom": 8 }, "properties": { "halo": 0.8, "title": "凯尔特布立吞人", "fontsize": 12, "tyid": "304001", "oid": "103:1576575202179", "color": "#262626" }, "geometry": { "type": "Point", "coordinates": [ -1.845703, 52.589701 ] } }
{ "type": "Feature", "tippecanoe": { "layer": "2AFCA13B3C501583918404110", "minzoom": 2, "maxzoom": 8 }, "properties": { "halo": 0.8, "title": "巴富尔人", "fontsize": 12, "tyid": "304001", "oid": "103:1576575201974", "color": "#262626" }, "geometry": { "type": "Point", "coordinates": [ -8.261719, 22.755921 ] } }
{ "type": "Feature", "tippecanoe": { "layer": "2AFCA13B3C501583918404110", "minzoom": 2, "maxzoom": 8 }, "properties": { "halo": 0.8, "title": "索宁克人", "fontsize": 12, "tyid": "304001", "oid": "103:1576575202194", "color": "#262626" }, "geometry": { "type": "Point", "coordinates": [ -8.964844, 15.284185 ] } }
{ "type": "Feature", "tippecanoe": { "layer": "2AFCA13B3C501583918404110", "minzoom": 2, "maxzoom": 8 }, "properties": { "halo": 0.8, "title": "曼德人", "fontsize": 12, "tyid": "304001", "oid": "103:1576575202261", "color": "#262626" }, "geometry": { "type": "Point", "coordinates": [ -0.439453, 11.867351 ] } }
{ "type": "Feature", "tippecanoe": { "layer": "2AFCA13B3C501583918404110", "minzoom": 2, "maxzoom": 8 }, "properties": { "halo": 0.8, "title": "图皮人", "fontsize": 12, "tyid": "304001", "oid": "103:1576575202207", "color": "#262626" }, "geometry": { "type": "Point", "coordinates": [ -38.408203, -10.401378 ] } }
{ "type": "Feature", "tippecanoe": { "layer": "2AFCA13B3C501583918404110", "minzoom": 2, "maxzoom": 8 }, "properties": { "halo": 0.8, "title": "萨米人", "fontsize": 12, "tyid": "304001", "oid": "103:1576575201930", "color": "#262626" }, "geometry": { "type": "Point", "coordinates": [ 25.400391, 68.171555 ] } }
{ "type": "Feature", "tippecanoe": { "layer": "2AFCA13B3C501583918404110", "minzoom": 2, "maxzoom": 8 }, "properties": { "halo": 0.8, "title": "乌斯特波卢伊文化", "fontsize": 12, "tyid": "304002", "oid": "103:1576575202088", "color": "#262626" }, "geometry": { "type": "Point", "coordinates": [ 70.576172, 68.656555 ] } }
{ "type": "Feature", "tippecanoe": { "layer": "2AFCA13B3C501583918404110", "minzoom": 2, "maxzoom": 8 }, "properties": { "halo": 0.8, "title": "原始日耳曼人", "fontsize": 12, "tyid": "304001", "oid": "103:1576575201934", "color": "#262626" }, "geometry": { "type": "Point", "coordinates": [ 13.623047, 60.673179 ] } }
{ "type": "Feature", "tippecanoe": { "layer": "2AFCA13B3C501583918404110", "minzoom": 2, "maxzoom": 8 }, "properties": { "halo": 0.8, "title": "贝尔盖人", "fontsize": 12, "tyid": "304001", "oid": "103:1576575201995", "color": "#262626" }, "geometry": { "type": "Point", "coordinates": [ 4.833984, 49.724479 ] } }
{ "type": "Feature", "tippecanoe": { "layer": "2AFCA13B3C501583918404110", "minzoom": 2, "maxzoom": 8 }, "properties": { "halo": 0.8, "title": "山外高卢人", "fontsize": 12, "tyid": "304001", "oid": "103:1576575202330", "color": "#262626" }, "geometry": { "type": "Point", "coordinates": [ 1.582031, 46.619261 ] } }
{ "type": "Feature", "tippecanoe": { "layer": "2AFCA13B3C501583918404110", "minzoom": 2, "maxzoom": 8 }, "properties": { "halo": 0.8, "title": "日耳曼人", "fontsize": 12, "tyid": "304001", "oid": "103:1576575202358", "color": "#262626" }, "geometry": { "type": "Point", "coordinates": [ 12.392578, 51.944265 ] } }
{ "type": "Feature", "tippecanoe": { "layer": "2AFCA13B3C501583918404110", "minzoom": 2, "maxzoom": 8 }, "properties": { "halo": 0.8, "title": "凯尔特人", "fontsize": 12, "tyid": "304001", "oid": "103:1576575202056", "color": "#262626" }, "geometry": { "type": "Point", "coordinates": [ 16.875000, 47.635784 ] } }
{ "type": "Feature", "tippecanoe": { "layer": "2AFCA13B3C501583918404110", "minzoom": 2, "maxzoom": 8 }, "properties": { "halo": 0.8, "title": "迪亚科夫文化", "fontsize": 12, "tyid": "304002", "oid": "103:1576575202506", "color": "#262626" }, "geometry": { "type": "Point", "coordinates": [ 37.968750, 56.800878 ] } }
{ "type": "Feature", "tippecanoe": { "layer": "2AFCA13B3C501583918404110", "minzoom": 2, "maxzoom": 8 }, "properties": { "halo": 0.8, "title": "第聂伯河与德维纳河文化", "fontsize": 12, "tyid": "304001", "oid": "103:1576575202327", "color": "#262626" }, "geometry": { "type": "Point", "coordinates": [ 31.816406, 55.677584 ] } }
{ "type": "Feature", "tippecanoe": { "layer": "2AFCA13B3C501583918404110", "minzoom": 2, "maxzoom": 8 }, "properties": { "halo": 0.8, "title": "扎鲁宾西文化", "fontsize": 12, "tyid": "304002", "oid": "103:1576575202360", "color": "#262626" }, "geometry": { "type": "Point", "coordinates": [ 29.882812, 50.903033 ] } }
{ "type": "Feature", "tippecanoe": { "layer": "2AFCA13B3C501583918404110", "minzoom": 2, "maxzoom": 8 }, "properties": { "halo": 0.8, "title": "达契亚人", "fontsize": 12, "tyid": "304001", "oid": "103:1576575202465", "color": "#262626" }, "geometry": { "type": "Point", "coordinates": [ 25.400391, 46.195042 ] } }
{ "type": "Feature", "tippecanoe": { "layer": "2AFCA13B3C501583918404110", "minzoom": 2, "maxzoom": 8 }, "properties": { "halo": 0.8, "title": "戈罗杰茨文化", "fontsize": 12, "tyid": "304002", "oid": "103:1576575202439", "color": "#262626" }, "geometry": { "type": "Point", "coordinates": [ 44.384766, 54.521081 ] } }
{ "type": "Feature", "tippecanoe": { "layer": "2AFCA13B3C501583918404110", "minzoom": 2, "maxzoom": 8 }, "properties": { "halo": 0.8, "title": "迦太基帝国", "fontsize": 12, "tyid": "304000", "oid": "103:1576575201907", "color": "#202020" }, "geometry": { "type": "Point", "coordinates": [ 9.580078, 36.244273 ] } }
{ "type": "Feature", "tippecanoe": { "layer": "2AFCA13B3C501583918404110", "minzoom": 2, "maxzoom": 8 }, "properties": { "halo": 0.8, "title": "柏柏尔人诸部", "fontsize": 12, "tyid": "304001", "oid": "103:1576575202433", "color": "#262626" }, "geometry": { "type": "Point", "coordinates": [ 2.724609, 26.352498 ] } }
{ "type": "Feature", "tippecanoe": { "layer": "2AFCA13B3C501583918404110", "minzoom": 2, "maxzoom": 8 }, "properties": { "halo": 0.8, "title": "加拉曼特人", "fontsize": 12, "tyid": "304001", "oid": "103:1576575202058", "color": "#262626" }, "geometry": { "type": "Point", "coordinates": [ 16.171875, 29.764377 ] } }
{ "type": "Feature", "tippecanoe": { "layer": "2AFCA13B3C501583918404110", "minzoom": 2, "maxzoom": 8 }, "properties": { "halo": 0.8, "title": "诺克文化", "fontsize": 12, "tyid": "304002", "oid": "103:1576575202495", "color": "#262626" }, "geometry": { "type": "Point", "coordinates": [ 7.119141, 10.574222 ] } }
{ "type": "Feature", "tippecanoe": { "layer": "2AFCA13B3C501583918404110", "minzoom": 2, "maxzoom": 8 }, "properties": { "halo": 0.8, "title": "萨奥文明", "fontsize": 12, "tyid": "304002", "oid": "103:1576575202044", "color": "#262626" }, "geometry": { "type": "Point", "coordinates": [ 14.941406, 13.752725 ] } }
{ "type": "Feature", "tippecanoe": { "layer": "2AFCA13B3C501583918404110", "minzoom": 2, "maxzoom": 8 }, "properties": { "halo": 0.8, "title": "巴卡人", "fontsize": 12, "tyid": "304001", "oid": "103:1576575202248", "color": "#262626" }, "geometry": { "type": "Point", "coordinates": [ 18.105469, 5.441022 ] } }
{ "type": "Feature", "tippecanoe": { "layer": "2AFCA13B3C501583918404110", "minzoom": 2, "maxzoom": 8 }, "properties": { "halo": 0.8, "title": "托勒密王国", "fontsize": 12, "tyid": "304000", "oid": "103:1576575202022", "color": "#202020" }, "geometry": { "type": "Point", "coordinates": [ 30.937500, 27.215556 ] } }
{ "type": "Feature", "tippecanoe": { "layer": "2AFCA13B3C501583918404110", "minzoom": 2, "maxzoom": 8 }, "properties": { "halo": 0.8, "title": "利黑延王国", "fontsize": 12, "tyid": "304000", "oid": "103:1576575202018", "color": "#202020" }, "geometry": { "type": "Point", "coordinates": [ 38.847656, 25.958045 ] } }
{ "type": "Feature", "tippecanoe": { "layer": "2AFCA13B3C501583918404110", "minzoom": 2, "maxzoom": 8 }, "properties": { "halo": 0.8, "title": "凯达尔联盟", "fontsize": 12, "tyid": "304001", "oid": "103:1576575202000", "color": "#262626" }, "geometry": { "type": "Point", "coordinates": [ 42.275391, 29.535230 ] } }
{ "type": "Feature", "tippecanoe": { "layer": "2AFCA13B3C501583918404110", "minzoom": 2, "maxzoom": 8 }, "properties": { "halo": 0.8, "title": "北非贝都因人", "fontsize": 12, "tyid": "304001", "oid": "103:1576575202312", "color": "#262626" }, "geometry": { "type": "Point", "coordinates": [ 22.587891, 20.715015 ] } }
{ "type": "Feature", "tippecanoe": { "layer": "2AFCA13B3C501583918404110", "minzoom": 2, "maxzoom": 8 }, "properties": { "halo": 0.8, "title": "富尔人", "fontsize": 12, "tyid": "304001", "oid": "103:1576575202240", "color": "#262626" }, "geometry": { "type": "Point", "coordinates": [ 26.015625, 12.983148 ] } }
{ "type": "Feature", "tippecanoe": { "layer": "2AFCA13B3C501583918404110", "minzoom": 2, "maxzoom": 8 }, "properties": { "halo": 0.8, "title": "库施王国", "fontsize": 12, "tyid": "304000", "oid": "103:1576575202050", "color": "#202020" }, "geometry": { "type": "Point", "coordinates": [ 32.255859, 17.644022 ] } }
{ "type": "Feature", "tippecanoe": { "layer": "2AFCA13B3C501583918404110", "minzoom": 2, "maxzoom": 8 }, "properties": { "halo": 0.8, "title": "尼罗特人", "fontsize": 12, "tyid": "304001", "oid": "103:1576575202228", "color": "#262626" }, "geometry": { "type": "Point", "coordinates": [ 33.310547, 1.230374 ] } }
{ "type": "Feature", "tippecanoe": { "layer": "2AFCA13B3C501583918404110", "minzoom": 2, "maxzoom": 8 }, "properties": { "halo": 0.8, "title": "赛莫德人", "fontsize": 12, "tyid": "304001", "oid": "103:1576575202475", "color": "#262626" }, "geometry": { "type": "Point", "coordinates": [ 42.626953, 21.698265 ] } }
{ "type": "Feature", "tippecanoe": { "layer": "2AFCA13B3C501583918404110", "minzoom": 2, "maxzoom": 8 }, "properties": { "halo": 0.8, "title": "卢欧诸部", "fontsize": 12, "tyid": "304001", "oid": "103:1576575202459", "color": "#262626" }, "geometry": { "type": "Point", "coordinates": [ 36.562500, 7.972198 ] } }
{ "type": "Feature", "tippecanoe": { "layer": "2AFCA13B3C501583918404110", "minzoom": 2, "maxzoom": 8 }, "properties": { "halo": 0.8, "title": "库希特人", "fontsize": 12, "tyid": "304001", "oid": "103:1576575201946", "color": "#262626" }, "geometry": { "type": "Point", "coordinates": [ 44.121094, 4.477856 ] } }
{ "type": "Feature", "tippecanoe": { "layer": "2AFCA13B3C501583918404110", "minzoom": 2, "maxzoom": 8 }, "properties": { "halo": 0.8, "title": "彼尔姆人", "fontsize": 12, "tyid": "304001", "oid": "103:1576575201938", "color": "#262626" }, "geometry": { "type": "Point", "coordinates": [ 55.371094, 57.844751 ] } }
{ "type": "Feature", "tippecanoe": { "layer": "2AFCA13B3C501583918404110", "minzoom": 2, "maxzoom": 8 }, "properties": { "halo": 0.8, "title": "东马扎尔人", "fontsize": 12, "tyid": "304001", "oid": "103:1576575202416", "color": "#262626" }, "geometry": { "type": "Point", "coordinates": [ 59.238281, 61.396719 ] } }
{ "type": "Feature", "tippecanoe": { "layer": "2AFCA13B3C501583918404110", "minzoom": 2, "maxzoom": 8 }, "properties": { "halo": 0.8, "title": "萨尔马提亚人", "fontsize": 12, "tyid": "304001", "oid": "103:1576575202029", "color": "#262626" }, "geometry": { "type": "Point", "coordinates": [ 46.406250, 50.847573 ] } }
{ "type": "Feature", "tippecanoe": { "layer": "2AFCA13B3C501583918404110", "minzoom": 2, "maxzoom": 8 }, "properties": { "halo": 0.8, "title": "奥苏伊人", "fontsize": 12, "tyid": "304001", "oid": "103:1576575202040", "color": "#262626" }, "geometry": { "type": "Point", "coordinates": [ 49.833984, 47.635784 ] } }
{ "type": "Feature", "tippecanoe": { "layer": "2AFCA13B3C501583918404110", "minzoom": 2, "maxzoom": 8 }, "properties": { "halo": 0.8, "title": "萨迦蒂安文化", "fontsize": 12, "tyid": "304002", "oid": "103:1576575201964", "color": "#262626" }, "geometry": { "type": "Point", "coordinates": [ 63.105469, 54.367759 ] } }
{ "type": "Feature", "tippecanoe": { "layer": "2AFCA13B3C501583918404110", "minzoom": 2, "maxzoom": 8 }, "properties": { "halo": 0.8, "title": "斯基泰人", "fontsize": 12, "tyid": "304001", "oid": "103:1576575202007", "color": "#262626" }, "geometry": { "type": "Point", "coordinates": [ 63.544922, 49.325122 ] } }
{ "type": "Feature", "tippecanoe": { "layer": "2AFCA13B3C501583918404110", "minzoom": 2, "maxzoom": 8 }, "properties": { "halo": 0.8, "title": "马萨格泰人", "fontsize": 12, "tyid": "304001", "oid": "103:1576575202139", "color": "#262626" }, "geometry": { "type": "Point", "coordinates": [ 63.017578, 46.195042 ] } }
{ "type": "Feature", "tippecanoe": { "layer": "2AFCA13B3C501583918404110", "minzoom": 2, "maxzoom": 8 }, "properties": { "halo": 0.8, "title": "乌戈尔人", "fontsize": 12, "tyid": "304001", "oid": "103:1576575202097", "color": "#262626" }, "geometry": { "type": "Point", "coordinates": [ 77.080078, 57.088515 ] } }
{ "type": "Feature", "tippecanoe": { "layer": "2AFCA13B3C501583918404110", "minzoom": 2, "maxzoom": 8 }, "properties": { "halo": 0.8, "title": "库莱文化", "fontsize": 12, "tyid": "304002", "oid": "103:1576575202251", "color": "#262626" }, "geometry": { "type": "Point", "coordinates": [ 84.111328, 59.130863 ] } }
{ "type": "Feature", "tippecanoe": { "layer": "2AFCA13B3C501583918404110", "minzoom": 2, "maxzoom": 8 }, "properties": { "halo": 0.8, "title": "塔斯莫拉文化", "fontsize": 12, "tyid": "304002", "oid": "103:1576575202483", "color": "#262626" }, "geometry": { "type": "Point", "coordinates": [ 74.619141, 48.806863 ] } }
{ "type": "Feature", "tippecanoe": { "layer": "2AFCA13B3C501583918404110", "minzoom": 2, "maxzoom": 8 }, "properties": { "halo": 0.8, "title": "塔加尔文化", "fontsize": 12, "tyid": "304002", "oid": "103:1576575202149", "color": "#262626" }, "geometry": { "type": "Point", "coordinates": [ 83.496094, 51.998410 ] } }
{ "type": "Feature", "tippecanoe": { "layer": "2AFCA13B3C501583918404110", "minzoom": 2, "maxzoom": 8 }, "properties": { "halo": 0.8, "title": "呼揭", "fontsize": 12, "tyid": "304001", "oid": "103:1576575202159", "color": "#262626" }, "geometry": { "type": "Point", "coordinates": [ 88.417969, 47.457809 ] } }
{ "type": "Feature", "tippecanoe": { "layer": "2AFCA13B3C501583918404110", "minzoom": 2, "maxzoom": 8 }, "properties": { "halo": 0.8, "title": "塞琉古帝国", "fontsize": 12, "tyid": "304000", "oid": "103:1576575201915", "color": "#202020" }, "geometry": { "type": "Point", "coordinates": [ 54.404297, 33.284620 ] } }
{ "type": "Feature", "tippecanoe": { "layer": "2AFCA13B3C501583918404110", "minzoom": 2, "maxzoom": 8 }, "properties": { "halo": 0.8, "title": "贝都因人", "fontsize": 12, "tyid": "304001", "oid": "103:1576575201916", "color": "#262626" }, "geometry": { "type": "Point", "coordinates": [ 49.482422, 22.024546 ] } }
{ "type": "Feature", "tippecanoe": { "layer": "2AFCA13B3C501583918404110", "minzoom": 2, "maxzoom": 8 }, "properties": { "halo": 0.8, "title": "马克鲁比亚王国", "fontsize": 12, "tyid": "304000", "oid": "103:1576575202122", "color": "#202020" }, "geometry": { "type": "Point", "coordinates": [ 49.130859, 9.102097 ] } }
{ "type": "Feature", "tippecanoe": { "layer": "2AFCA13B3C501583918404110", "minzoom": 2, "maxzoom": 8 }, "properties": { "halo": 0.8, "title": "粟特人", "fontsize": 12, "tyid": "304001", "oid": "103:1576575202167", "color": "#262626" }, "geometry": { "type": "Point", "coordinates": [ 73.125000, 38.822591 ] } }
{ "type": "Feature", "tippecanoe": { "layer": "2AFCA13B3C501583918404110", "minzoom": 2, "maxzoom": 8 }, "properties": { "halo": 0.8, "title": "孔雀帝国", "fontsize": 12, "tyid": "304000", "oid": "103:1576575201913", "color": "#202020" }, "geometry": { "type": "Point", "coordinates": [ 75.410156, 24.926295 ] } }
{ "type": "Feature", "tippecanoe": { "layer": "2AFCA13B3C501583918404110", "minzoom": 2, "maxzoom": 8 }, "properties": { "halo": 0.8, "title": "象雄王国", "fontsize": 12, "tyid": "304000", "oid": "103:1576575202059", "color": "#202020" }, "geometry": { "type": "Point", "coordinates": [ 82.089844, 31.802893 ] } }
{ "type": "Feature", "tippecanoe": { "layer": "2AFCA13B3C501583918404110", "minzoom": 2, "maxzoom": 8 }, "properties": { "halo": 0.8, "title": "坚昆", "fontsize": 12, "tyid": "304001", "oid": "103:1576575202326", "color": "#262626" }, "geometry": { "type": "Point", "coordinates": [ 95.449219, 54.470038 ] } }
{ "type": "Feature", "tippecanoe": { "layer": "2AFCA13B3C501583918404110", "minzoom": 2, "maxzoom": 8 }, "properties": { "halo": 0.8, "title": "丁零", "fontsize": 12, "tyid": "304001", "oid": "103:1576575202438", "color": "#262626" }, "geometry": { "type": "Point", "coordinates": [ 109.687500, 52.536273 ] } }
{ "type": "Feature", "tippecanoe": { "layer": "2AFCA13B3C501583918404110", "minzoom": 2, "maxzoom": 8 }, "properties": { "halo": 0.8, "title": "匈奴诸部", "fontsize": 12, "tyid": "304001", "oid": "103:1576575202301", "color": "#262626" }, "geometry": { "type": "Point", "coordinates": [ 105.468750, 45.583290 ] } }
{ "type": "Feature", "tippecanoe": { "layer": "2AFCA13B3C501583918404110", "minzoom": 2, "maxzoom": 8 }, "properties": { "halo": 0.8, "title": "通古斯人", "fontsize": 12, "tyid": "304001", "oid": "103:1576575202117", "color": "#262626" }, "geometry": { "type": "Point", "coordinates": [ 116.982422, 60.326948 ] } }
{ "type": "Feature", "tippecanoe": { "layer": "2AFCA13B3C501583918404110", "minzoom": 2, "maxzoom": 8 }, "properties": { "halo": 0.8, "title": "东胡", "fontsize": 12, "tyid": "304001", "oid": "103:1576575202087", "color": "#262626" }, "geometry": { "type": "Point", "coordinates": [ 118.476562, 47.219568 ] } }
{ "type": "Feature", "tippecanoe": { "layer": "2AFCA13B3C501583918404110", "minzoom": 2, "maxzoom": 8 }, "properties": { "halo": 0.8, "title": "濊貊", "fontsize": 12, "tyid": "304001", "oid": "103:1576575202441", "color": "#262626" }, "geometry": { "type": "Point", "coordinates": [ 126.210938, 42.098222 ] } }
{ "type": "Feature", "tippecanoe": { "layer": "2AFCA13B3C501583918404110", "minzoom": 2, "maxzoom": 8 }, "properties": { "halo": 0.8, "title": "肃慎", "fontsize": 12, "tyid": "304001", "oid": "103:1576575202077", "color": "#262626" }, "geometry": { "type": "Point", "coordinates": [ 132.275391, 47.040182 ] } }
{ "type": "Feature", "tippecanoe": { "layer": "2AFCA13B3C501583918404110", "minzoom": 2, "maxzoom": 8 }, "properties": { "halo": 0.8, "title": "苏毗", "fontsize": 12, "tyid": "304001", "oid": "103:1576575201961", "color": "#262626" }, "geometry": { "type": "Point", "coordinates": [ 93.603516, 33.137551 ] } }
{ "type": "Feature", "tippecanoe": { "layer": "2AFCA13B3C501583918404110", "minzoom": 2, "maxzoom": 8 }, "properties": { "halo": 0.8, "title": "月氏", "fontsize": 12, "tyid": "304001", "oid": "103:1576575202192", "color": "#262626" }, "geometry": { "type": "Point", "coordinates": [ 100.986328, 38.822591 ] } }
{ "type": "Feature", "tippecanoe": { "layer": "2AFCA13B3C501583918404110", "minzoom": 2, "maxzoom": 8 }, "properties": { "halo": 0.8, "title": "古羌人", "fontsize": 12, "tyid": "304001", "oid": "103:1576575201925", "color": "#262626" }, "geometry": { "type": "Point", "coordinates": [ 100.195312, 32.694866 ] } }
{ "type": "Feature", "tippecanoe": { "layer": "2AFCA13B3C501583918404110", "minzoom": 2, "maxzoom": 8 }, "properties": { "halo": 0.8, "title": "哀牢国", "fontsize": 12, "tyid": "304000", "oid": "103:1576575202226", "color": "#202020" }, "geometry": { "type": "Point", "coordinates": [ 100.283203, 22.755921 ] } }
{ "type": "Feature", "tippecanoe": { "layer": "2AFCA13B3C501583918404110", "minzoom": 2, "maxzoom": 8 }, "properties": { "halo": 0.8, "title": "秦", "fontsize": 12, "tyid": "304000", "oid": "103:1576575202477", "color": "#202020" }, "geometry": { "type": "Point", "coordinates": [ 108.808594, 32.916485 ] } }
{ "type": "Feature", "tippecanoe": { "layer": "2AFCA13B3C501583918404110", "minzoom": 2, "maxzoom": 8 }, "properties": { "halo": 0.8, "title": "西瓯", "fontsize": 12, "tyid": "304001", "oid": "103:1576575202517", "color": "#262626" }, "geometry": { "type": "Point", "coordinates": [ 108.808594, 23.483401 ] } }
{ "type": "Feature", "tippecanoe": { "layer": "2AFCA13B3C501583918404110", "minzoom": 2, "maxzoom": 8 }, "properties": { "halo": 0.8, "title": "燕", "fontsize": 12, "tyid": "304000", "oid": "103:1576575201986", "color": "#202020" }, "geometry": { "type": "Point", "coordinates": [ 117.685547, 40.780541 ] } }
{ "type": "Feature", "tippecanoe": { "layer": "2AFCA13B3C501583918404110", "minzoom": 2, "maxzoom": 8 }, "properties": { "halo": 0.8, "title": "楚", "fontsize": 12, "tyid": "304000", "oid": "103:1576575202447", "color": "#202020" }, "geometry": { "type": "Point", "coordinates": [ 116.191406, 30.372875 ] } }
{ "type": "Feature", "tippecanoe": { "layer": "2AFCA13B3C501583918404110", "minzoom": 2, "maxzoom": 8 }, "properties": { "halo": 0.8, "title": "南岛人", "fontsize": 12, "tyid": "304001", "oid": "103:1576575202231", "color": "#262626" }, "geometry": { "type": "Point", "coordinates": [ 114.169922, 0.878872 ] } }
{ "type": "Feature", "tippecanoe": { "layer": "2AFCA13B3C501583918404110", "minzoom": 2, "maxzoom": 8 }, "properties": { "halo": 0.8, "title": "尤卡吉尔人", "fontsize": 12, "tyid": "304001", "oid": "103:1576575202502", "color": "#262626" }, "geometry": { "type": "Point", "coordinates": [ 155.214844, 64.886265 ] } }
{ "type": "Feature", "tippecanoe": { "layer": "2AFCA13B3C501583918404110", "minzoom": 2, "maxzoom": 8 }, "properties": { "halo": 0.8, "title": "尼夫赫人", "fontsize": 12, "tyid": "304001", "oid": "103:1576575202108", "color": "#262626" }, "geometry": { "type": "Point", "coordinates": [ 138.779297, 51.890054 ] } }
{ "type": "Feature", "tippecanoe": { "layer": "2AFCA13B3C501583918404110", "minzoom": 2, "maxzoom": 8 }, "properties": { "halo": 0.8, "title": "科里亚克族", "fontsize": 12, "tyid": "304001", "oid": "103:1576575202419", "color": "#262626" }, "geometry": { "type": "Point", "coordinates": [ 166.728516, 62.021528 ] } }
{ "type": "Feature", "tippecanoe": { "layer": "2AFCA13B3C501583918404110", "minzoom": 2, "maxzoom": 8 }, "properties": { "halo": 0.8, "title": "楚科奇人", "fontsize": 12, "tyid": "304001", "oid": "103:1576575202421", "color": "#262626" }, "geometry": { "type": "Point", "coordinates": [ 171.035156, 66.443107 ] } }
{ "type": "Feature", "tippecanoe": { "layer": "2AFCA13B3C501583918404110", "minzoom": 2, "maxzoom": 8 }, "properties": { "halo": 0.8, "title": "弥生人", "fontsize": 12, "tyid": "304001", "oid": "103:1576575202075", "color": "#262626" }, "geometry": { "type": "Point", "coordinates": [ 139.218750, 36.668419 ] } }
{ "type": "Feature", "tippecanoe": { "layer": "2AFCA13B3C501583918404110", "minzoom": 2, "maxzoom": 8 }, "properties": { "halo": 0.8, "title": "西北班图人诸部", "fontsize": 12, "tyid": "304001", "oid": "103:1576575202120", "color": "#262626" }, "geometry": { "type": "Point", "coordinates": [ 20.742188, -0.527336 ] } }
{ "type": "Feature", "tippecanoe": { "layer": "2AFCA13B3C501583918404110", "minzoom": 2, "maxzoom": 8 }, "properties": { "halo": 0.8, "title": "西班图人诸部", "fontsize": 12, "tyid": "304001", "oid": "103:1576575202027", "color": "#262626" }, "geometry": { "type": "Point", "coordinates": [ 21.972656, -8.494105 ] } }
{ "type": "Feature", "tippecanoe": { "layer": "2AFCA13B3C501583918404110", "minzoom": 2, "maxzoom": 8 }, "properties": { "halo": 0.8, "title": "东班图人诸部", "fontsize": 12, "tyid": "304001", "oid": "103:1576575202026", "color": "#262626" }, "geometry": { "type": "Point", "coordinates": [ 34.453125, -8.146243 ] } }
{ "type": "Feature", "tippecanoe": { "layer": "2AFCA13B3C501583918404110", "minzoom": 2, "maxzoom": 8 }, "properties": { "halo": 0.8, "title": "科伊桑人", "fontsize": 12, "tyid": "304001", "oid": "103:1576575202023", "color": "#262626" }, "geometry": { "type": "Point", "coordinates": [ 23.466797, -22.350076 ] } }
{ "type": "Feature", "tippecanoe": { "layer": "2AFCA13B3C501583918404110", "minzoom": 2, "maxzoom": 8 }, "properties": { "halo": 0.8, "title": "澳洲原住民", "fontsize": 12, "tyid": "304001", "oid": "103:1576575202384", "color": "#262626" }, "geometry": { "type": "Point", "coordinates": [ 134.296875, -25.562265 ] } }
{ "type": "Feature", "tippecanoe": { "layer": "2AFCA13B3C501583918404110", "minzoom": 2, "maxzoom": 8 }, "properties": { "halo": 0.8, "title": "巴布亚人", "fontsize": 12, "tyid": "304001", "oid": "103:1576575202195", "color": "#262626" }, "geometry": { "type": "Point", "coordinates": [ 140.888672, -5.266008 ] } }
{ "type": "Feature", "tippecanoe": { "layer": "2AFCA13B3F281583918404114", "minzoom": 2, "maxzoom": 8 }, "properties": { "halo": 0.2, "title": "冶炼遗址", "fontsize": 12, "offset": "[0,2]", "icon": "door", "oid": "103:1543409311214", "color": "#A44900", "tyid": "306002" }, "geometry": { "type": "Point", "coordinates": [ 114.433594, 36.668419 ] } }
{ "type": "Feature", "tippecanoe": { "layer": "2AFCA13B3F281583918404114", "minzoom": 2, "maxzoom": 8 }, "properties": { "halo": 0.2, "title": "冶炼遗址", "fontsize": 12, "offset": "[0,2]", "icon": "door", "oid": "103:1543409311212", "color": "#A44900", "tyid": "306002" }, "geometry": { "type": "Point", "coordinates": [ 114.433594, 36.668419 ] } }
{ "type": "Feature", "tippecanoe": { "layer": "2AFCA13B3F281583918404114", "minzoom": 2, "maxzoom": 8 }, "properties": { "halo": 0.2, "title": "城门", "fontsize": 12, "offset": "[0,2]", "icon": "door", "oid": "103:1543409311229", "color": "#A44900", "tyid": "306000" }, "geometry": { "type": "Point", "coordinates": [ 114.345703, 36.597889 ] } }
{ "type": "Feature", "tippecanoe": { "layer": "2AFCA13B3F281583918404114", "minzoom": 2, "maxzoom": 8 }, "properties": { "halo": 0.2, "title": "城门", "fontsize": 12, "offset": "[0,2]", "icon": "door", "oid": "103:1543409311230", "color": "#A44900", "tyid": "306000" }, "geometry": { "type": "Point", "coordinates": [ 114.345703, 36.597889 ] } }
{ "type": "Feature", "tippecanoe": { "layer": "2AFCA13B3F281583918404114", "minzoom": 2, "maxzoom": 8 }, "properties": { "halo": 0.2, "title": "城门", "fontsize": 12, "offset": "[0,2]", "icon": "door", "oid": "103:1543409311232", "color": "#A44900", "tyid": "306000" }, "geometry": { "type": "Point", "coordinates": [ 114.345703, 36.597889 ] } }
{ "type": "Feature", "tippecanoe": { "layer": "2AFCA13B3F281583918404114", "minzoom": 2, "maxzoom": 8 }, "properties": { "halo": 0.2, "title": "城门", "fontsize": 12, "offset": "[0,2]", "icon": "door", "oid": "103:1543409311234", "color": "#A44900", "tyid": "306000" }, "geometry": { "type": "Point", "coordinates": [ 114.345703, 36.597889 ] } }
{ "type": "Feature", "tippecanoe": { "layer": "2AFCA13B3F281583918404114", "minzoom": 2, "maxzoom": 8 }, "properties": { "halo": 0.2, "title": "城门", "fontsize": 12, "offset": "[0,2]", "icon": "door", "oid": "103:1543409311221", "color": "#A44900", "tyid": "306000" }, "geometry": { "type": "Point", "coordinates": [ 114.433594, 36.597889 ] } }
{ "type": "Feature", "tippecanoe": { "layer": "2AFCA13B3F281583918404114", "minzoom": 2, "maxzoom": 8 }, "properties": { "halo": 0.2, "title": "城门", "fontsize": 12, "offset": "[0,2]", "icon": "door", "oid": "103:1543409311223", "color": "#A44900", "tyid": "306000" }, "geometry": { "type": "Point", "coordinates": [ 114.433594, 36.597889 ] } }
{ "type": "Feature", "tippecanoe": { "layer": "2AFCA13B3F281583918404114", "minzoom": 2, "maxzoom": 8 }, "properties": { "halo": 0.2, "title": "城门", "fontsize": 12, "offset": "[0,2]", "icon": "door", "oid": "103:1543409311225", "color": "#A44900", "tyid": "306000" }, "geometry": { "type": "Point", "coordinates": [ 114.433594, 36.597889 ] } }
{ "type": "Feature", "tippecanoe": { "layer": "2AFCA13B3F281583918404114", "minzoom": 2, "maxzoom": 8 }, "properties": { "halo": 0.2, "title": "城门", "fontsize": 12, "offset": "[0,2]", "icon": "door", "oid": "103:1543409311227", "color": "#A44900", "tyid": "306000" }, "geometry": { "type": "Point", "coordinates": [ 114.433594, 36.597889 ] } }
{ "type": "Feature", "tippecanoe": { "layer": "2AFCA13B3F281583918404114", "minzoom": 2, "maxzoom": 8 }, "properties": { "halo": 0.2, "title": "城门", "fontsize": 12, "offset": "[0,2]", "icon": "door", "oid": "103:1543409311220", "color": "#A44900", "tyid": "306000" }, "geometry": { "type": "Point", "coordinates": [ 114.433594, 36.597889 ] } }
{ "type": "Feature", "tippecanoe": { "layer": "2AFCA13B3F281583918404114", "minzoom": 2, "maxzoom": 8 }, "properties": { "halo": 0.2, "title": "城门", "fontsize": 12, "offset": "[0,2]", "icon": "door", "oid": "103:1543409311218", "color": "#A44900", "tyid": "306000" }, "geometry": { "type": "Point", "coordinates": [ 114.433594, 36.597889 ] } }
{ "type": "Feature", "tippecanoe": { "layer": "2AFCA13B3F281583918404114", "minzoom": 2, "maxzoom": 8 }, "properties": { "halo": 0.2, "title": "冶炼遗址", "fontsize": 12, "offset": "[0,2]", "icon": "door", "oid": "103:1543409311216", "color": "#A44900", "tyid": "306002" }, "geometry": { "type": "Point", "coordinates": [ 114.433594, 36.597889 ] } }
{ "type": "Feature", "tippecanoe": { "layer": "2AFCA19BC2E81583918404119", "minzoom": 2, "maxzoom": 8 }, "properties": { "halo": 1.6, "title": "拉霍亚文化", "fontsize": 12, "tyid": "304002", "oid": "103:1576575202241", "color": "#0056E7" }, "geometry": { "type": "Point", "coordinates": [ -118.916016, 34.597042 ] } }
{ "type": "Feature", "tippecanoe": { "layer": "2AFCA19BC2E81583918404119", "minzoom": 2, "maxzoom": 8 }, "properties": { "halo": 1.6, "title": "古普韦布洛人", "fontsize": 12, "tyid": "304001", "oid": "103:1576575202414", "color": "#0056E7" }, "geometry": { "type": "Point", "coordinates": [ -110.126953, 36.949892 ] } }
{ "type": "Feature", "tippecanoe": { "layer": "2AFCA19BC2E81583918404119", "minzoom": 2, "maxzoom": 8 }, "properties": { "halo": 1.6, "title": "科奇斯文化", "fontsize": 12, "tyid": "304002", "oid": "103:1576575202232", "color": "#0056E7" }, "geometry": { "type": "Point", "coordinates": [ -110.039062, 32.249974 ] } }
{ "type": "Feature", "tippecanoe": { "layer": "2AFCA19BC2E81583918404119", "minzoom": 2, "maxzoom": 8 }, "properties": { "halo": 1.6, "title": "奇瓦瓦文化", "fontsize": 12, "tyid": "304002", "oid": "103:1576575202169", "color": "#0056E7" }, "geometry": { "type": "Point", "coordinates": [ -107.226562, 32.768800 ] } }
{ "type": "Feature", "tippecanoe": { "layer": "2AFCA19BC2E81583918404119", "minzoom": 2, "maxzoom": 8 }, "properties": { "halo": 1.6, "title": "奥沙拉文化", "fontsize": 12, "tyid": "304002", "oid": "103:1576575202071", "color": "#0056E7" }, "geometry": { "type": "Point", "coordinates": [ -106.699219, 37.579413 ] } }
{ "type": "Feature", "tippecanoe": { "layer": "2AFCA19BC2E81583918404119", "minzoom": 2, "maxzoom": 8 }, "properties": { "halo": 1.6, "title": "瓜伊库拉人", "fontsize": 12, "tyid": "304001", "oid": "103:1576575201976", "color": "#0056E7" }, "geometry": { "type": "Point", "coordinates": [ -111.269531, 24.846565 ] } }
{ "type": "Feature", "tippecanoe": { "layer": "2AFCA19BC2E81583918404119", "minzoom": 2, "maxzoom": 8 }, "properties": { "halo": 1.6, "title": "福切马里尼文化", "fontsize": 12, "tyid": "304002", "oid": "103:1576575202338", "color": "#0056E7" }, "geometry": { "type": "Point", "coordinates": [ -94.306641, 33.358062 ] } }
{ "type": "Feature", "tippecanoe": { "layer": "2AFCA19BC2E81583918404119", "minzoom": 2, "maxzoom": 8 }, "properties": { "halo": 1.6, "title": "楚拉时期", "fontsize": 12, "tyid": "304002", "oid": "103:1576575202249", "color": "#0056E7" }, "geometry": { "type": "Point", "coordinates": [ -92.021484, 32.472695 ] } }
{ "type": "Feature", "tippecanoe": { "layer": "2AFCA19BC2E81583918404119", "minzoom": 2, "maxzoom": 8 }, "properties": { "halo": 1.6, "title": "华斯塔克文明", "fontsize": 12, "tyid": "304002", "oid": "103:1576575202244", "color": "#0056E7" }, "geometry": { "type": "Point", "coordinates": [ -98.613281, 22.105999 ] } }
{ "type": "Feature", "tippecanoe": { "layer": "2AFCA19BC2E81583918404119", "minzoom": 2, "maxzoom": 8 }, "properties": { "halo": 1.6, "title": "奇蒂玛察人", "fontsize": 12, "tyid": "304001", "oid": "103:1576575202479", "color": "#0056E7" }, "geometry": { "type": "Point", "coordinates": [ -91.054688, 30.372875 ] } }
{ "type": "Feature", "tippecanoe": { "layer": "2AFCA19BC2E81583918404119", "minzoom": 2, "maxzoom": 8 }, "properties": { "halo": 1.6, "title": "特切特兰文化", "fontsize": 12, "tyid": "304002", "oid": "103:1576575202321", "color": "#0056E7" }, "geometry": { "type": "Point", "coordinates": [ -104.326172, 20.468189 ] } }
{ "type": "Feature", "tippecanoe": { "layer": "2AFCA19BC2E81583918404119", "minzoom": 2, "maxzoom": 8 }, "properties": { "halo": 1.6, "title": "埃尔欧朋文化", "fontsize": 12, "tyid": "304002", "oid": "103:1576575202319", "color": "#0056E7" }, "geometry": { "type": "Point", "coordinates": [ -101.865234, 19.642588 ] } }
{ "type": "Feature", "tippecanoe": { "layer": "2AFCA19BC2E81583918404119", "minzoom": 2, "maxzoom": 8 }, "properties": { "halo": 1.6, "title": "梅斯卡拉文化", "fontsize": 12, "tyid": "304002", "oid": "103:1576575201936", "color": "#0056E7" }, "geometry": { "type": "Point", "coordinates": [ -100.810547, 17.895114 ] } }
{ "type": "Feature", "tippecanoe": { "layer": "2AFCA19BC2E81583918404119", "minzoom": 2, "maxzoom": 8 }, "properties": { "halo": 1.6, "title": "萨波特克文明", "fontsize": 12, "tyid": "304002", "oid": "103:1576575202292", "color": "#0056E7" }, "geometry": { "type": "Point", "coordinates": [ -96.064453, 16.636192 ] } }
{ "type": "Feature", "tippecanoe": { "layer": "2AFCA19BC2E81583918404119", "minzoom": 2, "maxzoom": 8 }, "properties": { "halo": 1.6, "title": "德普特福德文化", "fontsize": 12, "tyid": "304002", "oid": "103:1576575202497", "color": "#0056E7" }, "geometry": { "type": "Point", "coordinates": [ -79.628906, 33.358062 ] } }
{ "type": "Feature", "tippecanoe": { "layer": "2AFCA19BC2E81583918404119", "minzoom": 2, "maxzoom": 8 }, "properties": { "halo": 1.6, "title": "切格文特文化", "fontsize": 12, "tyid": "304002", "oid": "103:1576575201942", "color": "#0056E7" }, "geometry": { "type": "Point", "coordinates": [ -89.208984, 30.600094 ] } }
{ "type": "Feature", "tippecanoe": { "layer": "2AFCA19BC2E81583918404119", "minzoom": 2, "maxzoom": 8 }, "properties": { "halo": 1.6, "title": "玛雅文明[前古典时期]", "fontsize": 12, "tyid": "304002", "oid": "103:1576575202463", "color": "#0056E7" }, "geometry": { "type": "Point", "coordinates": [ -89.296875, 17.140790 ] } }
{ "type": "Feature", "tippecanoe": { "layer": "2AFCA19BC2E81583918404119", "minzoom": 2, "maxzoom": 8 }, "properties": { "halo": 1.6, "title": "拉托利塔文化", "fontsize": 12, "tyid": "304002", "oid": "103:1576575202222", "color": "#0056E7" }, "geometry": { "type": "Point", "coordinates": [ -78.046875, 1.757537 ] } }
{ "type": "Feature", "tippecanoe": { "layer": "2AFCA19BC2E81583918404119", "minzoom": 2, "maxzoom": 8 }, "properties": { "halo": 1.6, "title": "埃雷拉时期", "fontsize": 12, "tyid": "304002", "oid": "103:1576575202272", "color": "#0056E7" }, "geometry": { "type": "Point", "coordinates": [ -73.476562, 5.441022 ] } }
{ "type": "Feature", "tippecanoe": { "layer": "2AFCA19BC2E81583918404119", "minzoom": 2, "maxzoom": 8 }, "properties": { "halo": 1.6, "title": "伊奈里人", "fontsize": 12, "tyid": "304001", "oid": "103:1576575202469", "color": "#0056E7" }, "geometry": { "type": "Point", "coordinates": [ -61.787109, 8.754795 ] } }
{ "type": "Feature", "tippecanoe": { "layer": "2AFCA19BC2E81583918404119", "minzoom": 2, "maxzoom": 8 }, "properties": { "halo": 1.6, "title": "皮克特人", "fontsize": 12, "tyid": "304001", "oid": "103:1576575202113", "color": "#0056E7" }, "geometry": { "type": "Point", "coordinates": [ -4.042969, 56.704506 ] } }
{ "type": "Feature", "tippecanoe": { "layer": "2AFCA19BC2E81583918404119", "minzoom": 2, "maxzoom": 8 }, "properties": { "halo": 1.6, "title": "盖尔人", "fontsize": 12, "tyid": "304001", "oid": "103:1576575202391", "color": "#0056E7" }, "geometry": { "type": "Point", "coordinates": [ -7.910156, 53.435719 ] } }
{ "type": "Feature", "tippecanoe": { "layer": "2AFCA19BC2E81583918404119", "minzoom": 2, "maxzoom": 8 }, "properties": { "halo": 1.6, "title": "加利西亚人", "fontsize": 12, "tyid": "304001", "oid": "103:1576575202141", "color": "#0056E7" }, "geometry": { "type": "Point", "coordinates": [ -7.998047, 42.488302 ] } }
{ "type": "Feature", "tippecanoe": { "layer": "2AFCA19BC2E81583918404119", "minzoom": 2, "maxzoom": 8 }, "properties": { "halo": 1.6, "title": "阿斯图尔人", "fontsize": 12, "tyid": "304001", "oid": "103:1576575202538", "color": "#0056E7" }, "geometry": { "type": "Point", "coordinates": [ -6.152344, 42.553080 ] } }
{ "type": "Feature", "tippecanoe": { "layer": "2AFCA19BC2E81583918404119", "minzoom": 2, "maxzoom": 8 }, "properties": { "halo": 1.6, "title": "瓦凯伊人", "fontsize": 12, "tyid": "304001", "oid": "103:1576575202184", "color": "#0056E7" }, "geometry": { "type": "Point", "coordinates": [ -4.658203, 41.640078 ] } }
{ "type": "Feature", "tippecanoe": { "layer": "2AFCA19BC2E81583918404119", "minzoom": 2, "maxzoom": 8 }, "properties": { "halo": 1.6, "title": "阿奎丹人", "fontsize": 12, "tyid": "304001", "oid": "103:1576575202294", "color": "#0056E7" }, "geometry": { "type": "Point", "coordinates": [ -0.175781, 43.834527 ] } }
{ "type": "Feature", "tippecanoe": { "layer": "2AFCA19BC2E81583918404119", "minzoom": 2, "maxzoom": 8 }, "properties": { "halo": 1.6, "title": "卢西塔利亚人", "fontsize": 12, "tyid": "304001", "oid": "103:1576575202181", "color": "#0056E7" }, "geometry": { "type": "Point", "coordinates": [ -7.646484, 40.313043 ] } }
{ "type": "Feature", "tippecanoe": { "layer": "2AFCA19BC2E81583918404119", "minzoom": 2, "maxzoom": 8 }, "properties": { "halo": 1.6, "title": "凯蒂奇人", "fontsize": 12, "tyid": "304001", "oid": "103:1576575202171", "color": "#0056E7" }, "geometry": { "type": "Point", "coordinates": [ -7.646484, 38.959409 ] } }
{ "type": "Feature", "tippecanoe": { "layer": "2AFCA19BC2E81583918404119", "minzoom": 2, "maxzoom": 8 }, "properties": { "halo": 1.6, "title": "维托内人", "fontsize": 12, "tyid": "304001", "oid": "103:1576575202504", "color": "#0056E7" }, "geometry": { "type": "Point", "coordinates": [ -5.800781, 40.313043 ] } }
{ "type": "Feature", "tippecanoe": { "layer": "2AFCA19BC2E81583918404119", "minzoom": 2, "maxzoom": 8 }, "properties": { "halo": 1.6, "title": "西尼特人", "fontsize": 12, "tyid": "304001", "oid": "103:1576575201923", "color": "#0056E7" }, "geometry": { "type": "Point", "coordinates": [ -8.261719, 37.649034 ] } }
{ "type": "Feature", "tippecanoe": { "layer": "2AFCA19BC2E81583918404119", "minzoom": 2, "maxzoom": 8 }, "properties": { "halo": 1.6, "title": "图尔杜利人", "fontsize": 12, "tyid": "304001", "oid": "103:1576575202535", "color": "#0056E7" }, "geometry": { "type": "Point", "coordinates": [ -6.855469, 38.479395 ] } }
{ "type": "Feature", "tippecanoe": { "layer": "2AFCA19BC2E81583918404119", "minzoom": 2, "maxzoom": 8 }, "properties": { "halo": 1.6, "title": "卡佩塔尼人", "fontsize": 12, "tyid": "304001", "oid": "103:1576575202348", "color": "#0056E7" }, "geometry": { "type": "Point", "coordinates": [ -3.955078, 39.977120 ] } }
{ "type": "Feature", "tippecanoe": { "layer": "2AFCA19BC2E81583918404119", "minzoom": 2, "maxzoom": 8 }, "properties": { "halo": 1.6, "title": "图尔德泰尼人", "fontsize": 12, "tyid": "304001", "oid": "103:1576575201979", "color": "#0056E7" }, "geometry": { "type": "Point", "coordinates": [ -5.097656, 37.718590 ] } }
{ "type": "Feature", "tippecanoe": { "layer": "2AFCA19BC2E81583918404119", "minzoom": 2, "maxzoom": 8 }, "properties": { "halo": 1.6, "title": "奥雷塔尼人", "fontsize": 12, "tyid": "304001", "oid": "103:1576575202521", "color": "#0056E7" }, "geometry": { "type": "Point", "coordinates": [ -3.251953, 38.548165 ] } }
{ "type": "Feature", "tippecanoe": { "layer": "2AFCA19BC2E81583918404119", "minzoom": 2, "maxzoom": 8 }, "properties": { "halo": 1.6, "title": "凯尔特伊比利亚人", "fontsize": 12, "tyid": "304001", "oid": "103:1576575201931", "color": "#0056E7" }, "geometry": { "type": "Point", "coordinates": [ -2.197266, 40.780541 ] } }
{ "type": "Feature", "tippecanoe": { "layer": "2AFCA19BC2E81583918404119", "minzoom": 2, "maxzoom": 8 }, "properties": { "halo": 1.6, "title": "巴斯塔尼人", "fontsize": 12, "tyid": "304001", "oid": "103:1576575201993", "color": "#0056E7" }, "geometry": { "type": "Point", "coordinates": [ -2.460938, 37.579413 ] } }
{ "type": "Feature", "tippecanoe": { "layer": "2AFCA19BC2E81583918404119", "minzoom": 2, "maxzoom": 8 }, "properties": { "halo": 1.6, "title": "杰内-杰诺文化一期", "fontsize": 12, "tyid": "304002", "oid": "103:1576575202500", "color": "#0056E7" }, "geometry": { "type": "Point", "coordinates": [ -4.482422, 13.667338 ] } }
{ "type": "Feature", "tippecanoe": { "layer": "2AFCA19BC2E81583918404119", "minzoom": 2, "maxzoom": 8 }, "properties": { "halo": 1.6, "title": "楚真文化", "fontsize": 12, "tyid": "304002", "oid": "103:1576575202048", "color": "#0056E7" }, "geometry": { "type": "Point", "coordinates": [ -70.576172, -16.299051 ] } }
{ "type": "Feature", "tippecanoe": { "layer": "2AFCA19BC2E81583918404119", "minzoom": 2, "maxzoom": 8 }, "properties": { "halo": 1.6, "title": "普卡拉文化", "fontsize": 12, "tyid": "304002", "oid": "103:1576575201984", "color": "#0056E7" }, "geometry": { "type": "Point", "coordinates": [ -69.873047, -14.604847 ] } }
{ "type": "Feature", "tippecanoe": { "layer": "2AFCA19BC2E81583918404119", "minzoom": 2, "maxzoom": 8 }, "properties": { "halo": 1.6, "title": "艾马拉人", "fontsize": 12, "tyid": "304001", "oid": "103:1576575202485", "color": "#0056E7" }, "geometry": { "type": "Point", "coordinates": [ -68.291016, -17.224758 ] } }
{ "type": "Feature", "tippecanoe": { "layer": "2AFCA19BC2E81583918404119", "minzoom": 2, "maxzoom": 8 }, "properties": { "halo": 1.6, "title": "昌戈人", "fontsize": 12, "tyid": "304001", "oid": "103:1576575201952", "color": "#0056E7" }, "geometry": { "type": "Point", "coordinates": [ -69.960938, -23.725012 ] } }
{ "type": "Feature", "tippecanoe": { "layer": "2AFCA19BC2E81583918404119", "minzoom": 2, "maxzoom": 8 }, "properties": { "halo": 1.6, "title": "阿拉米托文化", "fontsize": 12, "tyid": "304002", "oid": "103:1576575202175", "color": "#0056E7" }, "geometry": { "type": "Point", "coordinates": [ -67.851562, -26.588527 ] } }
{ "type": "Feature", "tippecanoe": { "layer": "2AFCA19BC2E81583918404119", "minzoom": 2, "maxzoom": 8 }, "properties": { "halo": 1.6, "title": "埃尔莫尔文化", "fontsize": 12, "tyid": "304002", "oid": "103:1576575201973", "color": "#0056E7" }, "geometry": { "type": "Point", "coordinates": [ -70.927734, -30.675715 ] } }
{ "type": "Feature", "tippecanoe": { "layer": "2AFCA19BC2E81583918404119", "minzoom": 2, "maxzoom": 8 }, "properties": { "halo": 1.6, "title": "安西尔塔文化", "fontsize": 12, "tyid": "304002", "oid": "103:1576575202435", "color": "#0056E7" }, "geometry": { "type": "Point", "coordinates": [ -68.818359, -31.353637 ] } }
{ "type": "Feature", "tippecanoe": { "layer": "2AFCA19BC2E81583918404119", "minzoom": 2, "maxzoom": 8 }, "properties": { "halo": 1.6, "title": "巴托文化", "fontsize": 12, "tyid": "304002", "oid": "103:1576575202352", "color": "#0056E7" }, "geometry": { "type": "Point", "coordinates": [ -70.839844, -33.431441 ] } }
{ "type": "Feature", "tippecanoe": { "layer": "2AFCA19BC2E81583918404119", "minzoom": 2, "maxzoom": 8 }, "properties": { "halo": 1.6, "title": "马普切人", "fontsize": 12, "tyid": "304001", "oid": "103:1576575202170", "color": "#0056E7" }, "geometry": { "type": "Point", "coordinates": [ -71.455078, -38.959409 ] } }
{ "type": "Feature", "tippecanoe": { "layer": "2AFCA19BC2E81583918404119", "minzoom": 2, "maxzoom": 8 }, "properties": { "halo": 1.6, "title": "希德拉里卡文化", "fontsize": 12, "tyid": "304002", "oid": "103:1576575202467", "color": "#0056E7" }, "geometry": { "type": "Point", "coordinates": [ -66.005859, -12.297068 ] } }
{ "type": "Feature", "tippecanoe": { "layer": "2AFCA19BC2E81583918404119", "minzoom": 2, "maxzoom": 8 }, "properties": { "halo": 1.6, "title": "摩克索人", "fontsize": 12, "tyid": "304001", "oid": "103:1576575202405", "color": "#0056E7" }, "geometry": { "type": "Point", "coordinates": [ -65.830078, -13.923404 ] } }
{ "type": "Feature", "tippecanoe": { "layer": "2AFCA19BC2E81583918404119", "minzoom": 2, "maxzoom": 8 }, "properties": { "halo": 1.6, "title": "瓦卡拉尼文化", "fontsize": 12, "tyid": "304002", "oid": "103:1576575202186", "color": "#0056E7" }, "geometry": { "type": "Point", "coordinates": [ -64.951172, -17.811456 ] } }
{ "type": "Feature", "tippecanoe": { "layer": "2AFCA19BC2E81583918404119", "minzoom": 2, "maxzoom": 8 }, "properties": { "halo": 1.6, "title": "康多拉瓦西文化", "fontsize": 12, "tyid": "304002", "oid": "103:1576575202129", "color": "#0056E7" }, "geometry": { "type": "Point", "coordinates": [ -66.708984, -27.293689 ] } }
{ "type": "Feature", "tippecanoe": { "layer": "2AFCA19BC2E81583918404119", "minzoom": 2, "maxzoom": 8 }, "properties": { "halo": 1.6, "title": "拉斯梅塞德斯文化", "fontsize": 12, "tyid": "304002", "oid": "103:1576575202116", "color": "#0056E7" }, "geometry": { "type": "Point", "coordinates": [ -63.808594, -27.605671 ] } }
{ "type": "Feature", "tippecanoe": { "layer": "2AFCA19BC2E81583918404119", "minzoom": 2, "maxzoom": 8 }, "properties": { "halo": 1.6, "title": "查鲁亚人", "fontsize": 12, "tyid": "304001", "oid": "103:1576575202165", "color": "#0056E7" }, "geometry": { "type": "Point", "coordinates": [ -57.128906, -32.398516 ] } }
{ "type": "Feature", "tippecanoe": { "layer": "2AFCA19BC2E81583918404119", "minzoom": 2, "maxzoom": 8 }, "properties": { "halo": 1.6, "title": "特胡尔切人", "fontsize": 12, "tyid": "304001", "oid": "103:1576575202275", "color": "#0056E7" }, "geometry": { "type": "Point", "coordinates": [ -70.751953, -50.176898 ] } }
{ "type": "Feature", "tippecanoe": { "layer": "2AFCA19BC2E81583918404119", "minzoom": 2, "maxzoom": 8 }, "properties": { "halo": 1.6, "title": "塞尔克南人", "fontsize": 12, "tyid": "304001", "oid": "103:1576575202220", "color": "#0056E7" }, "geometry": { "type": "Point", "coordinates": [ -68.378906, -53.696706 ] } }
{ "type": "Feature", "tippecanoe": { "layer": "2AFCA19BC2E81583918404119", "minzoom": 2, "maxzoom": 8 }, "properties": { "halo": 1.6, "title": "雅干人", "fontsize": 12, "tyid": "304001", "oid": "103:1576575202086", "color": "#0056E7" }, "geometry": { "type": "Point", "coordinates": [ -68.994141, -54.622978 ] } }
{ "type": "Feature", "tippecanoe": { "layer": "2AFCA19BC2E81583918404119", "minzoom": 2, "maxzoom": 8 }, "properties": { "halo": 1.6, "title": "伊勒格泰人", "fontsize": 12, "tyid": "304001", "oid": "103:1576575202457", "color": "#0056E7" }, "geometry": { "type": "Point", "coordinates": [ 0.351562, 42.228517 ] } }
{ "type": "Feature", "tippecanoe": { "layer": "2AFCA19BC2E81583918404119", "minzoom": 2, "maxzoom": 8 }, "properties": { "halo": 1.6, "title": "山内高卢人", "fontsize": 12, "tyid": "304001", "oid": "103:1576575202427", "color": "#0056E7" }, "geometry": { "type": "Point", "coordinates": [ 7.822266, 45.521744 ] } }
{ "type": "Feature", "tippecanoe": { "layer": "2AFCA19BC2E81583918404119", "minzoom": 2, "maxzoom": 8 }, "properties": { "halo": 1.6, "title": "蕾蒂人", "fontsize": 12, "tyid": "304001", "oid": "103:1576575202213", "color": "#0056E7" }, "geometry": { "type": "Point", "coordinates": [ 11.162109, 46.920255 ] } }
{ "type": "Feature", "tippecanoe": { "layer": "2AFCA19BC2E81583918404119", "minzoom": 2, "maxzoom": 8 }, "properties": { "halo": 1.6, "title": "利古里亚人", "fontsize": 12, "tyid": "304002", "oid": "103:1576575202255", "color": "#0056E7" }, "geometry": { "type": "Point", "coordinates": [ 8.173828, 44.527843 ] } }
{ "type": "Feature", "tippecanoe": { "layer": "2AFCA19BC2E81583918404119", "minzoom": 2, "maxzoom": 8 }, "properties": { "halo": 1.6, "title": "西波罗的海坟文化", "fontsize": 12, "tyid": "304002", "oid": "103:1576575202366", "color": "#0056E7" }, "geometry": { "type": "Point", "coordinates": [ 21.708984, 54.213861 ] } }
{ "type": "Feature", "tippecanoe": { "layer": "2AFCA19BC2E81583918404119", "minzoom": 2, "maxzoom": 8 }, "properties": { "halo": 1.6, "title": "普热沃斯克文化", "fontsize": 12, "tyid": "304002", "oid": "103:1576575201954", "color": "#0056E7" }, "geometry": { "type": "Point", "coordinates": [ 21.181641, 50.120578 ] } }
{ "type": "Feature", "tippecanoe": { "layer": "2AFCA19BC2E81583918404119", "minzoom": 2, "maxzoom": 8 }, "properties": { "halo": 1.6, "title": "威尼蒂人[亚得里亚海]", "fontsize": 12, "tyid": "304001", "oid": "103:1576575202401", "color": "#0056E7" }, "geometry": { "type": "Point", "coordinates": [ 12.216797, 45.890008 ] } }
{ "type": "Feature", "tippecanoe": { "layer": "2AFCA19BC2E81583918404119", "minzoom": 2, "maxzoom": 8 }, "properties": { "halo": 1.8, "title": "罗马共和国", "fontsize": 12, "tyid": "304000", "oid": "103:1576575202285", "color": "#0056E7" }, "geometry": { "type": "Point", "coordinates": [ 13.798828, 41.902277 ] } }
{ "type": "Feature", "tippecanoe": { "layer": "2AFCA19BC2E81583918404119", "minzoom": 2, "maxzoom": 8 }, "properties": { "halo": 1.8, "title": "伊利里亚诸王国", "fontsize": 12, "tyid": "304000", "oid": "103:1576575201927", "color": "#0056E7" }, "geometry": { "type": "Point", "coordinates": [ 16.962891, 44.465151 ] } }
{ "type": "Feature", "tippecanoe": { "layer": "2AFCA19BC2E81583918404119", "minzoom": 2, "maxzoom": 8 }, "properties": { "halo": 1.8, "title": "阿尔迪安王国", "fontsize": 12, "tyid": "304000", "oid": "103:1576575202305", "color": "#0056E7" }, "geometry": { "type": "Point", "coordinates": [ 18.984375, 42.617791 ] } }
{ "type": "Feature", "tippecanoe": { "layer": "2AFCA19BC2E81583918404119", "minzoom": 2, "maxzoom": 8 }, "properties": { "halo": 1.6, "title": "潘诺尼亚人", "fontsize": 12, "tyid": "304001", "oid": "103:1576575202324", "color": "#0056E7" }, "geometry": { "type": "Point", "coordinates": [ 19.863281, 44.590467 ] } }
{ "type": "Feature", "tippecanoe": { "layer": "2AFCA19BC2E81583918404119", "minzoom": 2, "maxzoom": 8 }, "properties": { "halo": 1.8, "title": "达尔达尼亚王国", "fontsize": 12, "tyid": "304000", "oid": "103:1576575202135", "color": "#0056E7" }, "geometry": { "type": "Point", "coordinates": [ 21.445312, 42.617791 ] } }
{ "type": "Feature", "tippecanoe": { "layer": "2AFCA19BC2E81583918404119", "minzoom": 2, "maxzoom": 8 }, "properties": { "halo": 1.6, "title": "古爱沙尼亚人", "fontsize": 12, "tyid": "304001", "oid": "103:1576575202284", "color": "#0056E7" }, "geometry": { "type": "Point", "coordinates": [ 25.576172, 58.995311 ] } }
{ "type": "Feature", "tippecanoe": { "layer": "2AFCA19BC2E81583918404119", "minzoom": 2, "maxzoom": 8 }, "properties": { "halo": 1.6, "title": "利沃尼亚人", "fontsize": 12, "tyid": "304001", "oid": "103:1576575202332", "color": "#0056E7" }, "geometry": { "type": "Point", "coordinates": [ 26.279297, 57.231503 ] } }
{ "type": "Feature", "tippecanoe": { "layer": "2AFCA19BC2E81583918404119", "minzoom": 2, "maxzoom": 8 }, "properties": { "halo": 1.6, "title": "沃茨人", "fontsize": 12, "tyid": "304001", "oid": "103:1576575202499", "color": "#0056E7" }, "geometry": { "type": "Point", "coordinates": [ 29.794922, 59.040555 ] } }
{ "type": "Feature", "tippecanoe": { "layer": "2AFCA19BC2E81583918404119", "minzoom": 2, "maxzoom": 8 }, "properties": { "halo": 1.6, "title": "卡累利阿文化", "fontsize": 12, "tyid": "304002", "oid": "103:1576575202144", "color": "#0056E7" }, "geometry": { "type": "Point", "coordinates": [ 34.189453, 63.233627 ] } }
{ "type": "Feature", "tippecanoe": { "layer": "2AFCA19BC2E81583918404119", "minzoom": 2, "maxzoom": 8 }, "properties": { "halo": 1.6, "title": "阴影陶文化", "fontsize": 12, "tyid": "304002", "oid": "103:1576575202156", "color": "#0056E7" }, "geometry": { "type": "Point", "coordinates": [ 24.785156, 55.627996 ] } }
{ "type": "Feature", "tippecanoe": { "layer": "2AFCA19BC2E81583918404119", "minzoom": 2, "maxzoom": 8 }, "properties": { "halo": 1.6, "title": "米洛格勒文化", "fontsize": 12, "tyid": "304002", "oid": "103:1576575202363", "color": "#0056E7" }, "geometry": { "type": "Point", "coordinates": [ 26.718750, 53.435719 ] } }
{ "type": "Feature", "tippecanoe": { "layer": "2AFCA19BC2E81583918404119", "minzoom": 2, "maxzoom": 8 }, "properties": { "halo": 1.6, "title": "维内德人", "fontsize": 12, "tyid": "304001", "oid": "103:1576575202160", "color": "#0056E7" }, "geometry": { "type": "Point", "coordinates": [ 24.609375, 51.234407 ] } }
{ "type": "Feature", "tippecanoe": { "layer": "2AFCA19BC2E81583918404119", "minzoom": 2, "maxzoom": 8 }, "properties": { "halo": 1.8, "title": "泰利斯王国", "fontsize": 12, "tyid": "304000", "oid": "103:1576575202310", "color": "#0056E7" }, "geometry": { "type": "Point", "coordinates": [ 25.136719, 42.098222 ] } }
{ "type": "Feature", "tippecanoe": { "layer": "2AFCA19BC2E81583918404119", "minzoom": 2, "maxzoom": 8 }, "properties": { "halo": 1.8, "title": "奥德里西亚王国", "fontsize": 12, "tyid": "304000", "oid": "103:1576575202309", "color": "#0056E7" }, "geometry": { "type": "Point", "coordinates": [ 26.279297, 43.261206 ] } }
{ "type": "Feature", "tippecanoe": { "layer": "2AFCA19BC2E81583918404119", "minzoom": 2, "maxzoom": 8 }, "properties": { "halo": 1.6, "title": "盖塔人", "fontsize": 12, "tyid": "304001", "oid": "103:1576575202426", "color": "#0056E7" }, "geometry": { "type": "Point", "coordinates": [ 27.246094, 44.213710 ] } }
{ "type": "Feature", "tippecanoe": { "layer": "2AFCA19BC2E81583918404119", "minzoom": 2, "maxzoom": 8 }, "properties": { "halo": 1.6, "title": "帕夫拉哥尼亚独立区", "fontsize": 12, "tyid": "304002", "oid": "103:1576575202004", "color": "#0056E7" }, "geometry": { "type": "Point", "coordinates": [ 33.486328, 41.178654 ] } }
{ "type": "Feature", "tippecanoe": { "layer": "2AFCA19BC2E81583918404119", "minzoom": 2, "maxzoom": 8 }, "properties": { "halo": 1.6, "title": "上奥卡文化", "fontsize": 12, "tyid": "304002", "oid": "103:1576575201905", "color": "#0056E7" }, "geometry": { "type": "Point", "coordinates": [ 37.353516, 53.540307 ] } }
{ "type": "Feature", "tippecanoe": { "layer": "2AFCA19BC2E81583918404119", "minzoom": 2, "maxzoom": 8 }, "properties": { "halo": 1.6, "title": "尤赫诺夫文化", "fontsize": 12, "tyid": "304002", "oid": "103:1576575201939", "color": "#0056E7" }, "geometry": { "type": "Point", "coordinates": [ 34.716797, 52.160455 ] } }
{ "type": "Feature", "tippecanoe": { "layer": "2AFCA19BC2E81583918404119", "minzoom": 2, "maxzoom": 8 }, "properties": { "halo": 1.6, "title": "梅田人", "fontsize": 12, "tyid": "304001", "oid": "103:1576575202034", "color": "#0056E7" }, "geometry": { "type": "Point", "coordinates": [ 38.144531, 45.644768 ] } }
{ "type": "Feature", "tippecanoe": { "layer": "2AFCA19BC2E81583918404119", "minzoom": 2, "maxzoom": 8 }, "properties": { "halo": 1.6, "title": "西雷斯人", "fontsize": 12, "tyid": "304001", "oid": "103:1576575202038", "color": "#0056E7" }, "geometry": { "type": "Point", "coordinates": [ 41.308594, 45.460131 ] } }
{ "type": "Feature", "tippecanoe": { "layer": "2AFCA19BC2E81583918404119", "minzoom": 2, "maxzoom": 8 }, "properties": { "halo": 1.6, "title": "切尔克斯人", "fontsize": 12, "tyid": "304001", "oid": "103:1576575202032", "color": "#0056E7" },