{ "type": "Feature", "tippecanoe": { "layer": "2AFCA14F10F01583918658078", "minzoom": 2, "maxzoom": 8 }, "properties": { "halo": 0.2, "title": "冶炼遗址", "fontsize": 12, "offset": "[0,2]", "icon": "door", "oid": "103:1543409311214", "color": "#A44900", "tyid": "306002" }, "geometry": { "type": "Point", "coordinates": [ 114.433594, 36.668419 ] } }
{ "type": "Feature", "tippecanoe": { "layer": "2AFCA14F10F01583918658078", "minzoom": 2, "maxzoom": 8 }, "properties": { "halo": 0.2, "title": "冶炼遗址", "fontsize": 12, "offset": "[0,2]", "icon": "door", "oid": "103:1543409311212", "color": "#A44900", "tyid": "306002" }, "geometry": { "type": "Point", "coordinates": [ 114.433594, 36.668419 ] } }
{ "type": "Feature", "tippecanoe": { "layer": "2AFCA14F10F01583918658078", "minzoom": 2, "maxzoom": 8 }, "properties": { "halo": 0.2, "title": "城门", "fontsize": 12, "offset": "[0,2]", "icon": "door", "oid": "103:1543409311229", "color": "#A44900", "tyid": "306000" }, "geometry": { "type": "Point", "coordinates": [ 114.345703, 36.597889 ] } }
{ "type": "Feature", "tippecanoe": { "layer": "2AFCA14F10F01583918658078", "minzoom": 2, "maxzoom": 8 }, "properties": { "halo": 0.2, "title": "城门", "fontsize": 12, "offset": "[0,2]", "icon": "door", "oid": "103:1543409311230", "color": "#A44900", "tyid": "306000" }, "geometry": { "type": "Point", "coordinates": [ 114.345703, 36.597889 ] } }
{ "type": "Feature", "tippecanoe": { "layer": "2AFCA14F10F01583918658078", "minzoom": 2, "maxzoom": 8 }, "properties": { "halo": 0.2, "title": "城门", "fontsize": 12, "offset": "[0,2]", "icon": "door", "oid": "103:1543409311232", "color": "#A44900", "tyid": "306000" }, "geometry": { "type": "Point", "coordinates": [ 114.345703, 36.597889 ] } }
{ "type": "Feature", "tippecanoe": { "layer": "2AFCA14F10F01583918658078", "minzoom": 2, "maxzoom": 8 }, "properties": { "halo": 0.2, "title": "城门", "fontsize": 12, "offset": "[0,2]", "icon": "door", "oid": "103:1543409311234", "color": "#A44900", "tyid": "306000" }, "geometry": { "type": "Point", "coordinates": [ 114.345703, 36.597889 ] } }
{ "type": "Feature", "tippecanoe": { "layer": "2AFCA14F10F01583918658078", "minzoom": 2, "maxzoom": 8 }, "properties": { "halo": 0.2, "title": "城门", "fontsize": 12, "offset": "[0,2]", "icon": "door", "oid": "103:1543409311221", "color": "#A44900", "tyid": "306000" }, "geometry": { "type": "Point", "coordinates": [ 114.433594, 36.597889 ] } }
{ "type": "Feature", "tippecanoe": { "layer": "2AFCA14F10F01583918658078", "minzoom": 2, "maxzoom": 8 }, "properties": { "halo": 0.2, "title": "城门", "fontsize": 12, "offset": "[0,2]", "icon": "door", "oid": "103:1543409311223", "color": "#A44900", "tyid": "306000" }, "geometry": { "type": "Point", "coordinates": [ 114.433594, 36.597889 ] } }
{ "type": "Feature", "tippecanoe": { "layer": "2AFCA14F10F01583918658078", "minzoom": 2, "maxzoom": 8 }, "properties": { "halo": 0.2, "title": "城门", "fontsize": 12, "offset": "[0,2]", "icon": "door", "oid": "103:1543409311225", "color": "#A44900", "tyid": "306000" }, "geometry": { "type": "Point", "coordinates": [ 114.433594, 36.597889 ] } }
{ "type": "Feature", "tippecanoe": { "layer": "2AFCA14F10F01583918658078", "minzoom": 2, "maxzoom": 8 }, "properties": { "halo": 0.2, "title": "城门", "fontsize": 12, "offset": "[0,2]", "icon": "door", "oid": "103:1543409311227", "color": "#A44900", "tyid": "306000" }, "geometry": { "type": "Point", "coordinates": [ 114.433594, 36.597889 ] } }
{ "type": "Feature", "tippecanoe": { "layer": "2AFCA14F10F01583918658078", "minzoom": 2, "maxzoom": 8 }, "properties": { "halo": 0.2, "title": "城门", "fontsize": 12, "offset": "[0,2]", "icon": "door", "oid": "103:1543409311220", "color": "#A44900", "tyid": "306000" }, "geometry": { "type": "Point", "coordinates": [ 114.433594, 36.597889 ] } }
{ "type": "Feature", "tippecanoe": { "layer": "2AFCA14F10F01583918658078", "minzoom": 2, "maxzoom": 8 }, "properties": { "halo": 0.2, "title": "城门", "fontsize": 12, "offset": "[0,2]", "icon": "door", "oid": "103:1543409311218", "color": "#A44900", "tyid": "306000" }, "geometry": { "type": "Point", "coordinates": [ 114.433594, 36.597889 ] } }
{ "type": "Feature", "tippecanoe": { "layer": "2AFCA14F10F01583918658078", "minzoom": 2, "maxzoom": 8 }, "properties": { "halo": 0.2, "title": "冶炼遗址", "fontsize": 12, "offset": "[0,2]", "icon": "door", "oid": "103:1543409311216", "color": "#A44900", "tyid": "306002" }, "geometry": { "type": "Point", "coordinates": [ 114.433594, 36.597889 ] } }
{ "type": "Feature", "tippecanoe": { "layer": "2AFCA14F12B01583918658072", "minzoom": 2, "maxzoom": 8 }, "properties": { "halo": 1.6, "title": "古白令海文化", "fontsize": 12, "tyid": "304002", "oid": "103:1576575200893", "color": "#0056E7" }, "geometry": { "type": "Point", "coordinates": [ -170.332031, 63.470145 ] } }
{ "type": "Feature", "tippecanoe": { "layer": "2AFCA14F12B01583918658072", "minzoom": 2, "maxzoom": 8 }, "properties": { "halo": 1.6, "title": "查普卡洛文化", "fontsize": 12, "tyid": "304002", "oid": "103:1576575200848", "color": "#0056E7" }, "geometry": { "type": "Point", "coordinates": [ -99.931641, 20.303418 ] } }
{ "type": "Feature", "tippecanoe": { "layer": "2AFCA14F12B01583918658072", "minzoom": 2, "maxzoom": 8 }, "properties": { "halo": 1.6, "title": "米斯特克人", "fontsize": 12, "tyid": "304001", "oid": "103:1576575200805", "color": "#0056E7" }, "geometry": { "type": "Point", "coordinates": [ -98.349609, 17.224758 ] } }
{ "type": "Feature", "tippecanoe": { "layer": "2AFCA14F12B01583918658072", "minzoom": 2, "maxzoom": 8 }, "properties": { "halo": 1.6, "title": "特里克人", "fontsize": 12, "tyid": "304001", "oid": "103:1576575200944", "color": "#0056E7" }, "geometry": { "type": "Point", "coordinates": [ -97.294922, 17.644022 ] } }
{ "type": "Feature", "tippecanoe": { "layer": "2AFCA14F12B01583918658072", "minzoom": 2, "maxzoom": 8 }, "properties": { "halo": 1.6, "title": "麦克斯人", "fontsize": 12, "tyid": "304001", "oid": "103:1576575200512", "color": "#0056E7" }, "geometry": { "type": "Point", "coordinates": [ -96.328125, 18.062312 ] } }
{ "type": "Feature", "tippecanoe": { "layer": "2AFCA14F12B01583918658072", "minzoom": 2, "maxzoom": 8 }, "properties": { "halo": 1.6, "title": "祖赫人", "fontsize": 12, "tyid": "304001", "oid": "103:1576575200631", "color": "#0056E7" }, "geometry": { "type": "Point", "coordinates": [ -92.021484, 16.045813 ] } }
{ "type": "Feature", "tippecanoe": { "layer": "2AFCA14F12B01583918658072", "minzoom": 2, "maxzoom": 8 }, "properties": { "halo": 1.6, "title": "基切人", "fontsize": 12, "tyid": "304001", "oid": "103:1576575200781", "color": "#0056E7" }, "geometry": { "type": "Point", "coordinates": [ -90.966797, 15.029686 ] } }
{ "type": "Feature", "tippecanoe": { "layer": "2AFCA14F12B01583918658072", "minzoom": 2, "maxzoom": 8 }, "properties": { "halo": 1.6, "title": "阿尔托山文化", "fontsize": 12, "tyid": "304002", "oid": "103:1576575200734", "color": "#0056E7" }, "geometry": { "type": "Point", "coordinates": [ -91.054688, 14.349548 ] } }
{ "type": "Feature", "tippecanoe": { "layer": "2AFCA14F12B01583918658072", "minzoom": 2, "maxzoom": 8 }, "properties": { "halo": 1.6, "title": "玛纳索塔文化", "fontsize": 12, "tyid": "304002", "oid": "103:1576575200918", "color": "#0056E7" }, "geometry": { "type": "Point", "coordinates": [ -82.441406, 27.683528 ] } }
{ "type": "Feature", "tippecanoe": { "layer": "2AFCA14F12B01583918658072", "minzoom": 2, "maxzoom": 8 }, "properties": { "halo": 1.6, "title": "卡卢萨人", "fontsize": 12, "tyid": "304001", "oid": "103:1576575200558", "color": "#0056E7" }, "geometry": { "type": "Point", "coordinates": [ -81.650391, 27.137368 ] } }
{ "type": "Feature", "tippecanoe": { "layer": "2AFCA14F12B01583918658072", "minzoom": 2, "maxzoom": 8 }, "properties": { "halo": 1.6, "title": "圣约翰文化", "fontsize": 12, "tyid": "304002", "oid": "103:1576575200862", "color": "#0056E7" }, "geometry": { "type": "Point", "coordinates": [ -81.474609, 29.382175 ] } }
{ "type": "Feature", "tippecanoe": { "layer": "2AFCA14F12B01583918658072", "minzoom": 2, "maxzoom": 8 }, "properties": { "halo": 1.6, "title": "贝尔格莱德文化", "fontsize": 12, "tyid": "304002", "oid": "103:1576575200693", "color": "#0056E7" }, "geometry": { "type": "Point", "coordinates": [ -80.859375, 27.449790 ] } }
{ "type": "Feature", "tippecanoe": { "layer": "2AFCA14F12B01583918658072", "minzoom": 2, "maxzoom": 8 }, "properties": { "halo": 1.6, "title": "格莱兹文化", "fontsize": 12, "tyid": "304002", "oid": "103:1576575200581", "color": "#0056E7" }, "geometry": { "type": "Point", "coordinates": [ -80.771484, 26.037042 ] } }
{ "type": "Feature", "tippecanoe": { "layer": "2AFCA14F12B01583918658072", "minzoom": 2, "maxzoom": 8 }, "properties": { "halo": 1.6, "title": "雷卡人", "fontsize": 12, "tyid": "304001", "oid": "103:1576575200815", "color": "#0056E7" }, "geometry": { "type": "Point", "coordinates": [ -87.802734, 13.752725 ] } }
{ "type": "Feature", "tippecanoe": { "layer": "2AFCA14F12B01583918658072", "minzoom": 2, "maxzoom": 8 }, "properties": { "halo": 1.6, "title": "格兰科克勒文化", "fontsize": 12, "tyid": "304002", "oid": "103:1576575200819", "color": "#0056E7" }, "geometry": { "type": "Point", "coordinates": [ -80.507812, 8.581021 ] } }
{ "type": "Feature", "tippecanoe": { "layer": "2AFCA14F12B01583918658072", "minzoom": 2, "maxzoom": 8 }, "properties": { "halo": 1.6, "title": "伊拉玛文化", "fontsize": 12, "tyid": "304002", "oid": "103:1576575200748", "color": "#0056E7" }, "geometry": { "type": "Point", "coordinates": [ -76.464844, 3.776559 ] } }
{ "type": "Feature", "tippecanoe": { "layer": "2AFCA14F12B01583918658072", "minzoom": 2, "maxzoom": 8 }, "properties": { "halo": 1.6, "title": "科罗索文化", "fontsize": 12, "tyid": "304002", "oid": "103:1576575200961", "color": "#0056E7" }, "geometry": { "type": "Point", "coordinates": [ -66.533203, 18.229351 ] } }
{ "type": "Feature", "tippecanoe": { "layer": "2AFCA14F12B01583918658072", "minzoom": 2, "maxzoom": 8 }, "properties": { "halo": 1.6, "title": "克鲁姆湾文化", "fontsize": 12, "tyid": "304002", "oid": "103:1576575200897", "color": "#0056E7" }, "geometry": { "type": "Point", "coordinates": [ -64.775391, 17.811456 ] } }
{ "type": "Feature", "tippecanoe": { "layer": "2AFCA14F12B01583918658072", "minzoom": 2, "maxzoom": 8 }, "properties": { "halo": 1.6, "title": "萨拉杜文化", "fontsize": 12, "tyid": "304002", "oid": "103:1576575200463", "color": "#0056E7" }, "geometry": { "type": "Point", "coordinates": [ -61.699219, 16.214675 ] } }
{ "type": "Feature", "tippecanoe": { "layer": "2AFCA14F12B01583918658072", "minzoom": 2, "maxzoom": 8 }, "properties": { "halo": 1.6, "title": "卡斯特罗文化", "fontsize": 12, "tyid": "304002", "oid": "103:1576575200951", "color": "#0056E7" }, "geometry": { "type": "Point", "coordinates": [ -4.394531, 43.068888 ] } }
{ "type": "Feature", "tippecanoe": { "layer": "2AFCA14F12B01583918658072", "minzoom": 2, "maxzoom": 8 }, "properties": { "halo": 1.6, "title": "特罗莫吉人", "fontsize": 12, "tyid": "304001", "oid": "103:1576575200437", "color": "#0056E7" }, "geometry": { "type": "Point", "coordinates": [ -3.691406, 42.228517 ] } }
{ "type": "Feature", "tippecanoe": { "layer": "2AFCA14F12B01583918658072", "minzoom": 2, "maxzoom": 8 }, "properties": { "halo": 1.6, "title": "奥特里冈人", "fontsize": 12, "tyid": "304001", "oid": "103:1576575200705", "color": "#0056E7" }, "geometry": { "type": "Point", "coordinates": [ -3.251953, 42.875964 ] } }
{ "type": "Feature", "tippecanoe": { "layer": "2AFCA14F12B01583918658072", "minzoom": 2, "maxzoom": 8 }, "properties": { "halo": 1.6, "title": "卡斯蒂利人", "fontsize": 12, "tyid": "304001", "oid": "103:1576575200556", "color": "#0056E7" }, "geometry": { "type": "Point", "coordinates": [ -2.812500, 43.068888 ] } }
{ "type": "Feature", "tippecanoe": { "layer": "2AFCA14F12B01583918658072", "minzoom": 2, "maxzoom": 8 }, "properties": { "halo": 1.6, "title": "瓦杜里人", "fontsize": 12, "tyid": "304001", "oid": "103:1576575200422", "color": "#0056E7" }, "geometry": { "type": "Point", "coordinates": [ -2.285156, 42.940339 ] } }
{ "type": "Feature", "tippecanoe": { "layer": "2AFCA14F12B01583918658072", "minzoom": 2, "maxzoom": 8 }, "properties": { "halo": 1.6, "title": "伯罗内人", "fontsize": 12, "tyid": "304001", "oid": "103:1576575200679", "color": "#0056E7" }, "geometry": { "type": "Point", "coordinates": [ -2.548828, 42.293564 ] } }
{ "type": "Feature", "tippecanoe": { "layer": "2AFCA14F12B01583918658072", "minzoom": 2, "maxzoom": 8 }, "properties": { "halo": 1.6, "title": "巴斯克人", "fontsize": 12, "tyid": "304001", "oid": "103:1576575200703", "color": "#0056E7" }, "geometry": { "type": "Point", "coordinates": [ -1.494141, 42.811522 ] } }
{ "type": "Feature", "tippecanoe": { "layer": "2AFCA14F12B01583918658072", "minzoom": 2, "maxzoom": 8 }, "properties": { "halo": 1.6, "title": "伊塞塔尼人", "fontsize": 12, "tyid": "304001", "oid": "103:1576575200646", "color": "#0056E7" }, "geometry": { "type": "Point", "coordinates": [ -1.054688, 42.163403 ] } }
{ "type": "Feature", "tippecanoe": { "layer": "2AFCA14F12B01583918658072", "minzoom": 2, "maxzoom": 8 }, "properties": { "halo": 1.6, "title": "关切人", "fontsize": 12, "tyid": "304001", "oid": "103:1576575200832", "color": "#0056E7" }, "geometry": { "type": "Point", "coordinates": [ -16.611328, 28.304381 ] } }
{ "type": "Feature", "tippecanoe": { "layer": "2AFCA14F12B01583918658072", "minzoom": 2, "maxzoom": 8 }, "properties": { "halo": 1.6, "title": "图尔杜利奥皮迪尼人", "fontsize": 12, "tyid": "304001", "oid": "103:1576575200429", "color": "#0056E7" }, "geometry": { "type": "Point", "coordinates": [ -8.789062, 39.909736 ] } }
{ "type": "Feature", "tippecanoe": { "layer": "2AFCA14F12B01583918658072", "minzoom": 2, "maxzoom": 8 }, "properties": { "halo": 1.6, "title": "伊利尔卡沃尼人", "fontsize": 12, "tyid": "304001", "oid": "103:1576575200650", "color": "#0056E7" }, "geometry": { "type": "Point", "coordinates": [ -0.263672, 40.847060 ] } }
{ "type": "Feature", "tippecanoe": { "layer": "2AFCA14F12B01583918658072", "minzoom": 2, "maxzoom": 8 }, "properties": { "halo": 1.6, "title": "埃德塔尼人", "fontsize": 12, "tyid": "304001", "oid": "103:1576575200722", "color": "#0056E7" }, "geometry": { "type": "Point", "coordinates": [ -0.966797, 39.639538 ] } }
{ "type": "Feature", "tippecanoe": { "layer": "2AFCA14F12B01583918658072", "minzoom": 2, "maxzoom": 8 }, "properties": { "halo": 1.6, "title": "康斯塔尼人", "fontsize": 12, "tyid": "304001", "oid": "103:1576575200548", "color": "#0056E7" }, "geometry": { "type": "Point", "coordinates": [ -0.878906, 38.685510 ] } }
{ "type": "Feature", "tippecanoe": { "layer": "2AFCA14F12B01583918658072", "minzoom": 2, "maxzoom": 8 }, "properties": { "halo": 1.6, "title": "瓜纳加拉文化", "fontsize": 12, "tyid": "304002", "oid": "103:1576575200571", "color": "#0056E7" }, "geometry": { "type": "Point", "coordinates": [ -80.595703, -1.669686 ] } }
{ "type": "Feature", "tippecanoe": { "layer": "2AFCA14F12B01583918658072", "minzoom": 2, "maxzoom": 8 }, "properties": { "halo": 1.6, "title": "巴伊亚文化", "fontsize": 12, "tyid": "304002", "oid": "103:1576575200901", "color": "#0056E7" }, "geometry": { "type": "Point", "coordinates": [ -80.068359, -0.527336 ] } }
{ "type": "Feature", "tippecanoe": { "layer": "2AFCA14F12B01583918658072", "minzoom": 2, "maxzoom": 8 }, "properties": { "halo": 1.6, "title": "查文文化", "fontsize": 12, "tyid": "304002", "oid": "103:1576575200822", "color": "#0056E7" }, "geometry": { "type": "Point", "coordinates": [ -77.958984, -8.320212 ] } }
{ "type": "Feature", "tippecanoe": { "layer": "2AFCA14F12B01583918658072", "minzoom": 2, "maxzoom": 8 }, "properties": { "halo": 1.6, "title": "卡斯马-赛钦文化", "fontsize": 12, "tyid": "304002", "oid": "103:1576575200663", "color": "#0056E7" }, "geometry": { "type": "Point", "coordinates": [ -77.958984, -9.622414 ] } }
{ "type": "Feature", "tippecanoe": { "layer": "2AFCA14F12B01583918658072", "minzoom": 2, "maxzoom": 8 }, "properties": { "halo": 1.6, "title": "帕拉卡斯文化", "fontsize": 12, "tyid": "304002", "oid": "103:1576575200489", "color": "#0056E7" }, "geometry": { "type": "Point", "coordinates": [ -75.673828, -14.179186 ] } }
{ "type": "Feature", "tippecanoe": { "layer": "2AFCA14F12B01583918658072", "minzoom": 2, "maxzoom": 8 }, "properties": { "halo": 1.6, "title": "豪什人", "fontsize": 12, "tyid": "304001", "oid": "103:1576575200922", "color": "#0056E7" }, "geometry": { "type": "Point", "coordinates": [ -65.917969, -54.724620 ] } }
{ "type": "Feature", "tippecanoe": { "layer": "2AFCA14F12B01583918658072", "minzoom": 2, "maxzoom": 8 }, "properties": { "halo": 1.6, "title": "洪斯吕克-埃菲尔文化", "fontsize": 12, "tyid": "304002", "oid": "103:1576575200830", "color": "#0056E7" }, "geometry": { "type": "Point", "coordinates": [ 7.998047, 50.345460 ] } }
{ "type": "Feature", "tippecanoe": { "layer": "2AFCA14F12B01583918658072", "minzoom": 2, "maxzoom": 8 }, "properties": { "halo": 1.6, "title": "拉塞塔尼人", "fontsize": 12, "tyid": "304001", "oid": "103:1576575200533", "color": "#0056E7" }, "geometry": { "type": "Point", "coordinates": [ 1.054688, 41.442726 ] } }
{ "type": "Feature", "tippecanoe": { "layer": "2AFCA14F12B01583918658072", "minzoom": 2, "maxzoom": 8 }, "properties": { "halo": 1.6, "title": "英迪格人", "fontsize": 12, "tyid": "304001", "oid": "103:1576575200639", "color": "#0056E7" }, "geometry": { "type": "Point", "coordinates": [ 2.285156, 42.163403 ] } }
{ "type": "Feature", "tippecanoe": { "layer": "2AFCA14F12B01583918658072", "minzoom": 2, "maxzoom": 8 }, "properties": { "halo": 1.8, "title": "马萨利亚", "fontsize": 12, "tyid": "304000", "oid": "103:1576575200865", "color": "#0056E7" }, "geometry": { "type": "Point", "coordinates": [ 5.449219, 43.325178 ] } }
{ "type": "Feature", "tippecanoe": { "layer": "2AFCA14F12B01583918658072", "minzoom": 2, "maxzoom": 8 }, "properties": { "halo": 1.8, "title": "帕莱波利斯", "fontsize": 12, "tyid": "304000", "oid": "103:1576575200859", "color": "#0056E7" }, "geometry": { "type": "Point", "coordinates": [ 3.076172, 42.163403 ] } }
{ "type": "Feature", "tippecanoe": { "layer": "2AFCA14F12B01583918658072", "minzoom": 2, "maxzoom": 8 }, "properties": { "halo": 1.6, "title": "卡莫尼卡人", "fontsize": 12, "tyid": "304001", "oid": "103:1576575200904", "color": "#0056E7" }, "geometry": { "type": "Point", "coordinates": [ 10.283203, 46.012224 ] } }
{ "type": "Feature", "tippecanoe": { "layer": "2AFCA14F12B01583918658072", "minzoom": 2, "maxzoom": 8 }, "properties": { "halo": 1.8, "title": "摩诺伊科", "fontsize": 12, "tyid": "304000", "oid": "103:1576575200629", "color": "#0056E7" }, "geometry": { "type": "Point", "coordinates": [ 7.382812, 43.771094 ] } }
{ "type": "Feature", "tippecanoe": { "layer": "2AFCA14F12B01583918658072", "minzoom": 2, "maxzoom": 8 }, "properties": { "halo": 1.6, "title": "翁布里亚人", "fontsize": 12, "tyid": "304001", "oid": "103:1576575200412", "color": "#0056E7" }, "geometry": { "type": "Point", "coordinates": [ 12.832031, 42.811522 ] } }
{ "type": "Feature", "tippecanoe": { "layer": "2AFCA14F12B01583918658072", "minzoom": 2, "maxzoom": 8 }, "properties": { "halo": 1.6, "title": "萨宾人", "fontsize": 12, "tyid": "304001", "oid": "103:1576575200873", "color": "#0056E7" }, "geometry": { "type": "Point", "coordinates": [ 12.656250, 42.163403 ] } }
{ "type": "Feature", "tippecanoe": { "layer": "2AFCA14F12B01583918658072", "minzoom": 2, "maxzoom": 8 }, "properties": { "halo": 1.6, "title": "皮森特人", "fontsize": 12, "tyid": "304001", "oid": "103:1576575200485", "color": "#0056E7" }, "geometry": { "type": "Point", "coordinates": [ 13.535156, 43.004647 ] } }
{ "type": "Feature", "tippecanoe": { "layer": "2AFCA14F12B01583918658072", "minzoom": 2, "maxzoom": 8 }, "properties": { "halo": 1.8, "title": "罗马共和国", "fontsize": 12, "tyid": "304000", "oid": "103:1576575200522", "color": "#0056E7" }, "geometry": { "type": "Point", "coordinates": [ 12.656250, 41.902277 ] } }
{ "type": "Feature", "tippecanoe": { "layer": "2AFCA14F12B01583918658072", "minzoom": 2, "maxzoom": 8 }, "properties": { "halo": 1.6, "title": "奥斯坎人", "fontsize": 12, "tyid": "304001", "oid": "103:1576575200825", "color": "#0056E7" }, "geometry": { "type": "Point", "coordinates": [ 13.447266, 41.442726 ] } }
{ "type": "Feature", "tippecanoe": { "layer": "2AFCA14F12B01583918658072", "minzoom": 2, "maxzoom": 8 }, "properties": { "halo": 1.6, "title": "道尼人", "fontsize": 12, "tyid": "304001", "oid": "103:1576575200602", "color": "#0056E7" }, "geometry": { "type": "Point", "coordinates": [ 15.292969, 41.705729 ] } }
{ "type": "Feature", "tippecanoe": { "layer": "2AFCA14F12B01583918658072", "minzoom": 2, "maxzoom": 8 }, "properties": { "halo": 1.6, "title": "佩乌克提伊人", "fontsize": 12, "tyid": "304001", "oid": "103:1576575200769", "color": "#0056E7" }, "geometry": { "type": "Point", "coordinates": [ 16.347656, 41.046217 ] } }
{ "type": "Feature", "tippecanoe": { "layer": "2AFCA14F12B01583918658072", "minzoom": 2, "maxzoom": 8 }, "properties": { "halo": 1.8, "title": "皮斯特罗斯", "fontsize": 12, "tyid": "304000", "oid": "103:1576575200673", "color": "#0056E7" }, "geometry": { "type": "Point", "coordinates": [ 23.994141, 42.293564 ] } }
{ "type": "Feature", "tippecanoe": { "layer": "2AFCA14F12B01583918658072", "minzoom": 2, "maxzoom": 8 }, "properties": { "halo": 1.8, "title": "奥德索斯", "fontsize": 12, "tyid": "304000", "oid": "103:1576575200928", "color": "#0056E7" }, "geometry": { "type": "Point", "coordinates": [ 27.861328, 43.261206 ] } }
{ "type": "Feature", "tippecanoe": { "layer": "2AFCA14F12B01583918658072", "minzoom": 2, "maxzoom": 8 }, "properties": { "halo": 1.8, "title": "安恰罗斯", "fontsize": 12, "tyid": "304000", "oid": "103:1576575200968", "color": "#0056E7" }, "geometry": { "type": "Point", "coordinates": [ 27.509766, 42.617791 ] } }
{ "type": "Feature", "tippecanoe": { "layer": "2AFCA14F12B01583918658072", "minzoom": 2, "maxzoom": 8 }, "properties": { "halo": 1.8, "title": "梅森布里亚", "fontsize": 12, "tyid": "304000", "oid": "103:1576575200963", "color": "#0056E7" }, "geometry": { "type": "Point", "coordinates": [ 27.597656, 42.682435 ] } }
{ "type": "Feature", "tippecanoe": { "layer": "2AFCA14F12B01583918658072", "minzoom": 2, "maxzoom": 8 }, "properties": { "halo": 1.8, "title": "阿波罗尼亚·潘提卡", "fontsize": 12, "tyid": "304000", "oid": "103:1576575200936", "color": "#0056E7" }, "geometry": { "type": "Point", "coordinates": [ 27.597656, 42.423457 ] } }
{ "type": "Feature", "tippecanoe": { "layer": "2AFCA14F12B01583918658072", "minzoom": 2, "maxzoom": 8 }, "properties": { "halo": 1.8, "title": "尼康恩", "fontsize": 12, "tyid": "304000", "oid": "103:1576575200496", "color": "#0056E7" }, "geometry": { "type": "Point", "coordinates": [ 30.673828, 46.619261 ] } }
{ "type": "Feature", "tippecanoe": { "layer": "2AFCA14F12B01583918658072", "minzoom": 2, "maxzoom": 8 }, "properties": { "halo": 1.8, "title": "提拉斯", "fontsize": 12, "tyid": "304000", "oid": "103:1576575200867", "color": "#0056E7" }, "geometry": { "type": "Point", "coordinates": [ 30.234375, 46.134170 ] } }
{ "type": "Feature", "tippecanoe": { "layer": "2AFCA14F12B01583918658072", "minzoom": 2, "maxzoom": 8 }, "properties": { "halo": 1.8, "title": "敖德萨", "fontsize": 12, "tyid": "304000", "oid": "103:1576575200858", "color": "#0056E7" }, "geometry": { "type": "Point", "coordinates": [ 30.585938, 46.498392 ] } }
{ "type": "Feature", "tippecanoe": { "layer": "2AFCA14F12B01583918658072", "minzoom": 2, "maxzoom": 8 }, "properties": { "halo": 1.6, "title": "奥里维亚", "fontsize": 12, "tyid": "304002", "oid": "103:1576575200855", "color": "#0056E7" }, "geometry": { "type": "Point", "coordinates": [ 31.816406, 46.679594 ] } }
{ "type": "Feature", "tippecanoe": { "layer": "2AFCA14F12B01583918658072", "minzoom": 2, "maxzoom": 8 }, "properties": { "halo": 1.8, "title": "克尔柯特", "fontsize": 12, "tyid": "304000", "oid": "103:1576575200879", "color": "#0056E7" }, "geometry": { "type": "Point", "coordinates": [ 33.398438, 45.274886 ] } }
{ "type": "Feature", "tippecanoe": { "layer": "2AFCA14F12B01583918658072", "minzoom": 2, "maxzoom": 8 }, "properties": { "halo": 1.8, "title": "希斯特里亚", "fontsize": 12, "tyid": "304000", "oid": "103:1576575200801", "color": "#0056E7" }, "geometry": { "type": "Point", "coordinates": [ 28.740234, 44.653024 ] } }
{ "type": "Feature", "tippecanoe": { "layer": "2AFCA14F12B01583918658072", "minzoom": 2, "maxzoom": 8 }, "properties": { "halo": 1.8, "title": "托米斯", "fontsize": 12, "tyid": "304000", "oid": "103:1576575200840", "color": "#0056E7" }, "geometry": { "type": "Point", "coordinates": [ 28.476562, 44.213710 ] } }
{ "type": "Feature", "tippecanoe": { "layer": "2AFCA14F12B01583918658072", "minzoom": 2, "maxzoom": 8 }, "properties": { "halo": 1.8, "title": "埃吉索斯", "fontsize": 12, "tyid": "304000", "oid": "103:1576575200965", "color": "#0056E7" }, "geometry": { "type": "Point", "coordinates": [ 29.355469, 45.026950 ] } }
{ "type": "Feature", "tippecanoe": { "layer": "2AFCA14F12B01583918658072", "minzoom": 2, "maxzoom": 8 }, "properties": { "halo": 1.8, "title": "卡拉提斯", "fontsize": 12, "tyid": "304000", "oid": "103:1576575200559", "color": "#0056E7" }, "geometry": { "type": "Point", "coordinates": [ 28.564453, 43.834527 ] } }
{ "type": "Feature", "tippecanoe": { "layer": "2AFCA14F12B01583918658072", "minzoom": 2, "maxzoom": 8 }, "properties": { "halo": 1.8, "title": "迪奥尼索波利斯", "fontsize": 12, "tyid": "304000", "oid": "103:1576575200920", "color": "#0056E7" }, "geometry": { "type": "Point", "coordinates": [ 28.125000, 43.452919 ] } }
{ "type": "Feature", "tippecanoe": { "layer": "2AFCA14F12B01583918658072", "minzoom": 2, "maxzoom": 8 }, "properties": { "halo": 1.8, "title": "拜佐恩", "fontsize": 12, "tyid": "304000", "oid": "103:1576575200850", "color": "#0056E7" }, "geometry": { "type": "Point", "coordinates": [ 28.300781, 43.452919 ] } }
{ "type": "Feature", "tippecanoe": { "layer": "2AFCA14F12B01583918658072", "minzoom": 2, "maxzoom": 8 }, "properties": { "halo": 1.8, "title": "拜占庭", "fontsize": 12, "tyid": "304000", "oid": "103:1576575200698", "color": "#0056E7" }, "geometry": { "type": "Point", "coordinates": [ 28.740234, 41.178654 ] } }
{ "type": "Feature", "tippecanoe": { "layer": "2AFCA14F12B01583918658072", "minzoom": 2, "maxzoom": 8 }, "properties": { "halo": 1.8, "title": "克森尼索", "fontsize": 12, "tyid": "304000", "oid": "103:1576575200957", "color": "#0056E7" }, "geometry": { "type": "Point", "coordinates": [ 33.486328, 44.590467 ] } }
{ "type": "Feature", "tippecanoe": { "layer": "2AFCA14F12B01583918658072", "minzoom": 2, "maxzoom": 8 }, "properties": { "halo": 1.8, "title": "博斯普鲁斯王国", "fontsize": 12, "tyid": "304000", "oid": "103:1576575200681", "color": "#0056E7" }, "geometry": { "type": "Point", "coordinates": [ 36.298828, 45.274886 ] } }
{ "type": "Feature", "tippecanoe": { "layer": "2AFCA14F12B01583918658072", "minzoom": 2, "maxzoom": 8 }, "properties": { "halo": 1.6, "title": "杜林人", "fontsize": 12, "tyid": "304001", "oid": "103:1576575200586", "color": "#0056E7" }, "geometry": { "type": "Point", "coordinates": [ 34.453125, 44.964798 ] } }
{ "type": "Feature", "tippecanoe": { "layer": "2AFCA14F12B01583918658072", "minzoom": 2, "maxzoom": 8 }, "properties": { "halo": 1.8, "title": "戈尔吉皮亚", "fontsize": 12, "tyid": "304000", "oid": "103:1576575200820", "color": "#0056E7" }, "geometry": { "type": "Point", "coordinates": [ 37.265625, 44.902578 ] } }
{ "type": "Feature", "tippecanoe": { "layer": "2AFCA14F12B01583918658072", "minzoom": 2, "maxzoom": 8 }, "properties": { "halo": 1.6, "title": "卢卡尼亚人", "fontsize": 12, "tyid": "304001", "oid": "103:1576575200806", "color": "#0056E7" }, "geometry": { "type": "Point", "coordinates": [ 15.908203, 40.313043 ] } }
{ "type": "Feature", "tippecanoe": { "layer": "2AFCA14F12B01583918658072", "minzoom": 2, "maxzoom": 8 }, "properties": { "halo": 1.6, "title": "布鲁提亚人", "fontsize": 12, "tyid": "304001", "oid": "103:1576575200884", "color": "#0056E7" }, "geometry": { "type": "Point", "coordinates": [ 16.259766, 39.436193 ] } }
{ "type": "Feature", "tippecanoe": { "layer": "2AFCA14F12B01583918658072", "minzoom": 2, "maxzoom": 8 }, "properties": { "halo": 1.6, "title": "西古里人", "fontsize": 12, "tyid": "304001", "oid": "103:1576575200754", "color": "#0056E7" }, "geometry": { "type": "Point", "coordinates": [ 14.501953, 37.509726 ] } }
{ "type": "Feature", "tippecanoe": { "layer": "2AFCA14F12B01583918658072", "minzoom": 2, "maxzoom": 8 }, "properties": { "halo": 1.6, "title": "梅萨皮伊人", "fontsize": 12, "tyid": "304001", "oid": "103:1576575200778", "color": "#0056E7" }, "geometry": { "type": "Point", "coordinates": [ 17.490234, 40.647304 ] } }
{ "type": "Feature", "tippecanoe": { "layer": "2AFCA14F12B01583918658072", "minzoom": 2, "maxzoom": 8 }, "properties": { "halo": 1.6, "title": "查乌内斯人", "fontsize": 12, "tyid": "304001", "oid": "103:1576575200788", "color": "#0056E7" }, "geometry": { "type": "Point", "coordinates": [ 19.863281, 40.647304 ] } }
{ "type": "Feature", "tippecanoe": { "layer": "2AFCA14F12B01583918658072", "minzoom": 2, "maxzoom": 8 }, "properties": { "halo": 1.6, "title": "莫洛西人", "fontsize": 12, "tyid": "304001", "oid": "103:1576575200940", "color": "#0056E7" }, "geometry": { "type": "Point", "coordinates": [ 20.478516, 39.977120 ] } }
{ "type": "Feature", "tippecanoe": { "layer": "2AFCA14F12B01583918658072", "minzoom": 2, "maxzoom": 8 }, "properties": { "halo": 1.6, "title": "塞斯普罗蒂人", "fontsize": 12, "tyid": "304001", "oid": "103:1576575200456", "color": "#0056E7" }, "geometry": { "type": "Point", "coordinates": [ 20.917969, 39.436193 ] } }
{ "type": "Feature", "tippecanoe": { "layer": "2AFCA14F12B01583918658072", "minzoom": 2, "maxzoom": 8 }, "properties": { "halo": 1.8, "title": "色萨利同盟", "fontsize": 12, "tyid": "304000", "oid": "103:1576575200620", "color": "#0056E7" }, "geometry": { "type": "Point", "coordinates": [ 22.236328, 39.504041 ] } }
{ "type": "Feature", "tippecanoe": { "layer": "2AFCA14F12B01583918658072", "minzoom": 2, "maxzoom": 8 }, "properties": { "halo": 1.8, "title": "阿卡尔纳尼亚同盟", "fontsize": 12, "tyid": "304000", "oid": "103:1576575200765", "color": "#0056E7" }, "geometry": { "type": "Point", "coordinates": [ 21.005859, 38.685510 ] } }
{ "type": "Feature", "tippecanoe": { "layer": "2AFCA14F12B01583918658072", "minzoom": 2, "maxzoom": 8 }, "properties": { "halo": 1.8, "title": "埃托利亚同盟", "fontsize": 12, "tyid": "304000", "oid": "103:1576575200827", "color": "#0056E7" }, "geometry": { "type": "Point", "coordinates": [ 21.533203, 38.685510 ] } }
{ "type": "Feature", "tippecanoe": { "layer": "2AFCA14F12B01583918658072", "minzoom": 2, "maxzoom": 8 }, "properties": { "halo": 1.8, "title": "厄利斯", "fontsize": 12, "tyid": "304000", "oid": "103:1576575200784", "color": "#0056E7" }, "geometry": { "type": "Point", "coordinates": [ 21.357422, 37.788081 ] } }
{ "type": "Feature", "tippecanoe": { "layer": "2AFCA14F12B01583918658072", "minzoom": 2, "maxzoom": 8 }, "properties": { "halo": 1.8, "title": "德尔菲-近邻同盟", "fontsize": 12, "tyid": "304000", "oid": "103:1576575200605", "color": "#0056E7" }, "geometry": { "type": "Point", "coordinates": [ 22.060547, 38.822591 ] } }
{ "type": "Feature", "tippecanoe": { "layer": "2AFCA14F12B01583918658072", "minzoom": 2, "maxzoom": 8 }, "properties": { "halo": 1.8, "title": "阿卡迪亚同盟", "fontsize": 12, "tyid": "304000", "oid": "103:1576575200732", "color": "#0056E7" }, "geometry": { "type": "Point", "coordinates": [ 22.060547, 37.718590 ] } }
{ "type": "Feature", "tippecanoe": { "layer": "2AFCA14F12B01583918658072", "minzoom": 2, "maxzoom": 8 }, "properties": { "halo": 1.8, "title": "古美西尼", "fontsize": 12, "tyid": "304000", "oid": "103:1576575200576", "color": "#0056E7" }, "geometry": { "type": "Point", "coordinates": [ 21.884766, 37.160317 ] } }
{ "type": "Feature", "tippecanoe": { "layer": "2AFCA14F12B01583918658072", "minzoom": 2, "maxzoom": 8 }, "properties": { "halo": 1.8, "title": "彼奥提亚同盟", "fontsize": 12, "tyid": "304000", "oid": "103:1576575200688", "color": "#0056E7" }, "geometry": { "type": "Point", "coordinates": [ 23.115234, 38.410558 ] } }
{ "type": "Feature", "tippecanoe": { "layer": "2AFCA14F12B01583918658072", "minzoom": 2, "maxzoom": 8 }, "properties": { "halo": 1.8, "title": "科林斯", "fontsize": 12, "tyid": "304000", "oid": "103:1576575200546", "color": "#0056E7" }, "geometry": { "type": "Point", "coordinates": [ 22.763672, 37.926868 ] } }
{ "type": "Feature", "tippecanoe": { "layer": "2AFCA14F12B01583918658072", "minzoom": 2, "maxzoom": 8 }, "properties": { "halo": 1.8, "title": "阿尔戈斯", "fontsize": 12, "tyid": "304000", "oid": "103:1576575200932", "color": "#0056E7" }, "geometry": { "type": "Point", "coordinates": [ 22.939453, 37.718590 ] } }
{ "type": "Feature", "tippecanoe": { "layer": "2AFCA14F12B01583918658072", "minzoom": 2, "maxzoom": 8 }, "properties": { "halo": 1.8, "title": "斯巴达", "fontsize": 12, "tyid": "304000", "oid": "103:1576575200987", "color": "#0056E7" }, "geometry": { "type": "Point", "coordinates": [ 22.587891, 37.020098 ] } }
{ "type": "Feature", "tippecanoe": { "layer": "2AFCA14F12B01583918658072", "minzoom": 2, "maxzoom": 8 }, "properties": { "halo": 1.8, "title": "以东王国", "fontsize": 12, "tyid": "304000", "oid": "103:1576575200978", "color": "#0056E7" }, "geometry": { "type": "Point", "coordinates": [ 35.332031, 30.448674 ] } }
{ "type": "Feature", "tippecanoe": { "layer": "2AFCA14F12B01583918658072", "minzoom": 2, "maxzoom": 8 }, "properties": { "halo": 1.8, "title": "焉耆国", "fontsize": 12, "tyid": "304000", "oid": "103:1576575200611", "color": "#0056E7" }, "geometry": { "type": "Point", "coordinates": [ 86.308594, 42.032974 ] } }
{ "type": "Feature", "tippecanoe": { "layer": "2AFCA14F12B01583918658072", "minzoom": 2, "maxzoom": 8 }, "properties": { "halo": 1.8, "title": "莎车国", "fontsize": 12, "tyid": "304000", "oid": "103:1576575200892", "color": "#0056E7" }, "geometry": { "type": "Point", "coordinates": [ 77.343750, 38.685510 ] } }
{ "type": "Feature", "tippecanoe": { "layer": "2AFCA14F12B01583918658072", "minzoom": 2, "maxzoom": 8 }, "properties": { "halo": 1.6, "title": "流水墓地文化", "fontsize": 12, "tyid": "304002", "oid": "103:1576575200864", "color": "#0056E7" }, "geometry": { "type": "Point", "coordinates": [ 81.562500, 36.456636 ] } }
{ "type": "Feature", "tippecanoe": { "layer": "2AFCA14F12B01583918658072", "minzoom": 2, "maxzoom": 8 }, "properties": { "halo": 1.8, "title": "且末国", "fontsize": 12, "tyid": "304000", "oid": "103:1576575200881", "color": "#0056E7" }, "geometry": { "type": "Point", "coordinates": [ 85.605469, 38.272689 ] } }
{ "type": "Feature", "tippecanoe": { "layer": "2AFCA14F12B01583918658072", "minzoom": 2, "maxzoom": 8 }, "properties": { "halo": 1.8, "title": "小宛国", "fontsize": 12, "tyid": "304000", "oid": "103:1576575200799", "color": "#0056E7" }, "geometry": { "type": "Point", "coordinates": [ 85.429688, 37.579413 ] } }
{ "type": "Feature", "tippecanoe": { "layer": "2AFCA14F12B01583918658072", "minzoom": 2, "maxzoom": 8 }, "properties": { "halo": 1.8, "title": "西周国", "fontsize": 12, "tyid": "304000", "oid": "103:1576575200975", "color": "#0056E7" }, "geometry": { "type": "Point", "coordinates": [ 112.412109, 34.741612 ] } }
{ "type": "Feature", "tippecanoe": { "layer": "2AFCA14F12B01583918658072", "minzoom": 2, "maxzoom": 8 }, "properties": { "halo": 1.8, "title": "冉駹羌", "fontsize": 12, "tyid": "304000", "oid": "103:1576575200861", "color": "#0056E7" }, "geometry": { "type": "Point", "coordinates": [ 103.623047, 31.503629 ] } }
{ "type": "Feature", "tippecanoe": { "layer": "2AFCA14F12B01583918658072", "minzoom": 2, "maxzoom": 8 }, "properties": { "halo": 1.6, "title": "筰都", "fontsize": 12, "tyid": "304001", "oid": "103:1576575200744", "color": "#0056E7" }, "geometry": { "type": "Point", "coordinates": [ 102.568359, 29.228890 ] } }
{ "type": "Feature", "tippecanoe": { "layer": "2AFCA14F12B01583918658072", "minzoom": 2, "maxzoom": 8 }, "properties": { "halo": 1.6, "title": "徙", "fontsize": 12, "tyid": "304001", "oid": "103:1576575200925", "color": "#0056E7" }, "geometry": { "type": "Point", "coordinates": [ 102.216797, 28.613459 ] } }
{ "type": "Feature", "tippecanoe": { "layer": "2AFCA14F12B01583918658072", "minzoom": 2, "maxzoom": 8 }, "properties": { "halo": 1.8, "title": "充", "fontsize": 12, "tyid": "304000", "oid": "103:1576575200846", "color": "#0056E7" }, "geometry": { "type": "Point", "coordinates": [ 105.996094, 31.128199 ] } }
{ "type": "Feature", "tippecanoe": { "layer": "2AFCA14F12B01583918658072", "minzoom": 2, "maxzoom": 8 }, "properties": { "halo": 1.6, "title": "靡莫", "fontsize": 12, "tyid": "304001", "oid": "103:1576575200774", "color": "#0056E7" }, "geometry": { "type": "Point", "coordinates": [ 103.886719, 25.799891 ] } }
{ "type": "Feature", "tippecanoe": { "layer": "2AFCA14F12B01583918658072", "minzoom": 2, "maxzoom": 8 }, "properties": { "halo": 1.6, "title": "劳浸", "fontsize": 12, "tyid": "304001", "oid": "103:1576575200964", "color": "#0056E7" }, "geometry": { "type": "Point", "coordinates": [ 103.710938, 24.926295 ] } }
{ "type": "Feature", "tippecanoe": { "layer": "2AFCA14F12B01583918658072", "minzoom": 2, "maxzoom": 8 }, "properties": { "halo": 1.6, "title": "石坛文化", "fontsize": 12, "tyid": "304002", "oid": "103:1576575200759", "color": "#0056E7" }, "geometry": { "type": "Point", "coordinates": [ 103.359375, 19.559790 ] } }
{ "type": "Feature", "tippecanoe": { "layer": "2AFCA14F12B01583918658072", "minzoom": 2, "maxzoom": 8 }, "properties": { "halo": 1.6, "title": "东山文化", "fontsize": 12, "tyid": "304002", "oid": "103:1576575200786", "color": "#0056E7" }, "geometry": { "type": "Point", "coordinates": [ 105.292969, 21.698265 ] } }
{ "type": "Feature", "tippecanoe": { "layer": "2AFCA14F12B01583918658072", "minzoom": 2, "maxzoom": 8 }, "properties": { "halo": 1.8, "title": "东周", "fontsize": 12, "tyid": "304000", "oid": "103:1576575200902", "color": "#0056E7" }, "geometry": { "type": "Point", "coordinates": [ 112.587891, 34.741612 ] } }
{ "type": "Feature", "tippecanoe": { "layer": "2AFCA14F12B01583918658072", "minzoom": 2, "maxzoom": 8 }, "properties": { "halo": 1.8, "title": "东周国", "fontsize": 12, "tyid": "304000", "oid": "103:1576575200976", "color": "#0056E7" }, "geometry": { "type": "Point", "coordinates": [ 112.851562, 34.669359 ] } }
{ "type": "Feature", "tippecanoe": { "layer": "2AFCA14F12B01583918658072", "minzoom": 2, "maxzoom": 8 }, "properties": { "halo": 1.8, "title": "卫", "fontsize": 12, "tyid": "304000", "oid": "103:1576575200618", "color": "#0056E7" }, "geometry": { "type": "Point", "coordinates": [ 114.873047, 35.460670 ] } }
{ "type": "Feature", "tippecanoe": { "layer": "2AFCA14F12B01583918658072", "minzoom": 2, "maxzoom": 8 }, "properties": { "halo": 1.8, "title": "任", "fontsize": 12, "tyid": "304000", "oid": "103:1576575200626", "color": "#0056E7" }, "geometry": { "type": "Point", "coordinates": [ 116.630859, 35.389050 ] } }
{ "type": "Feature", "tippecanoe": { "layer": "2AFCA14F12B01583918658072", "minzoom": 2, "maxzoom": 8 }, "properties": { "halo": 1.8, "title": "邾", "fontsize": 12, "tyid": "304000", "oid": "103:1576575200632", "color": "#0056E7" }, "geometry": { "type": "Point", "coordinates": [ 116.894531, 35.389050 ] } }
{ "type": "Feature", "tippecanoe": { "layer": "2AFCA14F12B01583918658072", "minzoom": 2, "maxzoom": 8 }, "properties": { "halo": 1.8, "title": "滕", "fontsize": 12, "tyid": "304000", "oid": "103:1576575200945", "color": "#0056E7" }, "geometry": { "type": "Point", "coordinates": [ 116.982422, 35.101934 ] } }
{ "type": "Feature", "tippecanoe": { "layer": "2AFCA14F12B01583918658072", "minzoom": 2, "maxzoom": 8 }, "properties": { "halo": 1.8, "title": "鲁", "fontsize": 12, "tyid": "304000", "oid": "103:1576575200659", "color": "#0056E7" }, "geometry": { "type": "Point", "coordinates": [ 117.685547, 35.389050 ] } }
{ "type": "Feature", "tippecanoe": { "layer": "2AFCA14F12B01583918658072", "minzoom": 2, "maxzoom": 8 }, "properties": { "halo": 1.8, "title": "费", "fontsize": 12, "tyid": "304000", "oid": "103:1576575200821", "color": "#0056E7" }, "geometry": { "type": "Point", "coordinates": [ 117.861328, 34.885931 ] } }
{ "type": "Feature", "tippecanoe": { "layer": "2AFCA14F12B01583918658072", "minzoom": 2, "maxzoom": 8 }, "properties": { "halo": 1.8, "title": "邳", "fontsize": 12, "tyid": "304000", "oid": "103:1576575200488", "color": "#0056E7" }, "geometry": { "type": "Point", "coordinates": [ 117.861328, 34.016242 ] } }
{ "type": "Feature", "tippecanoe": { "layer": "2AFCA14F12B01583918658072", "minzoom": 2, "maxzoom": 8 }, "properties": { "halo": 1.6, "title": "屠何", "fontsize": 12, "tyid": "304001", "oid": "103:1576575200758", "color": "#0056E7" }, "geometry": { "type": "Point", "coordinates": [ 120.322266, 40.847060 ] } }
{ "type": "Feature", "tippecanoe": { "layer": "2AFCA14F12B01583918658072", "minzoom": 2, "maxzoom": 8 }, "properties": { "halo": 1.6, "title": "营埔文化", "fontsize": 12, "tyid": "304002", "oid": "103:1576575201006", "color": "#0056E7" }, "geometry": { "type": "Point", "coordinates": [ 120.673828, 24.367114 ] } }
{ "type": "Feature", "tippecanoe": { "layer": "2AFCA14F12B01583918658072", "minzoom": 2, "maxzoom": 8 }, "properties": { "halo": 1.6, "title": "卑南文化", "fontsize": 12, "tyid": "304002", "oid": "103:1576575201004", "color": "#0056E7" }, "geometry": { "type": "Point", "coordinates": [ 120.761719, 22.674847 ] } }
{ "type": "Feature", "tippecanoe": { "layer": "2AFCA14F12B01583918658072", "minzoom": 2, "maxzoom": 8 }, "properties": { "halo": 1.6, "title": "圆山文化", "fontsize": 12, "tyid": "304002", "oid": "103:1576575201008", "color": "#0056E7" }, "geometry": { "type": "Point", "coordinates": [ 121.289062, 24.926295 ] } }
{ "type": "Feature", "tippecanoe": { "layer": "2AFCA14F12B01583918658072", "minzoom": 2, "maxzoom": 8 }, "properties": { "halo": 1.6, "title": "麒麟文化", "fontsize": 12, "tyid": "304002", "oid": "103:1576575201010", "color": "#0056E7" }, "geometry": { "type": "Point", "coordinates": [ 121.289062, 23.563987 ] } }
{ "type": "Feature", "tippecanoe": { "layer": "2AFCA14F12B01583918658072", "minzoom": 2, "maxzoom": 8 }, "properties": { "halo": 1.6, "title": "托雷斯海峡岛民", "fontsize": 12, "tyid": "304001", "oid": "103:1576575200424", "color": "#0056E7" }, "geometry": { "type": "Point", "coordinates": [ 142.382812, -11.264612 ] } }
{ "type": "Feature", "tippecanoe": { "layer": "2AFCA14F19081583918658081", "minzoom": 2, "maxzoom": 8 }, "properties": { "halo": 1.6, "title": "诺顿文化", "fontsize": 12, "tyid": "304002", "oid": "103:1576575200802", "color": "#0056E7" }, "geometry": { "type": "Point", "coordinates": [ -157.851562, 70.436799 ] } }
{ "type": "Feature", "tippecanoe": { "layer": "2AFCA14F19081583918658081", "minzoom": 2, "maxzoom": 8 }, "properties": { "halo": 1.6, "title": "尤皮克人", "fontsize": 12, "tyid": "304001", "oid": "103:1576575200959", "color": "#0056E7" }, "geometry": { "type": "Point", "coordinates": [ -156.796875, 62.021528 ] } }
{ "type": "Feature", "tippecanoe": { "layer": "2AFCA14F19081583918658081", "minzoom": 2, "maxzoom": 8 }, "properties": { "halo": 1.6, "title": "因纽皮雅特人", "fontsize": 12, "tyid": "304001", "oid": "103:1576575200950", "color": "#0056E7" }, "geometry": { "type": "Point", "coordinates": [ -149.501953, 65.219894 ] } }
{ "type": "Feature", "tippecanoe": { "layer": "2AFCA14F19081583918658081", "minzoom": 2, "maxzoom": 8 }, "properties": { "halo": 1.6, "title": "阿留申人", "fontsize": 12, "tyid": "304001", "oid": "103:1576575200404", "color": "#0056E7" }, "geometry": { "type": "Point", "coordinates": [ -152.226562, 61.312452 ] } }
{ "type": "Feature", "tippecanoe": { "layer": "2AFCA14F19081583918658081", "minzoom": 2, "maxzoom": 8 }, "properties": { "halo": 1.6, "title": "因纽特人", "fontsize": 12, "tyid": "304001", "oid": "103:1576575200643", "color": "#0056E7" }, "geometry": { "type": "Point", "coordinates": [ -96.855469, 64.129784 ] } }
{ "type": "Feature", "tippecanoe": { "layer": "2AFCA14F19081583918658081", "minzoom": 2, "maxzoom": 8 }, "properties": { "halo": 1.6, "title": "泰萨勒页岩文化", "fontsize": 12, "tyid": "304002", "oid": "103:1576575200439", "color": "#0056E7" }, "geometry": { "type": "Point", "coordinates": [ -99.843750, 56.704506 ] } }
{ "type": "Feature", "tippecanoe": { "layer": "2AFCA14F19081583918658081", "minzoom": 2, "maxzoom": 8 }, "properties": { "halo": 1.6, "title": "坎贝尔文化", "fontsize": 12, "tyid": "304002", "oid": "103:1576575200662", "color": "#0056E7" }, "geometry": { "type": "Point", "coordinates": [ -121.289062, 38.685510 ] } }
{ "type": "Feature", "tippecanoe": { "layer": "2AFCA14F19081583918658081", "minzoom": 2, "maxzoom": 8 }, "properties": { "halo": 1.6, "title": "圣迪基图文化", "fontsize": 12, "tyid": "304002", "oid": "103:1576575200447", "color": "#0056E7" }, "geometry": { "type": "Point", "coordinates": [ -115.224609, 33.211116 ] } }
{ "type": "Feature", "tippecanoe": { "layer": "2AFCA14F19081583918658081", "minzoom": 2, "maxzoom": 8 }, "properties": { "halo": 1.6, "title": "独立二期文化", "fontsize": 12, "tyid": "304002", "oid": "103:1576575200760", "color": "#0056E7" }, "geometry": { "type": "Point", "coordinates": [ -41.220703, 81.960148 ] } }
{ "type": "Feature", "tippecanoe": { "layer": "2AFCA14F19081583918658081", "minzoom": 2, "maxzoom": 8 }, "properties": { "halo": 1.6, "title": "波茵特半岛文化", "fontsize": 12, "tyid": "304002", "oid": "103:1576575200684", "color": "#0056E7" }, "geometry": { "type": "Point", "coordinates": [ -76.816406, 45.336702 ] } }
{ "type": "Feature", "tippecanoe": { "layer": "2AFCA14F19081583918658081", "minzoom": 2, "maxzoom": 8 }, "properties": { "halo": 1.6, "title": "古海洋文化", "fontsize": 12, "tyid": "304002", "oid": "103:1576575200817", "color": "#0056E7" }, "geometry": { "type": "Point", "coordinates": [ -66.972656, 46.920255 ] } }
{ "type": "Feature", "tippecanoe": { "layer": "2AFCA14F19081583918658081", "minzoom": 2, "maxzoom": 8 }, "properties": { "halo": 1.6, "title": "阿登纳文化", "fontsize": 12, "tyid": "304002", "oid": "103:1576575200934", "color": "#0056E7" }, "geometry": { "type": "Point", "coordinates": [ -81.826172, 40.513799 ] } }
{ "type": "Feature", "tippecanoe": { "layer": "2AFCA14F19081583918658081", "minzoom": 2, "maxzoom": 8 }, "properties": { "halo": 1.6, "title": "凯尔特布立吞人", "fontsize": 12, "tyid": "304001", "oid": "103:1576575200677", "color": "#0056E7" }, "geometry": { "type": "Point", "coordinates": [ -1.845703, 52.589701 ] } }
{ "type": "Feature", "tippecanoe": { "layer": "2AFCA14F19081583918658081", "minzoom": 2, "maxzoom": 8 }, "properties": { "halo": 1.6, "title": "巴富尔人", "fontsize": 12, "tyid": "304001", "oid": "103:1576575200704", "color": "#0056E7" }, "geometry": { "type": "Point", "coordinates": [ -8.261719, 22.917923 ] } }
{ "type": "Feature", "tippecanoe": { "layer": "2AFCA14F19081583918658081", "minzoom": 2, "maxzoom": 8 }, "properties": { "halo": 1.6, "title": "索宁克人", "fontsize": 12, "tyid": "304001", "oid": "103:1576575200943", "color": "#0056E7" }, "geometry": { "type": "Point", "coordinates": [ -8.964844, 14.944785 ] } }
{ "type": "Feature", "tippecanoe": { "layer": "2AFCA14F19081583918658081", "minzoom": 2, "maxzoom": 8 }, "properties": { "halo": 1.6, "title": "曼德人", "fontsize": 12, "tyid": "304001", "oid": "103:1576575200510", "color": "#0056E7" }, "geometry": { "type": "Point", "coordinates": [ -7.558594, 8.146243 ] } }
{ "type": "Feature", "tippecanoe": { "layer": "2AFCA14F19081583918658081", "minzoom": 2, "maxzoom": 8 }, "properties": { "halo": 1.6, "title": "昌戈人", "fontsize": 12, "tyid": "304001", "oid": "103:1576575200844", "color": "#0056E7" }, "geometry": { "type": "Point", "coordinates": [ -70.136719, -24.926295 ] } }
{ "type": "Feature", "tippecanoe": { "layer": "2AFCA14F19081583918658081", "minzoom": 2, "maxzoom": 8 }, "properties": { "halo": 1.6, "title": "图皮人", "fontsize": 12, "tyid": "304001", "oid": "103:1576575200427", "color": "#0056E7" }, "geometry": { "type": "Point", "coordinates": [ -39.902344, -16.888660 ] } }
{ "type": "Feature", "tippecanoe": { "layer": "2AFCA14F19081583918658081", "minzoom": 2, "maxzoom": 8 }, "properties": { "halo": 1.6, "title": "萨米人", "fontsize": 12, "tyid": "304001", "oid": "103:1576575200468", "color": "#0056E7" }, "geometry": { "type": "Point", "coordinates": [ 25.400391, 68.171555 ] } }
{ "type": "Feature", "tippecanoe": { "layer": "2AFCA14F19081583918658081", "minzoom": 2, "maxzoom": 8 }, "properties": { "halo": 1.6, "title": "原始日耳曼人", "fontsize": 12, "tyid": "304001", "oid": "103:1576575200797", "color": "#0056E7" }, "geometry": { "type": "Point", "coordinates": [ 12.480469, 60.326948 ] } }
{ "type": "Feature", "tippecanoe": { "layer": "2AFCA14F19081583918658081", "minzoom": 2, "maxzoom": 8 }, "properties": { "halo": 1.6, "title": "山外高卢人", "fontsize": 12, "tyid": "304001", "oid": "103:1576575200449", "color": "#0056E7" }, "geometry": { "type": "Point", "coordinates": [ 2.812500, 47.694974 ] } }
{ "type": "Feature", "tippecanoe": { "layer": "2AFCA14F19081583918658081", "minzoom": 2, "maxzoom": 8 }, "properties": { "halo": 1.6, "title": "波德洛什维耶墓葬文化", "fontsize": 12, "tyid": "304002", "oid": "103:1576575200792", "color": "#0056E7" }, "geometry": { "type": "Point", "coordinates": [ 20.214844, 51.289406 ] } }
{ "type": "Feature", "tippecanoe": { "layer": "2AFCA14F19081583918658081", "minzoom": 2, "maxzoom": 8 }, "properties": { "halo": 1.6, "title": "凯尔特人", "fontsize": 12, "tyid": "304001", "oid": "103:1576575200552", "color": "#0056E7" }, "geometry": { "type": "Point", "coordinates": [ 16.523438, 48.516604 ] } }
{ "type": "Feature", "tippecanoe": { "layer": "2AFCA14F19081583918658081", "minzoom": 2, "maxzoom": 8 }, "properties": { "halo": 1.6, "title": "迪亚科夫文化", "fontsize": 12, "tyid": "304002", "oid": "103:1576575200593", "color": "#0056E7" }, "geometry": { "type": "Point", "coordinates": [ 37.968750, 56.800878 ] } }
{ "type": "Feature", "tippecanoe": { "layer": "2AFCA14F19081583918658081", "minzoom": 2, "maxzoom": 8 }, "properties": { "halo": 1.6, "title": "米洛格勒文化", "fontsize": 12, "tyid": "304002", "oid": "103:1576575200503", "color": "#0056E7" }, "geometry": { "type": "Point", "coordinates": [ 27.597656, 51.890054 ] } }
{ "type": "Feature", "tippecanoe": { "layer": "2AFCA14F19081583918658081", "minzoom": 2, "maxzoom": 8 }, "properties": { "halo": 1.6, "title": "第聂伯河与德维纳河文化", "fontsize": 12, "tyid": "304001", "oid": "103:1576575200591", "color": "#0056E7" }, "geometry": { "type": "Point", "coordinates": [ 31.728516, 55.578345 ] } }
{ "type": "Feature", "tippecanoe": { "layer": "2AFCA14F19081583918658081", "minzoom": 2, "maxzoom": 8 }, "properties": { "halo": 1.6, "title": "达契亚人", "fontsize": 12, "tyid": "304001", "oid": "103:1576575200596", "color": "#0056E7" }, "geometry": { "type": "Point", "coordinates": [ 25.400391, 46.195042 ] } }
{ "type": "Feature", "tippecanoe": { "layer": "2AFCA14F19081583918658081", "minzoom": 2, "maxzoom": 8 }, "properties": { "halo": 1.6, "title": "戈罗杰茨文化", "fontsize": 12, "tyid": "304002", "oid": "103:1576575200584", "color": "#0056E7" }, "geometry": { "type": "Point", "coordinates": [ 44.384766, 54.521081 ] } }
{ "type": "Feature", "tippecanoe": { "layer": "2AFCA14F19081583918658081", "minzoom": 2, "maxzoom": 8 }, "properties": { "halo": 1.8, "title": "迦太基帝国", "fontsize": 12, "tyid": "304000", "oid": "103:1576575200561", "color": "#0056E7" }, "geometry": { "type": "Point", "coordinates": [ 8.964844, 36.385913 ] } }
{ "type": "Feature", "tippecanoe": { "layer": "2AFCA14F19081583918658081", "minzoom": 2, "maxzoom": 8 }, "properties": { "halo": 1.6, "title": "柏柏尔人诸部", "fontsize": 12, "tyid": "304001", "oid": "103:1576575200699", "color": "#0056E7" }, "geometry": { "type": "Point", "coordinates": [ 2.724609, 26.352498 ] } }
{ "type": "Feature", "tippecanoe": { "layer": "2AFCA14F19081583918658081", "minzoom": 2, "maxzoom": 8 }, "properties": { "halo": 1.6, "title": "加拉曼特人", "fontsize": 12, "tyid": "304001", "oid": "103:1576575200880", "color": "#0056E7" }, "geometry": { "type": "Point", "coordinates": [ 18.544922, 27.605671 ] } }
{ "type": "Feature", "tippecanoe": { "layer": "2AFCA14F19081583918658081", "minzoom": 2, "maxzoom": 8 }, "properties": { "halo": 1.6, "title": "诺克文化", "fontsize": 12, "tyid": "304002", "oid": "103:1576575200495", "color": "#0056E7" }, "geometry": { "type": "Point", "coordinates": [ 7.119141, 10.574222 ] } }
{ "type": "Feature", "tippecanoe": { "layer": "2AFCA14F19081583918658081", "minzoom": 2, "maxzoom": 8 }, "properties": { "halo": 1.6, "title": "萨奥文明", "fontsize": 12, "tyid": "304002", "oid": "103:1576575200624", "color": "#0056E7" }, "geometry": { "type": "Point", "coordinates": [ 14.941406, 13.239945 ] } }
{ "type": "Feature", "tippecanoe": { "layer": "2AFCA14F19081583918658081", "minzoom": 2, "maxzoom": 8 }, "properties": { "halo": 1.6, "title": "巴卡人", "fontsize": 12, "tyid": "304001", "oid": "103:1576575200707", "color": "#0056E7" }, "geometry": { "type": "Point", "coordinates": [ 18.105469, 5.441022 ] } }
{ "type": "Feature", "tippecanoe": { "layer": "2AFCA14F19081583918658081", "minzoom": 2, "maxzoom": 8 }, "properties": { "halo": 1.8, "title": "马其顿王国", "fontsize": 12, "tyid": "304000", "oid": "103:1576575200518", "color": "#0056E7" }, "geometry": { "type": "Point", "coordinates": [ 30.673828, 38.959409 ] } }
{ "type": "Feature", "tippecanoe": { "layer": "2AFCA14F19081583918658081", "minzoom": 2, "maxzoom": 8 }, "properties": { "halo": 1.6, "title": "凯达尔联盟", "fontsize": 12, "tyid": "304001", "oid": "103:1576575200993", "color": "#0056E7" }, "geometry": { "type": "Point", "coordinates": [ 42.187500, 29.535230 ] } }
{ "type": "Feature", "tippecanoe": { "layer": "2AFCA14F19081583918658081", "minzoom": 2, "maxzoom": 8 }, "properties": { "halo": 1.6, "title": "北非贝都因人", "fontsize": 12, "tyid": "304001", "oid": "103:1576575200695", "color": "#0056E7" }, "geometry": { "type": "Point", "coordinates": [ 22.675781, 20.715015 ] } }
{ "type": "Feature", "tippecanoe": { "layer": "2AFCA14F19081583918658081", "minzoom": 2, "maxzoom": 8 }, "properties": { "halo": 1.6, "title": "富尔人", "fontsize": 12, "tyid": "304001", "oid": "103:1576575200839", "color": "#0056E7" }, "geometry": { "type": "Point", "coordinates": [ 26.015625, 12.983148 ] } }
{ "type": "Feature", "tippecanoe": { "layer": "2AFCA14F19081583918658081", "minzoom": 2, "maxzoom": 8 }, "properties": { "halo": 1.8, "title": "库施王国", "fontsize": 12, "tyid": "304000", "oid": "103:1576575200536", "color": "#0056E7" }, "geometry": { "type": "Point", "coordinates": [ 32.167969, 18.479609 ] } }
{ "type": "Feature", "tippecanoe": { "layer": "2AFCA14F19081583918658081", "minzoom": 2, "maxzoom": 8 }, "properties": { "halo": 1.6, "title": "卢欧诸部", "fontsize": 12, "tyid": "304001", "oid": "103:1576575200524", "color": "#0056E7" }, "geometry": { "type": "Point", "coordinates": [ 33.574219, 10.141932 ] } }
{ "type": "Feature", "tippecanoe": { "layer": "2AFCA14F19081583918658081", "minzoom": 2, "maxzoom": 8 }, "properties": { "halo": 1.6, "title": "尼罗特人", "fontsize": 12, "tyid": "304001", "oid": "103:1576575200493", "color": "#0056E7" }, "geometry": { "type": "Point", "coordinates": [ 33.310547, 1.230374 ] } }
{ "type": "Feature", "tippecanoe": { "layer": "2AFCA14F19081583918658081", "minzoom": 2, "maxzoom": 8 }, "properties": { "halo": 1.6, "title": "赛莫德人", "fontsize": 12, "tyid": "304001", "oid": "103:1576575200621", "color": "#0056E7" }, "geometry": { "type": "Point", "coordinates": [ 42.626953, 21.698265 ] } }
{ "type": "Feature", "tippecanoe": { "layer": "2AFCA14F19081583918658081", "minzoom": 2, "maxzoom": 8 }, "properties": { "halo": 1.6, "title": "库希特人", "fontsize": 12, "tyid": "304001", "oid": "103:1576575200810", "color": "#0056E7" }, "geometry": { "type": "Point", "coordinates": [ 44.121094, 4.477856 ] } }
{ "type": "Feature", "tippecanoe": { "layer": "2AFCA14F19081583918658081", "minzoom": 2, "maxzoom": 8 }, "properties": { "halo": 1.6, "title": "彼尔姆人", "fontsize": 12, "tyid": "304001", "oid": "103:1576575200691", "color": "#0056E7" }, "geometry": { "type": "Point", "coordinates": [ 55.371094, 57.844751 ] } }
{ "type": "Feature", "tippecanoe": { "layer": "2AFCA14F19081583918658081", "minzoom": 2, "maxzoom": 8 }, "properties": { "halo": 1.6, "title": "东马扎尔人", "fontsize": 12, "tyid": "304001", "oid": "103:1576575200588", "color": "#0056E7" }, "geometry": { "type": "Point", "coordinates": [ 59.238281, 61.396719 ] } }
{ "type": "Feature", "tippecanoe": { "layer": "2AFCA14F19081583918658081", "minzoom": 2, "maxzoom": 8 }, "properties": { "halo": 1.6, "title": "萨尔马提亚人", "fontsize": 12, "tyid": "304001", "oid": "103:1576575200469", "color": "#0056E7" }, "geometry": { "type": "Point", "coordinates": [ 46.406250, 50.513427 ] } }
{ "type": "Feature", "tippecanoe": { "layer": "2AFCA14F19081583918658081", "minzoom": 2, "maxzoom": 8 }, "properties": { "halo": 1.6, "title": "奥苏伊人", "fontsize": 12, "tyid": "304001", "oid": "103:1576575200711", "color": "#0056E7" }, "geometry": { "type": "Point", "coordinates": [ 50.009766, 47.576526 ] } }
{ "type": "Feature", "tippecanoe": { "layer": "2AFCA14F19081583918658081", "minzoom": 2, "maxzoom": 8 }, "properties": { "halo": 1.6, "title": "萨迦蒂安文化", "fontsize": 12, "tyid": "304002", "oid": "103:1576575200465", "color": "#0056E7" }, "geometry": { "type": "Point", "coordinates": [ 66.181641, 55.379110 ] } }
{ "type": "Feature", "tippecanoe": { "layer": "2AFCA14F19081583918658081", "minzoom": 2, "maxzoom": 8 }, "properties": { "halo": 1.6, "title": "斯基泰人", "fontsize": 12, "tyid": "304001", "oid": "103:1576575200979", "color": "#0056E7" }, "geometry": { "type": "Point", "coordinates": [ 63.369141, 49.382373 ] } }
{ "type": "Feature", "tippecanoe": { "layer": "2AFCA14F19081583918658081", "minzoom": 2, "maxzoom": 8 }, "properties": { "halo": 1.6, "title": "马萨格泰人", "fontsize": 12, "tyid": "304001", "oid": "103:1576575200971", "color": "#0056E7" }, "geometry": { "type": "Point", "coordinates": [ 63.984375, 46.619261 ] } }
{ "type": "Feature", "tippecanoe": { "layer": "2AFCA14F19081583918658081", "minzoom": 2, "maxzoom": 8 }, "properties": { "halo": 1.6, "title": "乌戈尔人", "fontsize": 12, "tyid": "304001", "oid": "103:1576575200409", "color": "#0056E7" }, "geometry": { "type": "Point", "coordinates": [ 77.080078, 57.088515 ] } }
{ "type": "Feature", "tippecanoe": { "layer": "2AFCA14F19081583918658081", "minzoom": 2, "maxzoom": 8 }, "properties": { "halo": 1.6, "title": "库莱文化", "fontsize": 12, "tyid": "304002", "oid": "103:1576575200540", "color": "#0056E7" }, "geometry": { "type": "Point", "coordinates": [ 84.023438, 59.130863 ] } }
{ "type": "Feature", "tippecanoe": { "layer": "2AFCA14F19081583918658081", "minzoom": 2, "maxzoom": 8 }, "properties": { "halo": 1.6, "title": "塔斯莫拉文化", "fontsize": 12, "tyid": "304002", "oid": "103:1576575200671", "color": "#0056E7" }, "geometry": { "type": "Point", "coordinates": [ 74.970703, 48.690960 ] } }
{ "type": "Feature", "tippecanoe": { "layer": "2AFCA14F19081583918658081", "minzoom": 2, "maxzoom": 8 }, "properties": { "halo": 1.6, "title": "塔加尔文化", "fontsize": 12, "tyid": "304002", "oid": "103:1576575200905", "color": "#0056E7" }, "geometry": { "type": "Point", "coordinates": [ 88.505859, 54.265224 ] } }
{ "type": "Feature", "tippecanoe": { "layer": "2AFCA14F19081583918658081", "minzoom": 2, "maxzoom": 8 }, "properties": { "halo": 1.6, "title": "切木尔切克文化", "fontsize": 12, "tyid": "304002", "oid": "103:1576575200477", "color": "#0056E7" }, "geometry": { "type": "Point", "coordinates": [ 87.011719, 48.166085 ] } }
{ "type": "Feature", "tippecanoe": { "layer": "2AFCA14F19081583918658081", "minzoom": 2, "maxzoom": 8 }, "properties": { "halo": 1.6, "title": "贝都因人", "fontsize": 12, "tyid": "304001", "oid": "103:1576575200994", "color": "#0056E7" }, "geometry": { "type": "Point", "coordinates": [ 49.482422, 22.024546 ] } }
{ "type": "Feature", "tippecanoe": { "layer": "2AFCA14F19081583918658081", "minzoom": 2, "maxzoom": 8 }, "properties": { "halo": 1.8, "title": "阿契美尼德帝国", "fontsize": 12, "tyid": "304000", "oid": "103:1576575201001", "color": "#0056E7" }, "geometry": { "type": "Point", "coordinates": [ 62.841797, 35.389050 ] } }
{ "type": "Feature", "tippecanoe": { "layer": "2AFCA14F19081583918658081", "minzoom": 2, "maxzoom": 8 }, "properties": { "halo": 1.8, "title": "马克鲁比亚王国", "fontsize": 12, "tyid": "304000", "oid": "103:1576575200520", "color": "#0056E7" }, "geometry": { "type": "Point", "coordinates": [ 49.130859, 9.102097 ] } }
{ "type": "Feature", "tippecanoe": { "layer": "2AFCA14F19081583918658081", "minzoom": 2, "maxzoom": 8 }, "properties": { "halo": 1.8, "title": "象雄王国", "fontsize": 12, "tyid": "304000", "oid": "103:1576575200750", "color": "#0056E7" }, "geometry": { "type": "Point", "coordinates": [ 79.804688, 32.694866 ] } }
{ "type": "Feature", "tippecanoe": { "layer": "2AFCA14F19081583918658081", "minzoom": 2, "maxzoom": 8 }, "properties": { "halo": 1.6, "title": "吐火罗人", "fontsize": 12, "tyid": "304001", "oid": "103:1576575200669", "color": "#0056E7" }, "geometry": { "type": "Point", "coordinates": [ 84.814453, 40.513799 ] } }
{ "type": "Feature", "tippecanoe": { "layer": "2AFCA14F19081583918658081", "minzoom": 2, "maxzoom": 8 }, "properties": { "halo": 1.8, "title": "摩揭陀难陀王朝", "fontsize": 12, "tyid": "304000", "oid": "103:1576575200501", "color": "#0056E7" }, "geometry": { "type": "Point", "coordinates": [ 81.123047, 24.447150 ] } }
{ "type": "Feature", "tippecanoe": { "layer": "2AFCA14F19081583918658081", "minzoom": 2, "maxzoom": 8 }, "properties": { "halo": 1.8, "title": "乌尤克文化", "fontsize": 12, "tyid": "304000", "oid": "103:1576575200952", "color": "#0056E7" }, "geometry": { "type": "Point", "coordinates": [ 93.076172, 49.553726 ] } }
{ "type": "Feature", "tippecanoe": { "layer": "2AFCA14F19081583918658081", "minzoom": 2, "maxzoom": 8 }, "properties": { "halo": 1.6, "title": "石板墓文化", "fontsize": 12, "tyid": "304002", "oid": "103:1576575200443", "color": "#0056E7" }, "geometry": { "type": "Point", "coordinates": [ 108.017578, 48.806863 ] } }
{ "type": "Feature", "tippecanoe": { "layer": "2AFCA14F19081583918658081", "minzoom": 2, "maxzoom": 8 }, "properties": { "halo": 1.6, "title": "通古斯人", "fontsize": 12, "tyid": "304001", "oid": "103:1576575200434", "color": "#0056E7" }, "geometry": { "type": "Point", "coordinates": [ 116.718750, 60.152442 ] } }
{ "type": "Feature", "tippecanoe": { "layer": "2AFCA14F19081583918658081", "minzoom": 2, "maxzoom": 8 }, "properties": { "halo": 1.6, "title": "东胡", "fontsize": 12, "tyid": "304001", "oid": "103:1576575200590", "color": "#0056E7" }, "geometry": { "type": "Point", "coordinates": [ 117.949219, 43.325178 ] } }
{ "type": "Feature", "tippecanoe": { "layer": "2AFCA14F19081583918658081", "minzoom": 2, "maxzoom": 8 }, "properties": { "halo": 1.6, "title": "濊貊", "fontsize": 12, "tyid": "304001", "oid": "103:1576575200567", "color": "#0056E7" }, "geometry": { "type": "Point", "coordinates": [ 125.507812, 43.325178 ] } }
{ "type": "Feature", "tippecanoe": { "layer": "2AFCA14F19081583918658081", "minzoom": 2, "maxzoom": 8 }, "properties": { "halo": 1.6, "title": "肃慎", "fontsize": 12, "tyid": "304001", "oid": "103:1576575200841", "color": "#0056E7" }, "geometry": { "type": "Point", "coordinates": [ 132.275391, 47.040182 ] } }
{ "type": "Feature", "tippecanoe": { "layer": "2AFCA14F19081583918658081", "minzoom": 2, "maxzoom": 8 }, "properties": { "halo": 1.6, "title": "古羌人", "fontsize": 12, "tyid": "304001", "oid": "103:1576575200575", "color": "#0056E7" }, "geometry": { "type": "Point", "coordinates": [ 91.845703, 33.358062 ] } }
{ "type": "Feature", "tippecanoe": { "layer": "2AFCA14F19081583918658081", "minzoom": 2, "maxzoom": 8 }, "properties": { "halo": 1.6, "title": "月氏", "fontsize": 12, "tyid": "304001", "oid": "103:1576575200745", "color": "#0056E7" }, "geometry": { "type": "Point", "coordinates": [ 99.755859, 39.232253 ] } }
{ "type": "Feature", "tippecanoe": { "layer": "2AFCA14F19081583918658081", "minzoom": 2, "maxzoom": 8 }, "properties": { "halo": 1.6, "title": "西瓯", "fontsize": 12, "tyid": "304001", "oid": "103:1576575200614", "color": "#0056E7" }, "geometry": { "type": "Point", "coordinates": [ 108.984375, 23.644524 ] } }
{ "type": "Feature", "tippecanoe": { "layer": "2AFCA14F19081583918658081", "minzoom": 2, "maxzoom": 8 }, "properties": { "halo": 1.8, "title": "楚", "fontsize": 12, "tyid": "304000", "oid": "103:1576575200609", "color": "#0056E7" }, "geometry": { "type": "Point", "coordinates": [ 113.027344, 30.145127 ] } }
{ "type": "Feature", "tippecanoe": { "layer": "2AFCA14F19081583918658081", "minzoom": 2, "maxzoom": 8 }, "properties": { "halo": 1.8, "title": "越", "fontsize": 12, "tyid": "304000", "oid": "103:1576575200635", "color": "#0056E7" }, "geometry": { "type": "Point", "coordinates": [ 118.828125, 30.902225 ] } }
{ "type": "Feature", "tippecanoe": { "layer": "2AFCA14F19081583918658081", "minzoom": 2, "maxzoom": 8 }, "properties": { "halo": 1.6, "title": "南岛人", "fontsize": 12, "tyid": "304001", "oid": "103:1576575200497", "color": "#0056E7" }, "geometry": { "type": "Point", "coordinates": [ 114.169922, 0.878872 ] } }
{ "type": "Feature", "tippecanoe": { "layer": "2AFCA14F19081583918658081", "minzoom": 2, "maxzoom": 8 }, "properties": { "halo": 1.6, "title": "尤卡吉尔人", "fontsize": 12, "tyid": "304001", "oid": "103:1576575200926", "color": "#0056E7" }, "geometry": { "type": "Point", "coordinates": [ 155.214844, 64.886265 ] } }
{ "type": "Feature", "tippecanoe": { "layer": "2AFCA14F19081583918658081", "minzoom": 2, "maxzoom": 8 }, "properties": { "halo": 1.6, "title": "尼夫赫人", "fontsize": 12, "tyid": "304001", "oid": "103:1576575200877", "color": "#0056E7" }, "geometry": { "type": "Point", "coordinates": [ 138.779297, 51.890054 ] } }
{ "type": "Feature", "tippecanoe": { "layer": "2AFCA14F19081583918658081", "minzoom": 2, "maxzoom": 8 }, "properties": { "halo": 1.6, "title": "科里亚克族", "fontsize": 12, "tyid": "304001", "oid": "103:1576575200969", "color": "#0056E7" }, "geometry": { "type": "Point", "coordinates": [ 166.728516, 62.349609 ] } }
{ "type": "Feature", "tippecanoe": { "layer": "2AFCA14F19081583918658081", "minzoom": 2, "maxzoom": 8 }, "properties": { "halo": 1.6, "title": "楚科奇人", "fontsize": 12, "tyid": "304001", "oid": "103:1576575200889", "color": "#0056E7" }, "geometry": { "type": "Point", "coordinates": [ 171.035156, 66.443107 ] } }
{ "type": "Feature", "tippecanoe": { "layer": "2AFCA14F19081583918658081", "minzoom": 2, "maxzoom": 8 }, "properties": { "halo": 1.6, "title": "绳文人", "fontsize": 12, "tyid": "304001", "oid": "103:1576575200445", "color": "#0056E7" }, "geometry": { "type": "Point", "coordinates": [ 139.218750, 36.668419 ] } }
{ "type": "Feature", "tippecanoe": { "layer": "2AFCA14F19081583918658081", "minzoom": 2, "maxzoom": 8 }, "properties": { "halo": 1.6, "title": "西北班图人诸部", "fontsize": 12, "tyid": "304001", "oid": "103:1576575200909", "color": "#0056E7" }, "geometry": { "type": "Point", "coordinates": [ 20.742188, -0.527336 ] } }
{ "type": "Feature", "tippecanoe": { "layer": "2AFCA14F19081583918658081", "minzoom": 2, "maxzoom": 8 }, "properties": { "halo": 1.6, "title": "西班图人诸部", "fontsize": 12, "tyid": "304001", "oid": "103:1576575200989", "color": "#0056E7" }, "geometry": { "type": "Point", "coordinates": [ 21.269531, -7.710992 ] } }
{ "type": "Feature", "tippecanoe": { "layer": "2AFCA14F19081583918658081", "minzoom": 2, "maxzoom": 8 }, "properties": { "halo": 1.6, "title": "科伊桑人", "fontsize": 12, "tyid": "304001", "oid": "103:1576575200983", "color": "#0056E7" }, "geometry": { "type": "Point", "coordinates": [ 25.136719, -20.632784 ] } }
{ "type": "Feature", "tippecanoe": { "layer": "2AFCA14F19081583918658081", "minzoom": 2, "maxzoom": 8 }, "properties": { "halo": 1.6, "title": "东班图人诸部", "fontsize": 12, "tyid": "304001", "oid": "103:1576575200986", "color": "#0056E7" }, "geometry": { "type": "Point", "coordinates": [ 34.365234, -7.188101 ] } }
{ "type": "Feature", "tippecanoe": { "layer": "2AFCA14F19081583918658081", "minzoom": 2, "maxzoom": 8 }, "properties": { "halo": 1.6, "title": "澳洲原住民", "fontsize": 12, "tyid": "304001", "oid": "103:1576575200853", "color": "#0056E7" }, "geometry": { "type": "Point", "coordinates": [ 134.296875, -25.562265 ] } }
{ "type": "Feature", "tippecanoe": { "layer": "2AFCA14F19081583918658081", "minzoom": 2, "maxzoom": 8 }, "properties": { "halo": 1.6, "title": "巴布亚人", "fontsize": 12, "tyid": "304001", "oid": "103:1576575200894", "color": "#0056E7" }, "geometry": { "type": "Point", "coordinates": [ 140.888672, -5.266008 ] } }
{ "type": "Feature", "tippecanoe": { "layer": "2AFCA14F1BA81583918658082", "minzoom": 2, "maxzoom": 8 }, "properties": { "halo": 0.2, "title": "丛台遗址", "fontsize": 12, "tyid": "700004", "centroid": "{\"type\":\"Point\",\"coordinates\":[114.484158892953,36.61496155485]}", "icon": "", "oid": "103:1543409624782", "color": "#4B4040" }, "geometry": { "type": "Point", "coordinates": [ 114.433594, 36.668419 ] } }
{ "type": "Feature", "tippecanoe": { "layer": "2AFCA14F1BA81583918658082", "minzoom": 2, "maxzoom": 8 }, "properties": { "halo": 0.2, "title": "宫殿建筑", "fontsize": 12, "tyid": "700000", "centroid": "{\"type\":\"Point\",\"coordinates\":[114.431248574268,36.58011512195]}", "icon": "", "oid": "103:1543409624786", "color": "#4B4040" }, "geometry": { "type": "Point", "coordinates": [ 114.345703, 36.597889 ] } }
{ "type": "Feature", "tippecanoe": { "layer": "2AFCA14F1BA81583918658082", "minzoom": 2, "maxzoom": 8 }, "properties": { "halo": 0.2, "title": "宫殿建筑", "fontsize": 12, "tyid": "700000", "centroid": "{\"type\":\"Point\",\"coordinates\":[114.432481185682,36.5722526488]}", "icon": "", "oid": "103:1543409624806", "color": "#4B4040" }, "geometry": { "type": "Point", "coordinates": [ 114.345703, 36.597889 ] } }
{ "type": "Feature", "tippecanoe": { "layer": "2AFCA14F1BA81583918658082", "minzoom": 2, "maxzoom": 8 }, "properties": { "halo": 0.2, "title": "一般建筑", "fontsize": 12, "tyid": "700002", "centroid": "{\"type\":\"Point\",\"coordinates\":[114.434488808303,36.58431159875]}", "icon": "", "oid": "103:1543409624788", "color": "#4B4040" }, "geometry": { "type": "Point", "coordinates": [ 114.433594, 36.597889 ] } }
{ "type": "Feature", "tippecanoe": { "layer": "2AFCA14F1BA81583918658082", "minzoom": 2, "maxzoom": 8 }, "properties": { "halo": 0.2, "title": "宫殿建筑", "fontsize": 12, "tyid": "700000", "centroid": "{\"type\":\"Point\",\"coordinates\":[114.44174198028,36.5844363419]}", "icon": "", "oid": "103:1543409624784", "color": "#4B4040" }, "geometry": { "type": "Point", "coordinates": [ 114.433594, 36.597889 ] } }
{ "type": "Feature", "tippecanoe": { "layer": "2AFCA14F1BA81583918658082", "minzoom": 2, "maxzoom": 8 }, "properties": { "halo": 0.2, "title": "宫殿建筑", "fontsize": 12, "tyid": "700000", "centroid": "{\"type\":\"Point\",\"coordinates\":[114.43546698475,36.57876269585]}", "icon": "", "oid": "103:1543409624793", "color": "#4B4040" }, "geometry": { "type": "Point", "coordinates": [ 114.433594, 36.597889 ] } }
{ "type": "Feature", "tippecanoe": { "layer": "2AFCA14F1BA81583918658082", "minzoom": 2, "maxzoom": 8 }, "properties": { "halo": 0.2, "title": "宫殿建筑", "fontsize": 12, "tyid": "700000", "centroid": "{\"type\":\"Point\",\"coordinates\":[114.435585474714,36.57603153075]}", "icon": "", "oid": "103:1543409624808", "color": "#4B4040" }, "geometry": { "type": "Point", "coordinates": [ 114.433594, 36.597889 ] } }
{ "type": "Feature", "tippecanoe": { "layer": "2AFCA14F1BA81583918658082", "minzoom": 2, "maxzoom": 8 }, "properties": { "halo": 0.2, "title": "宫殿建筑", "fontsize": 12, "tyid": "700000", "centroid": "{\"type\":\"Point\",\"coordinates\":[114.434069789637,36.5737565873]}", "icon": "", "oid": "103:1543409624816", "color": "#4B4040" }, "geometry": { "type": "Point", "coordinates": [ 114.433594, 36.597889 ] } }
{ "type": "Feature", "tippecanoe": { "layer": "2AFCA14F1BA81583918658082", "minzoom": 2, "maxzoom": 8 }, "properties": { "halo": 0.2, "title": "宫殿建筑", "fontsize": 12, "tyid": "700000", "centroid": "{\"type\":\"Point\",\"coordinates\":[114.435815940032,36.5728683341]}", "icon": "", "oid": "103:1543409624804", "color": "#4B4040" }, "geometry": { "type": "Point", "coordinates": [ 114.433594, 36.597889 ] } }
{ "type": "Feature", "tippecanoe": { "layer": "2AFCA14F1BA81583918658082", "minzoom": 2, "maxzoom": 8 }, "properties": { "halo": 0.2, "title": "宫殿建筑", "fontsize": 12, "tyid": "700000", "centroid": "{\"type\":\"Point\",\"coordinates\":[114.439197019375,36.57640641365]}", "icon": "", "oid": "103:1543409624814", "color": "#4B4040" }, "geometry": { "type": "Point", "coordinates": [ 114.433594, 36.597889 ] } }
{ "type": "Feature", "tippecanoe": { "layer": "2AFCA14F1BA81583918658082", "minzoom": 2, "maxzoom": 8 }, "properties": { "halo": 0.2, "title": "宫殿建筑", "fontsize": 12, "tyid": "700000", "centroid": "{\"type\":\"Point\",\"coordinates\":[114.441313875241,36.577889116]}", "icon": "", "oid": "103:1543409624810", "color": "#4B4040" }, "geometry": { "type": "Point", "coordinates": [ 114.433594, 36.597889 ] } }
{ "type": "Feature", "tippecanoe": { "layer": "2AFCA14F1BA81583918658082", "minzoom": 2, "maxzoom": 8 }, "properties": { "halo": 0.2, "title": "宫殿建筑", "fontsize": 12, "tyid": "700000", "centroid": "{\"type\":\"Point\",\"coordinates\":[114.44082166425,36.5763603126]}", "icon": "", "oid": "103:1543409624812", "color": "#4B4040" }, "geometry": { "type": "Point", "coordinates": [ 114.433594, 36.597889 ] } }
{ "type": "Feature", "tippecanoe": { "layer": "2AFCA14F1BA81583918658082", "minzoom": 2, "maxzoom": 8 }, "properties": { "halo": 0.2, "title": "宫殿建筑", "fontsize": 12, "tyid": "700000", "centroid": "{\"type\":\"Point\",\"coordinates\":[114.440701303226,36.5720444463]}", "icon": "", "oid": "103:1543409624803", "color": "#4B4040" }, "geometry": { "type": "Point", "coordinates": [ 114.433594, 36.597889 ] } }
{ "type": "Feature", "tippecanoe": { "layer": "2AFCA14F1BA81583918658082", "minzoom": 2, "maxzoom": 8 }, "properties": { "halo": 0.2, "title": "宫殿建筑", "fontsize": 12, "tyid": "700000", "centroid": "{\"type\":\"Point\",\"coordinates\":[114.43960147645,36.57041748955]}", "icon": "", "oid": "103:1543409624801", "color": "#4B4040" }, "geometry": { "type": "Point", "coordinates": [ 114.433594, 36.597889 ] } }
{ "type": "Feature", "tippecanoe": { "layer": "2AFCA14F1BA81583918658082", "minzoom": 2, "maxzoom": 8 }, "properties": { "halo": 0.2, "title": "宫殿建筑", "fontsize": 12, "tyid": "700000", "centroid": "{\"type\":\"Point\",\"coordinates\":[114.445811920957,36.57754769195]}", "icon": "", "oid": "103:1543409624817", "color": "#4B4040" }, "geometry": { "type": "Point", "coordinates": [ 114.433594, 36.597889 ] } }
{ "type": "Feature", "tippecanoe": { "layer": "2AFCA14F1BA81583918658082", "minzoom": 2, "maxzoom": 8 }, "properties": { "halo": 0.2, "title": "宫殿建筑", "fontsize": 12, "tyid": "700000", "centroid": "{\"type\":\"Point\",\"coordinates\":[114.44610189696,36.5723024591]}", "icon": "", "oid": "103:1543409624795", "color": "#4B4040" }, "geometry": { "type": "Point", "coordinates": [ 114.433594, 36.597889 ] } }
{ "type": "Feature", "tippecanoe": { "layer": "2AFCA14F1BA81583918658082", "minzoom": 2, "maxzoom": 8 }, "properties": { "halo": 0.2, "title": "宫殿建筑", "fontsize": 12, "tyid": "700000", "centroid": "{\"type\":\"Point\",\"coordinates\":[114.447467378066,36.57318375195]}", "icon": "", "oid": "103:1543409624790", "color": "#4B4040" }, "geometry": { "type": "Point", "coordinates": [ 114.433594, 36.597889 ] } }
{ "type": "Feature", "tippecanoe": { "layer": "2AFCA14F1BA81583918658082", "minzoom": 2, "maxzoom": 8 }, "properties": { "halo": 0.2, "title": "宫殿建筑", "fontsize": 12, "tyid": "700000", "centroid": "{\"type\":\"Point\",\"coordinates\":[114.445396755873,36.57042667025]}", "icon": "", "oid": "103:1543409624799", "color": "#4B4040" }, "geometry": { "type": "Point", "coordinates": [ 114.433594, 36.597889 ] } }
{ "type": "Feature", "tippecanoe": { "layer": "2AFCA14F1BA81583918658082", "minzoom": 2, "maxzoom": 8 }, "properties": { "halo": 0.2, "title": "宫殿建筑", "fontsize": 12, "tyid": "700000", "centroid": "{\"type\":\"Point\",\"coordinates\":[114.444791707951,36.56960266285]}", "icon": "", "oid": "103:1543409624792", "color": "#4B4040" }, "geometry": { "type": "Point", "coordinates": [ 114.433594, 36.597889 ] } }
{ "type": "Feature", "tippecanoe": { "layer": "2AFCA14F1BA81583918658082", "minzoom": 2, "maxzoom": 8 }, "properties": { "halo": 0.2, "title": "宫殿建筑", "fontsize": 12, "tyid": "700000", "centroid": "{\"type\":\"Point\",\"coordinates\":[114.446035383306,36.5713637616]}", "icon": "", "oid": "103:1543409624797", "color": "#4B4040" }, "geometry": { "type": "Point", "coordinates": [ 114.433594, 36.597889 ] } }
{ "type": "Feature", "tippecanoe": { "layer": "2AFCA14F1C181583918658075", "minzoom": 2, "maxzoom": 8 }, "properties": { "halo": 0.8, "title": "诺顿文化", "fontsize": 12, "tyid": "304002", "oid": "103:1576575200802", "color": "#262626" }, "geometry": { "type": "Point", "coordinates": [ -157.851562, 70.436799 ] } }
{ "type": "Feature", "tippecanoe": { "layer": "2AFCA14F1C181583918658075", "minzoom": 2, "maxzoom": 8 }, "properties": { "halo": 0.8, "title": "尤皮克人", "fontsize": 12, "tyid": "304001", "oid": "103:1576575200959", "color": "#262626" }, "geometry": { "type": "Point", "coordinates": [ -156.796875, 62.021528 ] } }
{ "type": "Feature", "tippecanoe": { "layer": "2AFCA14F1C181583918658075", "minzoom": 2, "maxzoom": 8 }, "properties": { "halo": 0.8, "title": "因纽皮雅特人", "fontsize": 12, "tyid": "304001", "oid": "103:1576575200950", "color": "#262626" }, "geometry": { "type": "Point", "coordinates": [ -149.501953, 65.219894 ] } }
{ "type": "Feature", "tippecanoe": { "layer": "2AFCA14F1C181583918658075", "minzoom": 2, "maxzoom": 8 }, "properties": { "halo": 0.8, "title": "阿留申人", "fontsize": 12, "tyid": "304001", "oid": "103:1576575200404", "color": "#262626" }, "geometry": { "type": "Point", "coordinates": [ -152.226562, 61.312452 ] } }
{ "type": "Feature", "tippecanoe": { "layer": "2AFCA14F1C181583918658075", "minzoom": 2, "maxzoom": 8 }, "properties": { "halo": 0.8, "title": "因纽特人", "fontsize": 12, "tyid": "304001", "oid": "103:1576575200643", "color": "#262626" }, "geometry": { "type": "Point", "coordinates": [ -96.855469, 64.129784 ] } }
{ "type": "Feature", "tippecanoe": { "layer": "2AFCA14F1C181583918658075", "minzoom": 2, "maxzoom": 8 }, "properties": { "halo": 0.8, "title": "泰萨勒页岩文化", "fontsize": 12, "tyid": "304002", "oid": "103:1576575200439", "color": "#262626" }, "geometry": { "type": "Point", "coordinates": [ -99.843750, 56.704506 ] } }
{ "type": "Feature", "tippecanoe": { "layer": "2AFCA14F1C181583918658075", "minzoom": 2, "maxzoom": 8 }, "properties": { "halo": 0.8, "title": "坎贝尔文化", "fontsize": 12, "tyid": "304002", "oid": "103:1576575200662", "color": "#262626" }, "geometry": { "type": "Point", "coordinates": [ -121.289062, 38.685510 ] } }
{ "type": "Feature", "tippecanoe": { "layer": "2AFCA14F1C181583918658075", "minzoom": 2, "maxzoom": 8 }, "properties": { "halo": 0.8, "title": "圣迪基图文化", "fontsize": 12, "tyid": "304002", "oid": "103:1576575200447", "color": "#262626" }, "geometry": { "type": "Point", "coordinates": [ -115.224609, 33.211116 ] } }
{ "type": "Feature", "tippecanoe": { "layer": "2AFCA14F1C181583918658075", "minzoom": 2, "maxzoom": 8 }, "properties": { "halo": 0.8, "title": "独立二期文化", "fontsize": 12, "tyid": "304002", "oid": "103:1576575200760", "color": "#262626" }, "geometry": { "type": "Point", "coordinates": [ -41.220703, 81.960148 ] } }
{ "type": "Feature", "tippecanoe": { "layer": "2AFCA14F1C181583918658075", "minzoom": 2, "maxzoom": 8 }, "properties": { "halo": 0.8, "title": "波茵特半岛文化", "fontsize": 12, "tyid": "304002", "oid": "103:1576575200684", "color": "#262626" }, "geometry": { "type": "Point", "coordinates": [ -76.816406, 45.336702 ] } }
{ "type": "Feature", "tippecanoe": { "layer": "2AFCA14F1C181583918658075", "minzoom": 2, "maxzoom": 8 }, "properties": { "halo": 0.8, "title": "古海洋文化", "fontsize": 12, "tyid": "304002", "oid": "103:1576575200817", "color": "#262626" }, "geometry": { "type": "Point", "coordinates": [ -66.972656, 46.920255 ] } }
{ "type": "Feature", "tippecanoe": { "layer": "2AFCA14F1C181583918658075", "minzoom": 2, "maxzoom": 8 }, "properties": { "halo": 0.8, "title": "阿登纳文化", "fontsize": 12, "tyid": "304002", "oid": "103:1576575200934", "color": "#262626" }, "geometry": { "type": "Point", "coordinates": [ -81.826172, 40.513799 ] } }
{ "type": "Feature", "tippecanoe": { "layer": "2AFCA14F1C181583918658075", "minzoom": 2, "maxzoom": 8 }, "properties": { "halo": 0.8, "title": "凯尔特布立吞人", "fontsize": 12, "tyid": "304001", "oid": "103:1576575200677", "color": "#262626" }, "geometry": { "type": "Point", "coordinates": [ -1.845703, 52.589701 ] } }
{ "type": "Feature", "tippecanoe": { "layer": "2AFCA14F1C181583918658075", "minzoom": 2, "maxzoom": 8 }, "properties": { "halo": 0.8, "title": "巴富尔人", "fontsize": 12, "tyid": "304001", "oid": "103:1576575200704", "color": "#262626" }, "geometry": { "type": "Point", "coordinates": [ -8.261719, 22.917923 ] } }
{ "type": "Feature", "tippecanoe": { "layer": "2AFCA14F1C181583918658075", "minzoom": 2, "maxzoom": 8 }, "properties": { "halo": 0.8, "title": "索宁克人", "fontsize": 12, "tyid": "304001", "oid": "103:1576575200943", "color": "#262626" }, "geometry": { "type": "Point", "coordinates": [ -8.964844, 14.944785 ] } }
{ "type": "Feature", "tippecanoe": { "layer": "2AFCA14F1C181583918658075", "minzoom": 2, "maxzoom": 8 }, "properties": { "halo": 0.8, "title": "曼德人", "fontsize": 12, "tyid": "304001", "oid": "103:1576575200510", "color": "#262626" }, "geometry": { "type": "Point", "coordinates": [ -7.558594, 8.146243 ] } }
{ "type": "Feature", "tippecanoe": { "layer": "2AFCA14F1C181583918658075", "minzoom": 2, "maxzoom": 8 }, "properties": { "halo": 0.8, "title": "昌戈人", "fontsize": 12, "tyid": "304001", "oid": "103:1576575200844", "color": "#262626" }, "geometry": { "type": "Point", "coordinates": [ -70.136719, -24.926295 ] } }
{ "type": "Feature", "tippecanoe": { "layer": "2AFCA14F1C181583918658075", "minzoom": 2, "maxzoom": 8 }, "properties": { "halo": 0.8, "title": "图皮人", "fontsize": 12, "tyid": "304001", "oid": "103:1576575200427", "color": "#262626" }, "geometry": { "type": "Point", "coordinates": [ -39.902344, -16.888660 ] } }
{ "type": "Feature", "tippecanoe": { "layer": "2AFCA14F1C181583918658075", "minzoom": 2, "maxzoom": 8 }, "properties": { "halo": 0.8, "title": "萨米人", "fontsize": 12, "tyid": "304001", "oid": "103:1576575200468", "color": "#262626" }, "geometry": { "type": "Point", "coordinates": [ 25.400391, 68.171555 ] } }
{ "type": "Feature", "tippecanoe": { "layer": "2AFCA14F1C181583918658075", "minzoom": 2, "maxzoom": 8 }, "properties": { "halo": 0.8, "title": "原始日耳曼人", "fontsize": 12, "tyid": "304001", "oid": "103:1576575200797", "color": "#262626" }, "geometry": { "type": "Point", "coordinates": [ 12.480469, 60.326948 ] } }
{ "type": "Feature", "tippecanoe": { "layer": "2AFCA14F1C181583918658075", "minzoom": 2, "maxzoom": 8 }, "properties": { "halo": 0.8, "title": "山外高卢人", "fontsize": 12, "tyid": "304001", "oid": "103:1576575200449", "color": "#262626" }, "geometry": { "type": "Point", "coordinates": [ 2.812500, 47.694974 ] } }
{ "type": "Feature", "tippecanoe": { "layer": "2AFCA14F1C181583918658075", "minzoom": 2, "maxzoom": 8 }, "properties": { "halo": 0.8, "title": "波德洛什维耶墓葬文化", "fontsize": 12, "tyid": "304002", "oid": "103:1576575200792", "color": "#262626" }, "geometry": { "type": "Point", "coordinates": [ 20.214844, 51.289406 ] } }
{ "type": "Feature", "tippecanoe": { "layer": "2AFCA14F1C181583918658075", "minzoom": 2, "maxzoom": 8 }, "properties": { "halo": 0.8, "title": "凯尔特人", "fontsize": 12, "tyid": "304001", "oid": "103:1576575200552", "color": "#262626" }, "geometry": { "type": "Point", "coordinates": [ 16.523438, 48.516604 ] } }
{ "type": "Feature", "tippecanoe": { "layer": "2AFCA14F1C181583918658075", "minzoom": 2, "maxzoom": 8 }, "properties": { "halo": 0.8, "title": "迪亚科夫文化", "fontsize": 12, "tyid": "304002", "oid": "103:1576575200593", "color": "#262626" }, "geometry": { "type": "Point", "coordinates": [ 37.968750, 56.800878 ] } }
{ "type": "Feature", "tippecanoe": { "layer": "2AFCA14F1C181583918658075", "minzoom": 2, "maxzoom": 8 }, "properties": { "halo": 0.8, "title": "米洛格勒文化", "fontsize": 12, "tyid": "304002", "oid": "103:1576575200503", "color": "#262626" }, "geometry": { "type": "Point", "coordinates": [ 27.597656, 51.890054 ] } }
{ "type": "Feature", "tippecanoe": { "layer": "2AFCA14F1C181583918658075", "minzoom": 2, "maxzoom": 8 }, "properties": { "halo": 0.8, "title": "第聂伯河与德维纳河文化", "fontsize": 12, "tyid": "304001", "oid": "103:1576575200591", "color": "#262626" }, "geometry": { "type": "Point", "coordinates": [ 31.728516, 55.578345 ] } }
{ "type": "Feature", "tippecanoe": { "layer": "2AFCA14F1C181583918658075", "minzoom": 2, "maxzoom": 8 }, "properties": { "halo": 0.8, "title": "达契亚人", "fontsize": 12, "tyid": "304001", "oid": "103:1576575200596", "color": "#262626" }, "geometry": { "type": "Point", "coordinates": [ 25.400391, 46.195042 ] } }
{ "type": "Feature", "tippecanoe": { "layer": "2AFCA14F1C181583918658075", "minzoom": 2, "maxzoom": 8 }, "properties": { "halo": 0.8, "title": "戈罗杰茨文化", "fontsize": 12, "tyid": "304002", "oid": "103:1576575200584", "color": "#262626" }, "geometry": { "type": "Point", "coordinates": [ 44.384766, 54.521081 ] } }
{ "type": "Feature", "tippecanoe": { "layer": "2AFCA14F1C181583918658075", "minzoom": 2, "maxzoom": 8 }, "properties": { "halo": 0.8, "title": "迦太基帝国", "fontsize": 12, "tyid": "304000", "oid": "103:1576575200561", "color": "#202020" }, "geometry": { "type": "Point", "coordinates": [ 8.964844, 36.385913 ] } }
{ "type": "Feature", "tippecanoe": { "layer": "2AFCA14F1C181583918658075", "minzoom": 2, "maxzoom": 8 }, "properties": { "halo": 0.8, "title": "柏柏尔人诸部", "fontsize": 12, "tyid": "304001", "oid": "103:1576575200699", "color": "#262626" }, "geometry": { "type": "Point", "coordinates": [ 2.724609, 26.352498 ] } }
{ "type": "Feature", "tippecanoe": { "layer": "2AFCA14F1C181583918658075", "minzoom": 2, "maxzoom": 8 }, "properties": { "halo": 0.8, "title": "加拉曼特人", "fontsize": 12, "tyid": "304001", "oid": "103:1576575200880", "color": "#262626" }, "geometry": { "type": "Point", "coordinates": [ 18.544922, 27.605671 ] } }
{ "type": "Feature", "tippecanoe": { "layer": "2AFCA14F1C181583918658075", "minzoom": 2, "maxzoom": 8 }, "properties": { "halo": 0.8, "title": "诺克文化", "fontsize": 12, "tyid": "304002", "oid": "103:1576575200495", "color": "#262626" }, "geometry": { "type": "Point", "coordinates": [ 7.119141, 10.574222 ] } }
{ "type": "Feature", "tippecanoe": { "layer": "2AFCA14F1C181583918658075", "minzoom": 2, "maxzoom": 8 }, "properties": { "halo": 0.8, "title": "萨奥文明", "fontsize": 12, "tyid": "304002", "oid": "103:1576575200624", "color": "#262626" }, "geometry": { "type": "Point", "coordinates": [ 14.941406, 13.239945 ] } }
{ "type": "Feature", "tippecanoe": { "layer": "2AFCA14F1C181583918658075", "minzoom": 2, "maxzoom": 8 }, "properties": { "halo": 0.8, "title": "巴卡人", "fontsize": 12, "tyid": "304001", "oid": "103:1576575200707", "color": "#262626" }, "geometry": { "type": "Point", "coordinates": [ 18.105469, 5.441022 ] } }
{ "type": "Feature", "tippecanoe": { "layer": "2AFCA14F1C181583918658075", "minzoom": 2, "maxzoom": 8 }, "properties": { "halo": 0.8, "title": "马其顿王国", "fontsize": 12, "tyid": "304000", "oid": "103:1576575200518", "color": "#202020" }, "geometry": { "type": "Point", "coordinates": [ 30.673828, 38.959409 ] } }
{ "type": "Feature", "tippecanoe": { "layer": "2AFCA14F1C181583918658075", "minzoom": 2, "maxzoom": 8 }, "properties": { "halo": 0.8, "title": "凯达尔联盟", "fontsize": 12, "tyid": "304001", "oid": "103:1576575200993", "color": "#262626" }, "geometry": { "type": "Point", "coordinates": [ 42.187500, 29.535230 ] } }
{ "type": "Feature", "tippecanoe": { "layer": "2AFCA14F1C181583918658075", "minzoom": 2, "maxzoom": 8 }, "properties": { "halo": 0.8, "title": "北非贝都因人", "fontsize": 12, "tyid": "304001", "oid": "103:1576575200695", "color": "#262626" }, "geometry": { "type": "Point", "coordinates": [ 22.675781, 20.715015 ] } }
{ "type": "Feature", "tippecanoe": { "layer": "2AFCA14F1C181583918658075", "minzoom": 2, "maxzoom": 8 }, "properties": { "halo": 0.8, "title": "富尔人", "fontsize": 12, "tyid": "304001", "oid": "103:1576575200839", "color": "#262626" }, "geometry": { "type": "Point", "coordinates": [ 26.015625, 12.983148 ] } }
{ "type": "Feature", "tippecanoe": { "layer": "2AFCA14F1C181583918658075", "minzoom": 2, "maxzoom": 8 }, "properties": { "halo": 0.8, "title": "库施王国", "fontsize": 12, "tyid": "304000", "oid": "103:1576575200536", "color": "#202020" }, "geometry": { "type": "Point", "coordinates": [ 32.167969, 18.479609 ] } }
{ "type": "Feature", "tippecanoe": { "layer": "2AFCA14F1C181583918658075", "minzoom": 2, "maxzoom": 8 }, "properties": { "halo": 0.8, "title": "卢欧诸部", "fontsize": 12, "tyid": "304001", "oid": "103:1576575200524", "color": "#262626" }, "geometry": { "type": "Point", "coordinates": [ 33.574219, 10.141932 ] } }
{ "type": "Feature", "tippecanoe": { "layer": "2AFCA14F1C181583918658075", "minzoom": 2, "maxzoom": 8 }, "properties": { "halo": 0.8, "title": "尼罗特人", "fontsize": 12, "tyid": "304001", "oid": "103:1576575200493", "color": "#262626" }, "geometry": { "type": "Point", "coordinates": [ 33.310547, 1.230374 ] } }
{ "type": "Feature", "tippecanoe": { "layer": "2AFCA14F1C181583918658075", "minzoom": 2, "maxzoom": 8 }, "properties": { "halo": 0.8, "title": "赛莫德人", "fontsize": 12, "tyid": "304001", "oid": "103:1576575200621", "color": "#262626" }, "geometry": { "type": "Point", "coordinates": [ 42.626953, 21.698265 ] } }
{ "type": "Feature", "tippecanoe": { "layer": "2AFCA14F1C181583918658075", "minzoom": 2, "maxzoom": 8 }, "properties": { "halo": 0.8, "title": "库希特人", "fontsize": 12, "tyid": "304001", "oid": "103:1576575200810", "color": "#262626" }, "geometry": { "type": "Point", "coordinates": [ 44.121094, 4.477856 ] } }
{ "type": "Feature", "tippecanoe": { "layer": "2AFCA14F1C181583918658075", "minzoom": 2, "maxzoom": 8 }, "properties": { "halo": 0.8, "title": "彼尔姆人", "fontsize": 12, "tyid": "304001", "oid": "103:1576575200691", "color": "#262626" }, "geometry": { "type": "Point", "coordinates": [ 55.371094, 57.844751 ] } }
{ "type": "Feature", "tippecanoe": { "layer": "2AFCA14F1C181583918658075", "minzoom": 2, "maxzoom": 8 }, "properties": { "halo": 0.8, "title": "东马扎尔人", "fontsize": 12, "tyid": "304001", "oid": "103:1576575200588", "color": "#262626" }, "geometry": { "type": "Point", "coordinates": [ 59.238281, 61.396719 ] } }
{ "type": "Feature", "tippecanoe": { "layer": "2AFCA14F1C181583918658075", "minzoom": 2, "maxzoom": 8 }, "properties": { "halo": 0.8, "title": "萨尔马提亚人", "fontsize": 12, "tyid": "304001", "oid": "103:1576575200469", "color": "#262626" }, "geometry": { "type": "Point", "coordinates": [ 46.406250, 50.513427 ] } }
{ "type": "Feature", "tippecanoe": { "layer": "2AFCA14F1C181583918658075", "minzoom": 2, "maxzoom": 8 }, "properties": { "halo": 0.8, "title": "奥苏伊人", "fontsize": 12, "tyid": "304001", "oid": "103:1576575200711", "color": "#262626" }, "geometry": { "type": "Point", "coordinates": [ 50.009766, 47.576526 ] } }
{ "type": "Feature", "tippecanoe": { "layer": "2AFCA14F1C181583918658075", "minzoom": 2, "maxzoom": 8 }, "properties": { "halo": 0.8, "title": "萨迦蒂安文化", "fontsize": 12, "tyid": "304002", "oid": "103:1576575200465", "color": "#262626" }, "geometry": { "type": "Point", "coordinates": [ 66.181641, 55.379110 ] } }
{ "type": "Feature", "tippecanoe": { "layer": "2AFCA14F1C181583918658075", "minzoom": 2, "maxzoom": 8 }, "properties": { "halo": 0.8, "title": "斯基泰人", "fontsize": 12, "tyid": "304001", "oid": "103:1576575200979", "color": "#262626" }, "geometry": { "type": "Point", "coordinates": [ 63.369141, 49.382373 ] } }
{ "type": "Feature", "tippecanoe": { "layer": "2AFCA14F1C181583918658075", "minzoom": 2, "maxzoom": 8 }, "properties": { "halo": 0.8, "title": "马萨格泰人", "fontsize": 12, "tyid": "304001", "oid": "103:1576575200971", "color": "#262626" }, "geometry": { "type": "Point", "coordinates": [ 63.984375, 46.619261 ] } }
{ "type": "Feature", "tippecanoe": { "layer": "2AFCA14F1C181583918658075", "minzoom": 2, "maxzoom": 8 }, "properties": { "halo": 0.8, "title": "乌戈尔人", "fontsize": 12, "tyid": "304001", "oid": "103:1576575200409", "color": "#262626" }, "geometry": { "type": "Point", "coordinates": [ 77.080078, 57.088515 ] } }
{ "type": "Feature", "tippecanoe": { "layer": "2AFCA14F1C181583918658075", "minzoom": 2, "maxzoom": 8 }, "properties": { "halo": 0.8, "title": "库莱文化", "fontsize": 12, "tyid": "304002", "oid": "103:1576575200540", "color": "#262626" }, "geometry": { "type": "Point", "coordinates": [ 84.023438, 59.130863 ] } }
{ "type": "Feature", "tippecanoe": { "layer": "2AFCA14F1C181583918658075", "minzoom": 2, "maxzoom": 8 }, "properties": { "halo": 0.8, "title": "塔斯莫拉文化", "fontsize": 12, "tyid": "304002", "oid": "103:1576575200671", "color": "#262626" }, "geometry": { "type": "Point", "coordinates": [ 74.970703, 48.690960 ] } }
{ "type": "Feature", "tippecanoe": { "layer": "2AFCA14F1C181583918658075", "minzoom": 2, "maxzoom": 8 }, "properties": { "halo": 0.8, "title": "塔加尔文化", "fontsize": 12, "tyid": "304002", "oid": "103:1576575200905", "color": "#262626" }, "geometry": { "type": "Point", "coordinates": [ 88.505859, 54.265224 ] } }
{ "type": "Feature", "tippecanoe": { "layer": "2AFCA14F1C181583918658075", "minzoom": 2, "maxzoom": 8 }, "properties": { "halo": 0.8, "title": "切木尔切克文化", "fontsize": 12, "tyid": "304002", "oid": "103:1576575200477", "color": "#262626" }, "geometry": { "type": "Point", "coordinates": [ 87.011719, 48.166085 ] } }
{ "type": "Feature", "tippecanoe": { "layer": "2AFCA14F1C181583918658075", "minzoom": 2, "maxzoom": 8 }, "properties": { "halo": 0.8, "title": "贝都因人", "fontsize": 12, "tyid": "304001", "oid": "103:1576575200994", "color": "#262626" }, "geometry": { "type": "Point", "coordinates": [ 49.482422, 22.024546 ] } }
{ "type": "Feature", "tippecanoe": { "layer": "2AFCA14F1C181583918658075", "minzoom": 2, "maxzoom": 8 }, "properties": { "halo": 0.8, "title": "阿契美尼德帝国", "fontsize": 12, "tyid": "304000", "oid": "103:1576575201001", "color": "#202020" }, "geometry": { "type": "Point", "coordinates": [ 62.841797, 35.389050 ] } }
{ "type": "Feature", "tippecanoe": { "layer": "2AFCA14F1C181583918658075", "minzoom": 2, "maxzoom": 8 }, "properties": { "halo": 0.8, "title": "马克鲁比亚王国", "fontsize": 12, "tyid": "304000", "oid": "103:1576575200520", "color": "#202020" }, "geometry": { "type": "Point", "coordinates": [ 49.130859, 9.102097 ] } }
{ "type": "Feature", "tippecanoe": { "layer": "2AFCA14F1C181583918658075", "minzoom": 2, "maxzoom": 8 }, "properties": { "halo": 0.8, "title": "象雄王国", "fontsize": 12, "tyid": "304000", "oid": "103:1576575200750", "color": "#202020" }, "geometry": { "type": "Point", "coordinates": [ 79.804688, 32.694866 ] } }
{ "type": "Feature", "tippecanoe": { "layer": "2AFCA14F1C181583918658075", "minzoom": 2, "maxzoom": 8 }, "properties": { "halo": 0.8, "title": "吐火罗人", "fontsize": 12, "tyid": "304001", "oid": "103:1576575200669", "color": "#262626" }, "geometry": { "type": "Point", "coordinates": [ 84.814453, 40.513799 ] } }
{ "type": "Feature", "tippecanoe": { "layer": "2AFCA14F1C181583918658075", "minzoom": 2, "maxzoom": 8 }, "properties": { "halo": 0.8, "title": "摩揭陀难陀王朝", "fontsize": 12, "tyid": "304000", "oid": "103:1576575200501", "color": "#202020" }, "geometry": { "type": "Point", "coordinates": [ 81.123047, 24.447150 ] } }
{ "type": "Feature", "tippecanoe": { "layer": "2AFCA14F1C181583918658075", "minzoom": 2, "maxzoom": 8 }, "properties": { "halo": 0.8, "title": "乌尤克文化", "fontsize": 12, "tyid": "304000", "oid": "103:1576575200952", "color": "#202020" }, "geometry": { "type": "Point", "coordinates": [ 93.076172, 49.553726 ] } }
{ "type": "Feature", "tippecanoe": { "layer": "2AFCA14F1C181583918658075", "minzoom": 2, "maxzoom": 8 }, "properties": { "halo": 0.8, "title": "石板墓文化", "fontsize": 12, "tyid": "304002", "oid": "103:1576575200443", "color": "#262626" }, "geometry": { "type": "Point", "coordinates": [ 108.017578, 48.806863 ] } }
{ "type": "Feature", "tippecanoe": { "layer": "2AFCA14F1C181583918658075", "minzoom": 2, "maxzoom": 8 }, "properties": { "halo": 0.8, "title": "通古斯人", "fontsize": 12, "tyid": "304001", "oid": "103:1576575200434", "color": "#262626" }, "geometry": { "type": "Point", "coordinates": [ 116.718750, 60.152442 ] } }
{ "type": "Feature", "tippecanoe": { "layer": "2AFCA14F1C181583918658075", "minzoom": 2, "maxzoom": 8 }, "properties": { "halo": 0.8, "title": "东胡", "fontsize": 12, "tyid": "304001", "oid": "103:1576575200590", "color": "#262626" }, "geometry": { "type": "Point", "coordinates": [ 117.949219, 43.325178 ] } }
{ "type": "Feature", "tippecanoe": { "layer": "2AFCA14F1C181583918658075", "minzoom": 2, "maxzoom": 8 }, "properties": { "halo": 0.8, "title": "濊貊", "fontsize": 12, "tyid": "304001", "oid": "103:1576575200567", "color": "#262626" }, "geometry": { "type": "Point", "coordinates": [ 125.507812, 43.325178 ] } }
{ "type": "Feature", "tippecanoe": { "layer": "2AFCA14F1C181583918658075", "minzoom": 2, "maxzoom": 8 }, "properties": { "halo": 0.8, "title": "肃慎", "fontsize": 12, "tyid": "304001", "oid": "103:1576575200841", "color": "#262626" }, "geometry": { "type": "Point", "coordinates": [ 132.275391, 47.040182 ] } }
{ "type": "Feature", "tippecanoe": { "layer": "2AFCA14F1C181583918658075", "minzoom": 2, "maxzoom": 8 }, "properties": { "halo": 0.8, "title": "古羌人", "fontsize": 12, "tyid": "304001", "oid": "103:1576575200575", "color": "#262626" }, "geometry": { "type": "Point", "coordinates": [ 91.845703, 33.358062 ] } }
{ "type": "Feature", "tippecanoe": { "layer": "2AFCA14F1C181583918658075", "minzoom": 2, "maxzoom": 8 }, "properties": { "halo": 0.8, "title": "月氏", "fontsize": 12, "tyid": "304001", "oid": "103:1576575200745", "color": "#262626" }, "geometry": { "type": "Point", "coordinates": [ 99.755859, 39.232253 ] } }
{ "type": "Feature", "tippecanoe": { "layer": "2AFCA14F1C181583918658075", "minzoom": 2, "maxzoom": 8 }, "properties": { "halo": 0.8, "title": "西瓯", "fontsize": 12, "tyid": "304001", "oid": "103:1576575200614", "color": "#262626" }, "geometry": { "type": "Point", "coordinates": [ 108.984375, 23.644524 ] } }
{ "type": "Feature", "tippecanoe": { "layer": "2AFCA14F1C181583918658075", "minzoom": 2, "maxzoom": 8 }, "properties": { "halo": 0.8, "title": "楚", "fontsize": 12, "tyid": "304000", "oid": "103:1576575200609", "color": "#202020" }, "geometry": { "type": "Point", "coordinates": [ 113.027344, 30.145127 ] } }
{ "type": "Feature", "tippecanoe": { "layer": "2AFCA14F1C181583918658075", "minzoom": 2, "maxzoom": 8 }, "properties": { "halo": 0.8, "title": "越", "fontsize": 12, "tyid": "304000", "oid": "103:1576575200635", "color": "#202020" }, "geometry": { "type": "Point", "coordinates": [ 118.828125, 30.902225 ] } }
{ "type": "Feature", "tippecanoe": { "layer": "2AFCA14F1C181583918658075", "minzoom": 2, "maxzoom": 8 }, "properties": { "halo": 0.8, "title": "南岛人", "fontsize": 12, "tyid": "304001", "oid": "103:1576575200497", "color": "#262626" }, "geometry": { "type": "Point", "coordinates": [ 114.169922, 0.878872 ] } }
{ "type": "Feature", "tippecanoe": { "layer": "2AFCA14F1C181583918658075", "minzoom": 2, "maxzoom": 8 }, "properties": { "halo": 0.8, "title": "尤卡吉尔人", "fontsize": 12, "tyid": "304001", "oid": "103:1576575200926", "color": "#262626" }, "geometry": { "type": "Point", "coordinates": [ 155.214844, 64.886265 ] } }
{ "type": "Feature", "tippecanoe": { "layer": "2AFCA14F1C181583918658075", "minzoom": 2, "maxzoom": 8 }, "properties": { "halo": 0.8, "title": "尼夫赫人", "fontsize": 12, "tyid": "304001", "oid": "103:1576575200877", "color": "#262626" }, "geometry": { "type": "Point", "coordinates": [ 138.779297, 51.890054 ] } }
{ "type": "Feature", "tippecanoe": { "layer": "2AFCA14F1C181583918658075", "minzoom": 2, "maxzoom": 8 }, "properties": { "halo": 0.8, "title": "科里亚克族", "fontsize": 12, "tyid": "304001", "oid": "103:1576575200969", "color": "#262626" },