{"year": "BC333",  "type": "Feature", "tippecanoe": { "layer": "2AFCA05309781583918697302", "minzoom": 2, "maxzoom": 8 }, "properties": { "halo": 0.8, "title": "拉霍亚文化", "fontsize": 12, "tyid": "304002", "oid": "103:1576575170138", "color": "#262626" }, "geometry": { "type": "Point", "coordinates": [ -118.916016, 34.597042 ] } }
{"year": "BC333",  "type": "Feature", "tippecanoe": { "layer": "2AFCA05309781583918697302", "minzoom": 2, "maxzoom": 8 }, "properties": { "halo": 0.8, "title": "古普韦布洛人", "fontsize": 12, "tyid": "304001", "oid": "103:1576575170431", "color": "#262626" }, "geometry": { "type": "Point", "coordinates": [ -110.126953, 36.949892 ] } }
{"year": "BC333",  "type": "Feature", "tippecanoe": { "layer": "2AFCA05309781583918697302", "minzoom": 2, "maxzoom": 8 }, "properties": { "halo": 0.8, "title": "科奇斯文化", "fontsize": 12, "tyid": "304002", "oid": "103:1576575170148", "color": "#262626" }, "geometry": { "type": "Point", "coordinates": [ -110.039062, 32.249974 ] } }
{"year": "BC333",  "type": "Feature", "tippecanoe": { "layer": "2AFCA05309781583918697302", "minzoom": 2, "maxzoom": 8 }, "properties": { "halo": 0.8, "title": "奇瓦瓦文化", "fontsize": 12, "tyid": "304002", "oid": "103:1576575170370", "color": "#262626" }, "geometry": { "type": "Point", "coordinates": [ -107.226562, 32.768800 ] } }
{"year": "BC333",  "type": "Feature", "tippecanoe": { "layer": "2AFCA05309781583918697302", "minzoom": 2, "maxzoom": 8 }, "properties": { "halo": 0.8, "title": "奥沙拉文化", "fontsize": 12, "tyid": "304002", "oid": "103:1576575170314", "color": "#262626" }, "geometry": { "type": "Point", "coordinates": [ -106.699219, 37.579413 ] } }
{"year": "BC333",  "type": "Feature", "tippecanoe": { "layer": "2AFCA05309781583918697302", "minzoom": 2, "maxzoom": 8 }, "properties": { "halo": 0.8, "title": "瓜伊库拉人", "fontsize": 12, "tyid": "304001", "oid": "103:1576575170173", "color": "#262626" }, "geometry": { "type": "Point", "coordinates": [ -111.269531, 24.846565 ] } }
{"year": "BC333",  "type": "Feature", "tippecanoe": { "layer": "2AFCA05309781583918697302", "minzoom": 2, "maxzoom": 8 }, "properties": { "halo": 0.8, "title": "楚拉时期", "fontsize": 12, "tyid": "304002", "oid": "103:1576575170340", "color": "#262626" }, "geometry": { "type": "Point", "coordinates": [ -92.109375, 32.620870 ] } }
{"year": "BC333",  "type": "Feature", "tippecanoe": { "layer": "2AFCA05309781583918697302", "minzoom": 2, "maxzoom": 8 }, "properties": { "halo": 0.8, "title": "华斯塔克文明", "fontsize": 12, "tyid": "304002", "oid": "103:1576575170381", "color": "#262626" }, "geometry": { "type": "Point", "coordinates": [ -98.613281, 22.105999 ] } }
{"year": "BC333",  "type": "Feature", "tippecanoe": { "layer": "2AFCA05309781583918697302", "minzoom": 2, "maxzoom": 8 }, "properties": { "halo": 0.8, "title": "奇蒂玛察人", "fontsize": 12, "tyid": "304001", "oid": "103:1576575170085", "color": "#262626" }, "geometry": { "type": "Point", "coordinates": [ -91.054688, 30.372875 ] } }
{"year": "BC333",  "type": "Feature", "tippecanoe": { "layer": "2AFCA05309781583918697302", "minzoom": 2, "maxzoom": 8 }, "properties": { "halo": 0.8, "title": "埃尔欧朋文化", "fontsize": 12, "tyid": "304002", "oid": "103:1576575170324", "color": "#262626" }, "geometry": { "type": "Point", "coordinates": [ -101.865234, 19.642588 ] } }
{"year": "BC333",  "type": "Feature", "tippecanoe": { "layer": "2AFCA05309781583918697302", "minzoom": 2, "maxzoom": 8 }, "properties": { "halo": 0.8, "title": "梅斯卡拉文化", "fontsize": 12, "tyid": "304002", "oid": "103:1576575170112", "color": "#262626" }, "geometry": { "type": "Point", "coordinates": [ -100.810547, 17.895114 ] } }
{"year": "BC333",  "type": "Feature", "tippecanoe": { "layer": "2AFCA05309781583918697302", "minzoom": 2, "maxzoom": 8 }, "properties": { "halo": 0.8, "title": "萨波特克文明", "fontsize": 12, "tyid": "304002", "oid": "103:1576575170076", "color": "#262626" }, "geometry": { "type": "Point", "coordinates": [ -96.064453, 16.636192 ] } }
{"year": "BC333",  "type": "Feature", "tippecanoe": { "layer": "2AFCA05309781583918697302", "minzoom": 2, "maxzoom": 8 }, "properties": { "halo": 0.8, "title": "德普特福德文化", "fontsize": 12, "tyid": "304002", "oid": "103:1576575170526", "color": "#262626" }, "geometry": { "type": "Point", "coordinates": [ -79.628906, 33.358062 ] } }
{"year": "BC333",  "type": "Feature", "tippecanoe": { "layer": "2AFCA05309781583918697302", "minzoom": 2, "maxzoom": 8 }, "properties": { "halo": 0.8, "title": "切格文特文化", "fontsize": 12, "tyid": "304002", "oid": "103:1576575170230", "color": "#262626" }, "geometry": { "type": "Point", "coordinates": [ -89.208984, 30.600094 ] } }
{"year": "BC333",  "type": "Feature", "tippecanoe": { "layer": "2AFCA05309781583918697302", "minzoom": 2, "maxzoom": 8 }, "properties": { "halo": 0.8, "title": "玛雅文明[前古典时期]", "fontsize": 12, "tyid": "304002", "oid": "103:1576575170117", "color": "#262626" }, "geometry": { "type": "Point", "coordinates": [ -89.296875, 17.140790 ] } }
{"year": "BC333",  "type": "Feature", "tippecanoe": { "layer": "2AFCA05309781583918697302", "minzoom": 2, "maxzoom": 8 }, "properties": { "halo": 0.8, "title": "拉托利塔文化", "fontsize": 12, "tyid": "304002", "oid": "103:1576575170406", "color": "#262626" }, "geometry": { "type": "Point", "coordinates": [ -78.046875, 1.757537 ] } }
{"year": "BC333",  "type": "Feature", "tippecanoe": { "layer": "2AFCA05309781583918697302", "minzoom": 2, "maxzoom": 8 }, "properties": { "halo": 0.8, "title": "科瑞尔文化", "fontsize": 12, "tyid": "304002", "oid": "103:1576575170146", "color": "#262626" }, "geometry": { "type": "Point", "coordinates": [ -78.750000, 0.439449 ] } }
{"year": "BC333",  "type": "Feature", "tippecanoe": { "layer": "2AFCA05309781583918697302", "minzoom": 2, "maxzoom": 8 }, "properties": { "halo": 0.8, "title": "埃雷拉时期", "fontsize": 12, "tyid": "304002", "oid": "103:1576575170426", "color": "#262626" }, "geometry": { "type": "Point", "coordinates": [ -73.476562, 5.441022 ] } }
{"year": "BC333",  "type": "Feature", "tippecanoe": { "layer": "2AFCA05309781583918697302", "minzoom": 2, "maxzoom": 8 }, "properties": { "halo": 0.8, "title": "伊奈里人", "fontsize": 12, "tyid": "304001", "oid": "103:1576575170256", "color": "#262626" }, "geometry": { "type": "Point", "coordinates": [ -62.929688, 8.581021 ] } }
{"year": "BC333",  "type": "Feature", "tippecanoe": { "layer": "2AFCA05309781583918697302", "minzoom": 2, "maxzoom": 8 }, "properties": { "halo": 0.8, "title": "皮克特人", "fontsize": 12, "tyid": "304001", "oid": "103:1576575170090", "color": "#262626" }, "geometry": { "type": "Point", "coordinates": [ -4.042969, 56.704506 ] } }
{"year": "BC333",  "type": "Feature", "tippecanoe": { "layer": "2AFCA05309781583918697302", "minzoom": 2, "maxzoom": 8 }, "properties": { "halo": 0.8, "title": "盖尔人", "fontsize": 12, "tyid": "304001", "oid": "103:1576575170434", "color": "#262626" }, "geometry": { "type": "Point", "coordinates": [ -7.910156, 53.435719 ] } }
{"year": "BC333",  "type": "Feature", "tippecanoe": { "layer": "2AFCA05309781583918697302", "minzoom": 2, "maxzoom": 8 }, "properties": { "halo": 0.8, "title": "加利西亚人", "fontsize": 12, "tyid": "304001", "oid": "103:1576575170167", "color": "#262626" }, "geometry": { "type": "Point", "coordinates": [ -7.998047, 42.488302 ] } }
{"year": "BC333",  "type": "Feature", "tippecanoe": { "layer": "2AFCA05309781583918697302", "minzoom": 2, "maxzoom": 8 }, "properties": { "halo": 0.8, "title": "阿斯图尔人", "fontsize": 12, "tyid": "304001", "oid": "103:1576575170328", "color": "#262626" }, "geometry": { "type": "Point", "coordinates": [ -6.152344, 42.553080 ] } }
{"year": "BC333",  "type": "Feature", "tippecanoe": { "layer": "2AFCA05309781583918697302", "minzoom": 2, "maxzoom": 8 }, "properties": { "halo": 0.8, "title": "瓦凯伊人", "fontsize": 12, "tyid": "304001", "oid": "103:1576575170021", "color": "#262626" }, "geometry": { "type": "Point", "coordinates": [ -4.658203, 41.640078 ] } }
{"year": "BC333",  "type": "Feature", "tippecanoe": { "layer": "2AFCA05309781583918697302", "minzoom": 2, "maxzoom": 8 }, "properties": { "halo": 0.8, "title": "阿奎丹人", "fontsize": 12, "tyid": "304001", "oid": "103:1576575170329", "color": "#262626" }, "geometry": { "type": "Point", "coordinates": [ -0.175781, 43.834527 ] } }
{"year": "BC333",  "type": "Feature", "tippecanoe": { "layer": "2AFCA05309781583918697302", "minzoom": 2, "maxzoom": 8 }, "properties": { "halo": 0.8, "title": "卢西塔利亚人", "fontsize": 12, "tyid": "304001", "oid": "103:1576575170129", "color": "#262626" }, "geometry": { "type": "Point", "coordinates": [ -7.646484, 40.313043 ] } }
{"year": "BC333",  "type": "Feature", "tippecanoe": { "layer": "2AFCA05309781583918697302", "minzoom": 2, "maxzoom": 8 }, "properties": { "halo": 0.8, "title": "凯蒂奇人", "fontsize": 12, "tyid": "304001", "oid": "103:1576575170158", "color": "#262626" }, "geometry": { "type": "Point", "coordinates": [ -7.646484, 38.959409 ] } }
{"year": "BC333",  "type": "Feature", "tippecanoe": { "layer": "2AFCA05309781583918697302", "minzoom": 2, "maxzoom": 8 }, "properties": { "halo": 0.8, "title": "维托内人", "fontsize": 12, "tyid": "304001", "oid": "103:1576575170023", "color": "#262626" }, "geometry": { "type": "Point", "coordinates": [ -5.800781, 40.313043 ] } }
{"year": "BC333",  "type": "Feature", "tippecanoe": { "layer": "2AFCA05309781583918697302", "minzoom": 2, "maxzoom": 8 }, "properties": { "halo": 0.8, "title": "西尼特人", "fontsize": 12, "tyid": "304001", "oid": "103:1576575170351", "color": "#262626" }, "geometry": { "type": "Point", "coordinates": [ -8.261719, 37.649034 ] } }
{"year": "BC333",  "type": "Feature", "tippecanoe": { "layer": "2AFCA05309781583918697302", "minzoom": 2, "maxzoom": 8 }, "properties": { "halo": 0.8, "title": "图尔杜利人", "fontsize": 12, "tyid": "304001", "oid": "103:1576575170031", "color": "#262626" }, "geometry": { "type": "Point", "coordinates": [ -6.855469, 38.479395 ] } }
{"year": "BC333",  "type": "Feature", "tippecanoe": { "layer": "2AFCA05309781583918697302", "minzoom": 2, "maxzoom": 8 }, "properties": { "halo": 0.8, "title": "卡佩塔尼人", "fontsize": 12, "tyid": "304001", "oid": "103:1576575170411", "color": "#262626" }, "geometry": { "type": "Point", "coordinates": [ -3.955078, 39.977120 ] } }
{"year": "BC333",  "type": "Feature", "tippecanoe": { "layer": "2AFCA05309781583918697302", "minzoom": 2, "maxzoom": 8 }, "properties": { "halo": 0.8, "title": "图尔德泰尼人", "fontsize": 12, "tyid": "304001", "oid": "103:1576575170037", "color": "#262626" }, "geometry": { "type": "Point", "coordinates": [ -5.097656, 37.718590 ] } }
{"year": "BC333",  "type": "Feature", "tippecanoe": { "layer": "2AFCA05309781583918697302", "minzoom": 2, "maxzoom": 8 }, "properties": { "halo": 0.8, "title": "奥雷塔尼人", "fontsize": 12, "tyid": "304001", "oid": "103:1576575170316", "color": "#262626" }, "geometry": { "type": "Point", "coordinates": [ -3.251953, 38.548165 ] } }
{"year": "BC333",  "type": "Feature", "tippecanoe": { "layer": "2AFCA05309781583918697302", "minzoom": 2, "maxzoom": 8 }, "properties": { "halo": 0.8, "title": "凯尔特伊比利亚人", "fontsize": 12, "tyid": "304001", "oid": "103:1576575170154", "color": "#262626" }, "geometry": { "type": "Point", "coordinates": [ -2.197266, 40.780541 ] } }
{"year": "BC333",  "type": "Feature", "tippecanoe": { "layer": "2AFCA05309781583918697302", "minzoom": 2, "maxzoom": 8 }, "properties": { "halo": 0.8, "title": "巴斯塔尼人", "fontsize": 12, "tyid": "304001", "oid": "103:1576575170302", "color": "#262626" }, "geometry": { "type": "Point", "coordinates": [ -2.460938, 37.579413 ] } }
{"year": "BC333",  "type": "Feature", "tippecanoe": { "layer": "2AFCA05309781583918697302", "minzoom": 2, "maxzoom": 8 }, "properties": { "halo": 0.8, "title": "达尔蒂奇特文化", "fontsize": 12, "tyid": "304002", "oid": "103:1576575170360", "color": "#262626" }, "geometry": { "type": "Point", "coordinates": [ -9.404297, 18.812718 ] } }
{"year": "BC333",  "type": "Feature", "tippecanoe": { "layer": "2AFCA05309781583918697302", "minzoom": 2, "maxzoom": 8 }, "properties": { "halo": 0.8, "title": "楚真文化", "fontsize": 12, "tyid": "304002", "oid": "103:1576575170485", "color": "#262626" }, "geometry": { "type": "Point", "coordinates": [ -70.576172, -16.299051 ] } }
{"year": "BC333",  "type": "Feature", "tippecanoe": { "layer": "2AFCA05309781583918697302", "minzoom": 2, "maxzoom": 8 }, "properties": { "halo": 0.8, "title": "普卡拉文化", "fontsize": 12, "tyid": "304002", "oid": "103:1576575170087", "color": "#262626" }, "geometry": { "type": "Point", "coordinates": [ -70.048828, -14.434680 ] } }
{"year": "BC333",  "type": "Feature", "tippecanoe": { "layer": "2AFCA05309781583918697302", "minzoom": 2, "maxzoom": 8 }, "properties": { "halo": 0.8, "title": "艾马拉人", "fontsize": 12, "tyid": "304001", "oid": "103:1576575170321", "color": "#262626" }, "geometry": { "type": "Point", "coordinates": [ -68.378906, -17.056785 ] } }
{"year": "BC333",  "type": "Feature", "tippecanoe": { "layer": "2AFCA05309781583918697302", "minzoom": 2, "maxzoom": 8 }, "properties": { "halo": 0.8, "title": "阿拉米托文化", "fontsize": 12, "tyid": "304002", "oid": "103:1576575170332", "color": "#262626" }, "geometry": { "type": "Point", "coordinates": [ -67.851562, -26.588527 ] } }
{"year": "BC333",  "type": "Feature", "tippecanoe": { "layer": "2AFCA05309781583918697302", "minzoom": 2, "maxzoom": 8 }, "properties": { "halo": 0.8, "title": "安西尔塔文化", "fontsize": 12, "tyid": "304002", "oid": "103:1576575170320", "color": "#262626" }, "geometry": { "type": "Point", "coordinates": [ -68.818359, -31.353637 ] } }
{"year": "BC333",  "type": "Feature", "tippecanoe": { "layer": "2AFCA05309781583918697302", "minzoom": 2, "maxzoom": 8 }, "properties": { "halo": 0.8, "title": "巴托文化", "fontsize": 12, "tyid": "304002", "oid": "103:1576575170449", "color": "#262626" }, "geometry": { "type": "Point", "coordinates": [ -70.839844, -33.431441 ] } }
{"year": "BC333",  "type": "Feature", "tippecanoe": { "layer": "2AFCA05309781583918697302", "minzoom": 2, "maxzoom": 8 }, "properties": { "halo": 0.8, "title": "马普切人", "fontsize": 12, "tyid": "304001", "oid": "103:1576575170120", "color": "#262626" }, "geometry": { "type": "Point", "coordinates": [ -71.455078, -38.959409 ] } }
{"year": "BC333",  "type": "Feature", "tippecanoe": { "layer": "2AFCA05309781583918697302", "minzoom": 2, "maxzoom": 8 }, "properties": { "halo": 0.8, "title": "摩克索人", "fontsize": 12, "tyid": "304001", "oid": "103:1576575170104", "color": "#262626" }, "geometry": { "type": "Point", "coordinates": [ -65.830078, -13.923404 ] } }
{"year": "BC333",  "type": "Feature", "tippecanoe": { "layer": "2AFCA05309781583918697302", "minzoom": 2, "maxzoom": 8 }, "properties": { "halo": 0.8, "title": "瓦卡拉尼文化", "fontsize": 12, "tyid": "304002", "oid": "103:1576575170355", "color": "#262626" }, "geometry": { "type": "Point", "coordinates": [ -64.951172, -17.811456 ] } }
{"year": "BC333",  "type": "Feature", "tippecanoe": { "layer": "2AFCA05309781583918697302", "minzoom": 2, "maxzoom": 8 }, "properties": { "halo": 0.8, "title": "康多拉瓦西文化", "fontsize": 12, "tyid": "304002", "oid": "103:1576575170410", "color": "#262626" }, "geometry": { "type": "Point", "coordinates": [ -66.708984, -27.293689 ] } }
{"year": "BC333",  "type": "Feature", "tippecanoe": { "layer": "2AFCA05309781583918697302", "minzoom": 2, "maxzoom": 8 }, "properties": { "halo": 0.8, "title": "拉斯梅塞德斯文化", "fontsize": 12, "tyid": "304002", "oid": "103:1576575170135", "color": "#262626" }, "geometry": { "type": "Point", "coordinates": [ -63.808594, -27.605671 ] } }
{"year": "BC333",  "type": "Feature", "tippecanoe": { "layer": "2AFCA05309781583918697302", "minzoom": 2, "maxzoom": 8 }, "properties": { "halo": 0.8, "title": "查鲁亚人", "fontsize": 12, "tyid": "304001", "oid": "103:1576575170389", "color": "#262626" }, "geometry": { "type": "Point", "coordinates": [ -57.128906, -32.398516 ] } }
{"year": "BC333",  "type": "Feature", "tippecanoe": { "layer": "2AFCA05309781583918697302", "minzoom": 2, "maxzoom": 8 }, "properties": { "halo": 0.8, "title": "特胡尔切人", "fontsize": 12, "tyid": "304001", "oid": "103:1576575170043", "color": "#262626" }, "geometry": { "type": "Point", "coordinates": [ -70.751953, -50.176898 ] } }
{"year": "BC333",  "type": "Feature", "tippecanoe": { "layer": "2AFCA05309781583918697302", "minzoom": 2, "maxzoom": 8 }, "properties": { "halo": 0.8, "title": "塞尔克南人", "fontsize": 12, "tyid": "304001", "oid": "103:1576575170225", "color": "#262626" }, "geometry": { "type": "Point", "coordinates": [ -68.378906, -53.696706 ] } }
{"year": "BC333",  "type": "Feature", "tippecanoe": { "layer": "2AFCA05309781583918697302", "minzoom": 2, "maxzoom": 8 }, "properties": { "halo": 0.8, "title": "雅干人", "fontsize": 12, "tyid": "304001", "oid": "103:1576575170348", "color": "#262626" }, "geometry": { "type": "Point", "coordinates": [ -68.554688, -54.521081 ] } }
{"year": "BC333",  "type": "Feature", "tippecanoe": { "layer": "2AFCA05309781583918697302", "minzoom": 2, "maxzoom": 8 }, "properties": { "halo": 0.8, "title": "屋瓮文化", "fontsize": 12, "tyid": "304002", "oid": "103:1576575170014", "color": "#262626" }, "geometry": { "type": "Point", "coordinates": [ 10.898438, 51.399206 ] } }
{"year": "BC333",  "type": "Feature", "tippecanoe": { "layer": "2AFCA05309781583918697302", "minzoom": 2, "maxzoom": 8 }, "properties": { "halo": 0.8, "title": "伊勒格泰人", "fontsize": 12, "tyid": "304001", "oid": "103:1576575170257", "color": "#262626" }, "geometry": { "type": "Point", "coordinates": [ 0.351562, 42.228517 ] } }
{"year": "BC333",  "type": "Feature", "tippecanoe": { "layer": "2AFCA05309781583918697302", "minzoom": 2, "maxzoom": 8 }, "properties": { "halo": 0.8, "title": "山内高卢人", "fontsize": 12, "tyid": "304001", "oid": "103:1576575170058", "color": "#262626" }, "geometry": { "type": "Point", "coordinates": [ 7.822266, 45.521744 ] } }
{"year": "BC333",  "type": "Feature", "tippecanoe": { "layer": "2AFCA05309781583918697302", "minzoom": 2, "maxzoom": 8 }, "properties": { "halo": 0.8, "title": "蕾蒂人", "fontsize": 12, "tyid": "304001", "oid": "103:1576575170276", "color": "#262626" }, "geometry": { "type": "Point", "coordinates": [ 11.162109, 46.920255 ] } }
{"year": "BC333",  "type": "Feature", "tippecanoe": { "layer": "2AFCA05309781583918697302", "minzoom": 2, "maxzoom": 8 }, "properties": { "halo": 0.8, "title": "利古里亚人", "fontsize": 12, "tyid": "304002", "oid": "103:1576575170521", "color": "#262626" }, "geometry": { "type": "Point", "coordinates": [ 8.173828, 44.527843 ] } }
{"year": "BC333",  "type": "Feature", "tippecanoe": { "layer": "2AFCA05309781583918697302", "minzoom": 2, "maxzoom": 8 }, "properties": { "halo": 0.8, "title": "亚斯托夫文化", "fontsize": 12, "tyid": "304002", "oid": "103:1576575170544", "color": "#262626" }, "geometry": { "type": "Point", "coordinates": [ 11.337891, 53.173119 ] } }
{"year": "BC333",  "type": "Feature", "tippecanoe": { "layer": "2AFCA05309781583918697302", "minzoom": 2, "maxzoom": 8 }, "properties": { "halo": 0.8, "title": "波美拉尼亚文化", "fontsize": 12, "tyid": "304002", "oid": "103:1576575170473", "color": "#262626" }, "geometry": { "type": "Point", "coordinates": [ 17.490234, 53.696706 ] } }
{"year": "BC333",  "type": "Feature", "tippecanoe": { "layer": "2AFCA05309781583918697302", "minzoom": 2, "maxzoom": 8 }, "properties": { "halo": 0.8, "title": "西波罗的海坟文化", "fontsize": 12, "tyid": "304002", "oid": "103:1576575170508", "color": "#262626" }, "geometry": { "type": "Point", "coordinates": [ 21.708984, 54.213861 ] } }
{"year": "BC333",  "type": "Feature", "tippecanoe": { "layer": "2AFCA05309781583918697302", "minzoom": 2, "maxzoom": 8 }, "properties": { "halo": 0.8, "title": "威尼蒂人[亚得里亚海]", "fontsize": 12, "tyid": "304001", "oid": "103:1576575170025", "color": "#262626" }, "geometry": { "type": "Point", "coordinates": [ 12.216797, 45.890008 ] } }
{"year": "BC333",  "type": "Feature", "tippecanoe": { "layer": "2AFCA05309781583918697302", "minzoom": 2, "maxzoom": 8 }, "properties": { "halo": 0.8, "title": "伊特鲁里亚文明", "fontsize": 12, "tyid": "304002", "oid": "103:1576575170250", "color": "#262626" }, "geometry": { "type": "Point", "coordinates": [ 11.337891, 43.516689 ] } }
{"year": "BC333",  "type": "Feature", "tippecanoe": { "layer": "2AFCA05309781583918697302", "minzoom": 2, "maxzoom": 8 }, "properties": { "halo": 0.8, "title": "萨莫奈人", "fontsize": 12, "tyid": "304001", "oid": "103:1576575170063", "color": "#262626" }, "geometry": { "type": "Point", "coordinates": [ 14.589844, 41.310824 ] } }
{"year": "BC333",  "type": "Feature", "tippecanoe": { "layer": "2AFCA05309781583918697302", "minzoom": 2, "maxzoom": 8 }, "properties": { "halo": 0.8, "title": "伊利里亚诸王国", "fontsize": 12, "tyid": "304000", "oid": "103:1576575170254", "color": "#202020" }, "geometry": { "type": "Point", "coordinates": [ 17.841797, 43.834527 ] } }
{"year": "BC333",  "type": "Feature", "tippecanoe": { "layer": "2AFCA05309781583918697302", "minzoom": 2, "maxzoom": 8 }, "properties": { "halo": 0.8, "title": "达尔达尼亚王国", "fontsize": 12, "tyid": "304000", "oid": "103:1576575170210", "color": "#202020" }, "geometry": { "type": "Point", "coordinates": [ 21.533203, 43.707594 ] } }
{"year": "BC333",  "type": "Feature", "tippecanoe": { "layer": "2AFCA05309781583918697302", "minzoom": 2, "maxzoom": 8 }, "properties": { "halo": 0.8, "title": "古爱沙尼亚人", "fontsize": 12, "tyid": "304001", "oid": "103:1576575170182", "color": "#262626" }, "geometry": { "type": "Point", "coordinates": [ 25.576172, 58.995311 ] } }
{"year": "BC333",  "type": "Feature", "tippecanoe": { "layer": "2AFCA05309781583918697302", "minzoom": 2, "maxzoom": 8 }, "properties": { "halo": 0.8, "title": "利沃尼亚人", "fontsize": 12, "tyid": "304001", "oid": "103:1576575170133", "color": "#262626" }, "geometry": { "type": "Point", "coordinates": [ 26.279297, 57.231503 ] } }
{"year": "BC333",  "type": "Feature", "tippecanoe": { "layer": "2AFCA05309781583918697302", "minzoom": 2, "maxzoom": 8 }, "properties": { "halo": 0.8, "title": "沃茨人", "fontsize": 12, "tyid": "304001", "oid": "103:1576575170354", "color": "#262626" }, "geometry": { "type": "Point", "coordinates": [ 29.794922, 59.040555 ] } }
{"year": "BC333",  "type": "Feature", "tippecanoe": { "layer": "2AFCA05309781583918697302", "minzoom": 2, "maxzoom": 8 }, "properties": { "halo": 0.8, "title": "卡累利阿文化", "fontsize": 12, "tyid": "304002", "oid": "103:1576575170267", "color": "#262626" }, "geometry": { "type": "Point", "coordinates": [ 34.804688, 62.552857 ] } }
{"year": "BC333",  "type": "Feature", "tippecanoe": { "layer": "2AFCA05309781583918697302", "minzoom": 2, "maxzoom": 8 }, "properties": { "halo": 0.8, "title": "阴影陶文化", "fontsize": 12, "tyid": "304002", "oid": "103:1576575170243", "color": "#262626" }, "geometry": { "type": "Point", "coordinates": [ 24.785156, 55.627996 ] } }
{"year": "BC333",  "type": "Feature", "tippecanoe": { "layer": "2AFCA05309781583918697302", "minzoom": 2, "maxzoom": 8 }, "properties": { "halo": 0.8, "title": "尤赫诺夫文化", "fontsize": 12, "tyid": "304002", "oid": "103:1576575170240", "color": "#262626" }, "geometry": { "type": "Point", "coordinates": [ 33.662109, 51.618017 ] } }
{"year": "BC333",  "type": "Feature", "tippecanoe": { "layer": "2AFCA05309781583918697302", "minzoom": 2, "maxzoom": 8 }, "properties": { "halo": 0.8, "title": "盖塔人", "fontsize": 12, "tyid": "304001", "oid": "103:1576575170435", "color": "#262626" }, "geometry": { "type": "Point", "coordinates": [ 27.246094, 44.213710 ] } }
{"year": "BC333",  "type": "Feature", "tippecanoe": { "layer": "2AFCA05309781583918697302", "minzoom": 2, "maxzoom": 8 }, "properties": { "halo": 0.8, "title": "奥德里西亚王国", "fontsize": 12, "tyid": "304000", "oid": "103:1576575170318", "color": "#202020" }, "geometry": { "type": "Point", "coordinates": [ 25.664062, 42.423457 ] } }
{"year": "BC333",  "type": "Feature", "tippecanoe": { "layer": "2AFCA05309781583918697302", "minzoom": 2, "maxzoom": 8 }, "properties": { "halo": 0.8, "title": "上奥卡文化", "fontsize": 12, "tyid": "304002", "oid": "103:1576575170056", "color": "#262626" }, "geometry": { "type": "Point", "coordinates": [ 37.353516, 53.540307 ] } }
{"year": "BC333",  "type": "Feature", "tippecanoe": { "layer": "2AFCA05309781583918697302", "minzoom": 2, "maxzoom": 8 }, "properties": { "halo": 0.8, "title": "梅田人", "fontsize": 12, "tyid": "304001", "oid": "103:1576575170374", "color": "#262626" }, "geometry": { "type": "Point", "coordinates": [ 38.056641, 45.644768 ] } }
{"year": "BC333",  "type": "Feature", "tippecanoe": { "layer": "2AFCA05309781583918697302", "minzoom": 2, "maxzoom": 8 }, "properties": { "halo": 0.8, "title": "西雷斯人", "fontsize": 12, "tyid": "304001", "oid": "103:1576575170012", "color": "#262626" }, "geometry": { "type": "Point", "coordinates": [ 41.308594, 45.460131 ] } }
{"year": "BC333",  "type": "Feature", "tippecanoe": { "layer": "2AFCA05309781583918697302", "minzoom": 2, "maxzoom": 8 }, "properties": { "halo": 0.8, "title": "大希腊", "fontsize": 12, "tyid": "304000", "oid": "103:1576575170202", "color": "#202020" }, "geometry": { "type": "Point", "coordinates": [ 16.347656, 38.685510 ] } }
{"year": "BC333",  "type": "Feature", "tippecanoe": { "layer": "2AFCA05309781583918697302", "minzoom": 2, "maxzoom": 8 }, "properties": { "halo": 0.8, "title": "昔兰尼共和国", "fontsize": 12, "tyid": "304000", "oid": "103:1576575170216", "color": "#202020" }, "geometry": { "type": "Point", "coordinates": [ 21.533203, 32.472695 ] } }
{"year": "BC333",  "type": "Feature", "tippecanoe": { "layer": "2AFCA05309781583918697302", "minzoom": 2, "maxzoom": 8 }, "properties": { "halo": 0.8, "title": "加拉曼特王国", "fontsize": 12, "tyid": "304000", "oid": "103:1576575170378", "color": "#202020" }, "geometry": { "type": "Point", "coordinates": [ 13.886719, 26.902477 ] } }
{"year": "BC333",  "type": "Feature", "tippecanoe": { "layer": "2AFCA05309781583918697302", "minzoom": 2, "maxzoom": 8 }, "properties": { "halo": 0.8, "title": "约鲁巴人", "fontsize": 12, "tyid": "304001", "oid": "103:1576575170345", "color": "#262626" }, "geometry": { "type": "Point", "coordinates": [ 3.427734, 7.536764 ] } }
{"year": "BC333",  "type": "Feature", "tippecanoe": { "layer": "2AFCA05309781583918697302", "minzoom": 2, "maxzoom": 8 }, "properties": { "halo": 0.8, "title": "伊博人", "fontsize": 12, "tyid": "304001", "oid": "103:1576575170546", "color": "#262626" }, "geometry": { "type": "Point", "coordinates": [ 7.998047, 5.965754 ] } }
{"year": "BC333",  "type": "Feature", "tippecanoe": { "layer": "2AFCA05309781583918697302", "minzoom": 2, "maxzoom": 8 }, "properties": { "halo": 0.8, "title": "布雷米耶国", "fontsize": 12, "tyid": "304001", "oid": "103:1576575170280", "color": "#262626" }, "geometry": { "type": "Point", "coordinates": [ 34.628906, 22.105999 ] } }
{"year": "BC333",  "type": "Feature", "tippecanoe": { "layer": "2AFCA05309781583918697302", "minzoom": 2, "maxzoom": 8 }, "properties": { "halo": 0.8, "title": "利黑延王国", "fontsize": 12, "tyid": "304000", "oid": "103:1576575170590", "color": "#202020" }, "geometry": { "type": "Point", "coordinates": [ 39.111328, 25.799891 ] } }
{"year": "BC333",  "type": "Feature", "tippecanoe": { "layer": "2AFCA05309781583918697302", "minzoom": 2, "maxzoom": 8 }, "properties": { "halo": 0.8, "title": "贝扎人", "fontsize": 12, "tyid": "304001", "oid": "103:1576575170288", "color": "#262626" }, "geometry": { "type": "Point", "coordinates": [ 35.859375, 16.804541 ] } }
{"year": "BC333",  "type": "Feature", "tippecanoe": { "layer": "2AFCA05309781583918697302", "minzoom": 2, "maxzoom": 8 }, "properties": { "halo": 0.8, "title": "高原诸小王国", "fontsize": 12, "tyid": "304002", "oid": "103:1576575170338", "color": "#262626" }, "geometry": { "type": "Point", "coordinates": [ 40.253906, 13.410994 ] } }
{"year": "BC333",  "type": "Feature", "tippecanoe": { "layer": "2AFCA05309781583918697302", "minzoom": 2, "maxzoom": 8 }, "properties": { "halo": 0.8, "title": "迈因王国", "fontsize": 12, "tyid": "304000", "oid": "103:1576575170579", "color": "#202020" }, "geometry": { "type": "Point", "coordinates": [ 44.824219, 16.299051 ] } }
{"year": "BC333",  "type": "Feature", "tippecanoe": { "layer": "2AFCA05309781583918697302", "minzoom": 2, "maxzoom": 8 }, "properties": { "halo": 0.8, "title": "塞巴王国", "fontsize": 12, "tyid": "304000", "oid": "103:1576575170066", "color": "#202020" }, "geometry": { "type": "Point", "coordinates": [ 44.208984, 14.604847 ] } }
{"year": "BC333",  "type": "Feature", "tippecanoe": { "layer": "2AFCA05309781583918697302", "minzoom": 2, "maxzoom": 8 }, "properties": { "halo": 0.8, "title": "安纳尼诺文化", "fontsize": 12, "tyid": "304002", "oid": "103:1576575170512", "color": "#262626" }, "geometry": { "type": "Point", "coordinates": [ 50.537109, 56.413901 ] } }
{"year": "BC333",  "type": "Feature", "tippecanoe": { "layer": "2AFCA05309781583918697302", "minzoom": 2, "maxzoom": 8 }, "properties": { "halo": 0.8, "title": "驩潜国", "fontsize": 12, "tyid": "304000", "oid": "103:1576575170572", "color": "#202020" }, "geometry": { "type": "Point", "coordinates": [ 60.117188, 42.488302 ] } }
{"year": "BC333",  "type": "Feature", "tippecanoe": { "layer": "2AFCA05309781583918697302", "minzoom": 2, "maxzoom": 8 }, "properties": { "halo": 0.8, "title": "粟特人", "fontsize": 12, "tyid": "304001", "oid": "103:1576575170046", "color": "#262626" }, "geometry": { "type": "Point", "coordinates": [ 73.037109, 41.046217 ] } }
{"year": "BC333",  "type": "Feature", "tippecanoe": { "layer": "2AFCA05309781583918697302", "minzoom": 2, "maxzoom": 8 }, "properties": { "halo": 0.8, "title": "巴泽雷克文化", "fontsize": 12, "tyid": "304002", "oid": "103:1576575170362", "color": "#262626" }, "geometry": { "type": "Point", "coordinates": [ 86.923828, 50.513427 ] } }
{"year": "BC333",  "type": "Feature", "tippecanoe": { "layer": "2AFCA05309781583918697302", "minzoom": 2, "maxzoom": 8 }, "properties": { "halo": 0.8, "title": "索墩布拉克文化", "fontsize": 12, "tyid": "304002", "oid": "103:1576575170468", "color": "#262626" }, "geometry": { "type": "Point", "coordinates": [ 81.738281, 43.325178 ] } }
{"year": "BC333",  "type": "Feature", "tippecanoe": { "layer": "2AFCA05309781583918697302", "minzoom": 2, "maxzoom": 8 }, "properties": { "halo": 0.8, "title": "苏贝希文化", "fontsize": 12, "tyid": "304002", "oid": "103:1576575170539", "color": "#262626" }, "geometry": { "type": "Point", "coordinates": [ 88.505859, 43.644026 ] } }
{"year": "BC333",  "type": "Feature", "tippecanoe": { "layer": "2AFCA05309781583918697302", "minzoom": 2, "maxzoom": 8 }, "properties": { "halo": 0.8, "title": "格拉", "fontsize": 12, "tyid": "304002", "oid": "103:1576575170597", "color": "#262626" }, "geometry": { "type": "Point", "coordinates": [ 49.218750, 26.902477 ] } }
{"year": "BC333",  "type": "Feature", "tippecanoe": { "layer": "2AFCA05309781583918697302", "minzoom": 2, "maxzoom": 8 }, "properties": { "halo": 0.8, "title": "马干", "fontsize": 12, "tyid": "304002", "oid": "103:1576575170594", "color": "#262626" }, "geometry": { "type": "Point", "coordinates": [ 57.744141, 23.079732 ] } }
{"year": "BC333",  "type": "Feature", "tippecanoe": { "layer": "2AFCA05309781583918697302", "minzoom": 2, "maxzoom": 8 }, "properties": { "halo": 0.8, "title": "奥桑王国", "fontsize": 12, "tyid": "304000", "oid": "103:1576575170609", "color": "#202020" }, "geometry": { "type": "Point", "coordinates": [ 46.142578, 13.923404 ] } }
{"year": "BC333",  "type": "Feature", "tippecanoe": { "layer": "2AFCA05309781583918697302", "minzoom": 2, "maxzoom": 8 }, "properties": { "halo": 0.8, "title": "阿德王国", "fontsize": 12, "tyid": "304000", "oid": "103:1576575170596", "color": "#202020" }, "geometry": { "type": "Point", "coordinates": [ 52.382812, 18.646245 ] } }
{"year": "BC333",  "type": "Feature", "tippecanoe": { "layer": "2AFCA05309781583918697302", "minzoom": 2, "maxzoom": 8 }, "properties": { "halo": 0.8, "title": "哈德拉毛王国", "fontsize": 12, "tyid": "304000", "oid": "103:1576575170589", "color": "#202020" }, "geometry": { "type": "Point", "coordinates": [ 50.976562, 16.299051 ] } }
{"year": "BC333",  "type": "Feature", "tippecanoe": { "layer": "2AFCA05309781583918697302", "minzoom": 2, "maxzoom": 8 }, "properties": { "halo": 0.8, "title": "塔克西拉王国", "fontsize": 12, "tyid": "304000", "oid": "103:1576575170470", "color": "#202020" }, "geometry": { "type": "Point", "coordinates": [ 72.861328, 33.358062 ] } }
{"year": "BC333",  "type": "Feature", "tippecanoe": { "layer": "2AFCA05309781583918697302", "minzoom": 2, "maxzoom": 8 }, "properties": { "halo": 0.8, "title": "波鲁斯王国", "fontsize": 12, "tyid": "304000", "oid": "103:1576575170422", "color": "#202020" }, "geometry": { "type": "Point", "coordinates": [ 74.179688, 32.546813 ] } }
{"year": "BC333",  "type": "Feature", "tippecanoe": { "layer": "2AFCA05309781583918697302", "minzoom": 2, "maxzoom": 8 }, "properties": { "halo": 0.8, "title": "哥兰迪亚王朝", "fontsize": 12, "tyid": "304000", "oid": "103:1576575170186", "color": "#202020" }, "geometry": { "type": "Point", "coordinates": [ 74.619141, 34.307144 ] } }
{"year": "BC333",  "type": "Feature", "tippecanoe": { "layer": "2AFCA05309781583918697302", "minzoom": 2, "maxzoom": 8 }, "properties": { "halo": 0.8, "title": "马利安人", "fontsize": 12, "tyid": "304001", "oid": "103:1576575170123", "color": "#262626" }, "geometry": { "type": "Point", "coordinates": [ 71.982422, 30.826781 ] } }
{"year": "BC333",  "type": "Feature", "tippecanoe": { "layer": "2AFCA05309781583918697302", "minzoom": 2, "maxzoom": 8 }, "properties": { "halo": 0.8, "title": "罗尔王朝", "fontsize": 12, "tyid": "304000", "oid": "103:1576575170560", "color": "#202020" }, "geometry": { "type": "Point", "coordinates": [ 68.466797, 26.588527 ] } }
{"year": "BC333",  "type": "Feature", "tippecanoe": { "layer": "2AFCA05309781583918697302", "minzoom": 2, "maxzoom": 8 }, "properties": { "halo": 0.8, "title": "克拉底王国", "fontsize": 12, "tyid": "304000", "oid": "103:1576575170141", "color": "#202020" }, "geometry": { "type": "Point", "coordinates": [ 84.199219, 28.071980 ] } }
{"year": "BC333",  "type": "Feature", "tippecanoe": { "layer": "2AFCA05309781583918697302", "minzoom": 2, "maxzoom": 8 }, "properties": { "halo": 0.8, "title": "蓬德拉王国", "fontsize": 12, "tyid": "304000", "oid": "103:1576575170371", "color": "#202020" }, "geometry": { "type": "Point", "coordinates": [ 89.648438, 24.287027 ] } }
{"year": "BC333",  "type": "Feature", "tippecanoe": { "layer": "2AFCA05309781583918697302", "minzoom": 2, "maxzoom": 8 }, "properties": { "halo": 0.8, "title": "朱罗国", "fontsize": 12, "tyid": "304000", "oid": "103:1576575170337", "color": "#202020" }, "geometry": { "type": "Point", "coordinates": [ 78.574219, 11.695273 ] } }
{"year": "BC333",  "type": "Feature", "tippecanoe": { "layer": "2AFCA05309781583918697302", "minzoom": 2, "maxzoom": 8 }, "properties": { "halo": 0.8, "title": "哲罗国", "fontsize": 12, "tyid": "304000", "oid": "103:1576575170494", "color": "#202020" }, "geometry": { "type": "Point", "coordinates": [ 76.376953, 10.487812 ] } }
{"year": "BC333",  "type": "Feature", "tippecanoe": { "layer": "2AFCA05309781583918697302", "minzoom": 2, "maxzoom": 8 }, "properties": { "halo": 0.8, "title": "潘地亚王国", "fontsize": 12, "tyid": "304000", "oid": "103:1576575170493", "color": "#202020" }, "geometry": { "type": "Point", "coordinates": [ 77.958984, 9.535749 ] } }
{"year": "BC333",  "type": "Feature", "tippecanoe": { "layer": "2AFCA05309781583918697302", "minzoom": 2, "maxzoom": 8 }, "properties": { "halo": 0.8, "title": "阿湿波国", "fontsize": 12, "tyid": "304000", "oid": "103:1576575170341", "color": "#202020" }, "geometry": { "type": "Point", "coordinates": [ 79.716797, 19.228177 ] } }
{"year": "BC333",  "type": "Feature", "tippecanoe": { "layer": "2AFCA05309781583918697302", "minzoom": 2, "maxzoom": 8 }, "properties": { "halo": 0.8, "title": "安度罗国", "fontsize": 12, "tyid": "304000", "oid": "103:1576575170564", "color": "#202020" }, "geometry": { "type": "Point", "coordinates": [ 80.771484, 16.636192 ] } }
{"year": "BC333",  "type": "Feature", "tippecanoe": { "layer": "2AFCA05309781583918697302", "minzoom": 2, "maxzoom": 8 }, "properties": { "halo": 0.8, "title": "羯陵伽国", "fontsize": 12, "tyid": "304000", "oid": "103:1576575170168", "color": "#202020" }, "geometry": { "type": "Point", "coordinates": [ 84.638672, 20.220966 ] } }
{"year": "BC333",  "type": "Feature", "tippecanoe": { "layer": "2AFCA05309781583918697302", "minzoom": 2, "maxzoom": 8 }, "properties": { "halo": 0.8, "title": "阿努拉德普勒王国", "fontsize": 12, "tyid": "304000", "oid": "103:1576575170528", "color": "#202020" }, "geometry": { "type": "Point", "coordinates": [ 80.683594, 7.623887 ] } }
{"year": "BC333",  "type": "Feature", "tippecanoe": { "layer": "2AFCA05309781583918697302", "minzoom": 2, "maxzoom": 8 }, "properties": { "halo": 0.8, "title": "阿迪贝尔文化", "fontsize": 12, "tyid": "304002", "oid": "103:1576575170394", "color": "#262626" }, "geometry": { "type": "Point", "coordinates": [ 96.503906, 52.643063 ] } }
{"year": "BC333",  "type": "Feature", "tippecanoe": { "layer": "2AFCA05309781583918697302", "minzoom": 2, "maxzoom": 8 }, "properties": { "halo": 0.8, "title": "巂", "fontsize": 12, "tyid": "304001", "oid": "103:1576575170500", "color": "#262626" }, "geometry": { "type": "Point", "coordinates": [ 98.173828, 25.562265 ] } }
{"year": "BC333",  "type": "Feature", "tippecanoe": { "layer": "2AFCA05309781583918697302", "minzoom": 2, "maxzoom": 8 }, "properties": { "halo": 0.8, "title": "昆明", "fontsize": 12, "tyid": "304001", "oid": "103:1576575170554", "color": "#262626" }, "geometry": { "type": "Point", "coordinates": [ 100.283203, 26.115986 ] } }
{"year": "BC333",  "type": "Feature", "tippecanoe": { "layer": "2AFCA05309781583918697302", "minzoom": 2, "maxzoom": 8 }, "properties": { "halo": 0.8, "title": "哀牢国", "fontsize": 12, "tyid": "304000", "oid": "103:1576575170326", "color": "#202020" }, "geometry": { "type": "Point", "coordinates": [ 100.371094, 22.917923 ] } }
{"year": "BC333",  "type": "Feature", "tippecanoe": { "layer": "2AFCA05309781583918697302", "minzoom": 2, "maxzoom": 8 }, "properties": { "halo": 0.8, "title": "秦", "fontsize": 12, "tyid": "304000", "oid": "103:1576575170079", "color": "#202020" }, "geometry": { "type": "Point", "coordinates": [ 104.941406, 35.245619 ] } }
{"year": "BC333",  "type": "Feature", "tippecanoe": { "layer": "2AFCA05309781583918697302", "minzoom": 2, "maxzoom": 8 }, "properties": { "halo": 0.8, "title": "乌氏", "fontsize": 12, "tyid": "304000", "oid": "103:1576575170219", "color": "#202020" }, "geometry": { "type": "Point", "coordinates": [ 105.732422, 36.456636 ] } }
{"year": "BC333",  "type": "Feature", "tippecanoe": { "layer": "2AFCA05309781583918697302", "minzoom": 2, "maxzoom": 8 }, "properties": { "halo": 0.8, "title": "氐人", "fontsize": 12, "tyid": "304001", "oid": "103:1576575170201", "color": "#262626" }, "geometry": { "type": "Point", "coordinates": [ 104.589844, 33.431441 ] } }
{"year": "BC333",  "type": "Feature", "tippecanoe": { "layer": "2AFCA05309781583918697302", "minzoom": 2, "maxzoom": 8 }, "properties": { "halo": 0.8, "title": "鄂尔多斯文化", "fontsize": 12, "tyid": "304002", "oid": "103:1576575170384", "color": "#262626" }, "geometry": { "type": "Point", "coordinates": [ 108.369141, 39.639538 ] } }
{"year": "BC333",  "type": "Feature", "tippecanoe": { "layer": "2AFCA05309781583918697302", "minzoom": 2, "maxzoom": 8 }, "properties": { "halo": 0.8, "title": "朐衍", "fontsize": 12, "tyid": "304000", "oid": "103:1576575170078", "color": "#202020" }, "geometry": { "type": "Point", "coordinates": [ 107.138672, 37.718590 ] } }
{"year": "BC333",  "type": "Feature", "tippecanoe": { "layer": "2AFCA05309781583918697302", "minzoom": 2, "maxzoom": 8 }, "properties": { "halo": 0.8, "title": "林胡", "fontsize": 12, "tyid": "304000", "oid": "103:1576575170132", "color": "#202020" }, "geometry": { "type": "Point", "coordinates": [ 109.951172, 40.713956 ] } }
{"year": "BC333",  "type": "Feature", "tippecanoe": { "layer": "2AFCA05309781583918697302", "minzoom": 2, "maxzoom": 8 }, "properties": { "halo": 0.8, "title": "楼烦", "fontsize": 12, "tyid": "304000", "oid": "103:1576575170262", "color": "#202020" }, "geometry": { "type": "Point", "coordinates": [ 111.972656, 39.977120 ] } }
{"year": "BC333",  "type": "Feature", "tippecanoe": { "layer": "2AFCA05309781583918697302", "minzoom": 2, "maxzoom": 8 }, "properties": { "halo": 0.8, "title": "赵", "fontsize": 12, "tyid": "304000", "oid": "103:1576575170239", "color": "#202020" }, "geometry": { "type": "Point", "coordinates": [ 111.884766, 37.788081 ] } }
{"year": "BC333",  "type": "Feature", "tippecanoe": { "layer": "2AFCA05309781583918697302", "minzoom": 2, "maxzoom": 8 }, "properties": { "halo": 0.8, "title": "义渠", "fontsize": 12, "tyid": "304000", "oid": "103:1576575170247", "color": "#202020" }, "geometry": { "type": "Point", "coordinates": [ 107.578125, 36.031332 ] } }
{"year": "BC333",  "type": "Feature", "tippecanoe": { "layer": "2AFCA05309781583918697302", "minzoom": 2, "maxzoom": 8 }, "properties": { "halo": 0.8, "title": "苴", "fontsize": 12, "tyid": "304000", "oid": "103:1576575170164", "color": "#202020" }, "geometry": { "type": "Point", "coordinates": [ 107.226562, 33.211116 ] } }
{"year": "BC333",  "type": "Feature", "tippecanoe": { "layer": "2AFCA05309781583918697302", "minzoom": 2, "maxzoom": 8 }, "properties": { "halo": 0.8, "title": "魏", "fontsize": 12, "tyid": "304000", "oid": "103:1576575170020", "color": "#202020" }, "geometry": { "type": "Point", "coordinates": [ 111.005859, 35.532226 ] } }
{"year": "BC333",  "type": "Feature", "tippecanoe": { "layer": "2AFCA05309781583918697302", "minzoom": 2, "maxzoom": 8 }, "properties": { "halo": 0.8, "title": "邛都", "fontsize": 12, "tyid": "304001", "oid": "103:1576575170367", "color": "#262626" }, "geometry": { "type": "Point", "coordinates": [ 102.128906, 27.293689 ] } }
{"year": "BC333",  "type": "Feature", "tippecanoe": { "layer": "2AFCA05309781583918697302", "minzoom": 2, "maxzoom": 8 }, "properties": { "halo": 0.8, "title": "古僰人", "fontsize": 12, "tyid": "304001", "oid": "103:1576575170433", "color": "#262626" }, "geometry": { "type": "Point", "coordinates": [ 103.974609, 28.149503 ] } }
{"year": "BC333",  "type": "Feature", "tippecanoe": { "layer": "2AFCA05309781583918697302", "minzoom": 2, "maxzoom": 8 }, "properties": { "halo": 0.8, "title": "古蜀", "fontsize": 12, "tyid": "304000", "oid": "103:1576575170176", "color": "#202020" }, "geometry": { "type": "Point", "coordinates": [ 104.238281, 30.448674 ] } }
{"year": "BC333",  "type": "Feature", "tippecanoe": { "layer": "2AFCA05309781583918697302", "minzoom": 2, "maxzoom": 8 }, "properties": { "halo": 0.8, "title": "古滇人", "fontsize": 12, "tyid": "304001", "oid": "103:1576575170181", "color": "#262626" }, "geometry": { "type": "Point", "coordinates": [ 102.216797, 25.324167 ] } }
{"year": "BC333",  "type": "Feature", "tippecanoe": { "layer": "2AFCA05309781583918697302", "minzoom": 2, "maxzoom": 8 }, "properties": { "halo": 0.8, "title": "夜郎", "fontsize": 12, "tyid": "304001", "oid": "103:1576575170366", "color": "#262626" }, "geometry": { "type": "Point", "coordinates": [ 105.205078, 26.588527 ] } }
{"year": "BC333",  "type": "Feature", "tippecanoe": { "layer": "2AFCA05309781583918697302", "minzoom": 2, "maxzoom": 8 }, "properties": { "halo": 0.8, "title": "钩町", "fontsize": 12, "tyid": "304000", "oid": "103:1576575170183", "color": "#202020" }, "geometry": { "type": "Point", "coordinates": [ 104.238281, 23.644524 ] } }
{"year": "BC333",  "type": "Feature", "tippecanoe": { "layer": "2AFCA05309781583918697302", "minzoom": 2, "maxzoom": 8 }, "properties": { "halo": 0.8, "title": "巴", "fontsize": 12, "tyid": "304000", "oid": "103:1576575170309", "color": "#202020" }, "geometry": { "type": "Point", "coordinates": [ 107.578125, 30.902225 ] } }
{"year": "BC333",  "type": "Feature", "tippecanoe": { "layer": "2AFCA05309781583918697302", "minzoom": 2, "maxzoom": 8 }, "properties": { "halo": 0.8, "title": "且兰", "fontsize": 12, "tyid": "304001", "oid": "103:1576575170465", "color": "#262626" }, "geometry": { "type": "Point", "coordinates": [ 107.841797, 27.215556 ] } }
{"year": "BC333",  "type": "Feature", "tippecanoe": { "layer": "2AFCA05309781583918697302", "minzoom": 2, "maxzoom": 8 }, "properties": { "halo": 0.8, "title": "达雅瓦底王国", "fontsize": 12, "tyid": "304000", "oid": "103:1576575170534", "color": "#202020" }, "geometry": { "type": "Point", "coordinates": [ 93.339844, 20.550509 ] } }
{"year": "BC333",  "type": "Feature", "tippecanoe": { "layer": "2AFCA05309781583918697302", "minzoom": 2, "maxzoom": 8 }, "properties": { "halo": 0.8, "title": "室利差呾罗王国", "fontsize": 12, "tyid": "304000", "oid": "103:1576575170611", "color": "#202020" }, "geometry": { "type": "Point", "coordinates": [ 95.625000, 19.145168 ] } }
{"year": "BC333",  "type": "Feature", "tippecanoe": { "layer": "2AFCA05309781583918697302", "minzoom": 2, "maxzoom": 8 }, "properties": { "halo": 0.8, "title": "直通王国", "fontsize": 12, "tyid": "304000", "oid": "103:1576575170552", "color": "#202020" }, "geometry": { "type": "Point", "coordinates": [ 96.152344, 17.392579 ] } }
{"year": "BC333",  "type": "Feature", "tippecanoe": { "layer": "2AFCA05309781583918697302", "minzoom": 2, "maxzoom": 8 }, "properties": { "halo": 0.8, "title": "班清文化", "fontsize": 12, "tyid": "304002", "oid": "103:1576575170298", "color": "#262626" }, "geometry": { "type": "Point", "coordinates": [ 103.271484, 17.560247 ] } }
{"year": "BC333",  "type": "Feature", "tippecanoe": { "layer": "2AFCA05309781583918697302", "minzoom": 2, "maxzoom": 8 }, "properties": { "halo": 0.8, "title": "文郎国", "fontsize": 12, "tyid": "304000", "oid": "103:1576575170475", "color": "#202020" }, "geometry": { "type": "Point", "coordinates": [ 104.501953, 21.616579 ] } }
{"year": "BC333",  "type": "Feature", "tippecanoe": { "layer": "2AFCA05309781583918697302", "minzoom": 2, "maxzoom": 8 }, "properties": { "halo": 0.8, "title": "蓬斯尼文化", "fontsize": 12, "tyid": "304002", "oid": "103:1576575170496", "color": "#262626" }, "geometry": { "type": "Point", "coordinates": [ 103.535156, 13.410994 ] } }
{"year": "BC333",  "type": "Feature", "tippecanoe": { "layer": "2AFCA05309781583918697302", "minzoom": 2, "maxzoom": 8 }, "properties": { "halo": 0.8, "title": "沙黄文化", "fontsize": 12, "tyid": "304002", "oid": "103:1576575170440", "color": "#262626" }, "geometry": { "type": "Point", "coordinates": [ 109.160156, 12.983148 ] } }
{"year": "BC333",  "type": "Feature", "tippecanoe": { "layer": "2AFCA05309781583918697302", "minzoom": 2, "maxzoom": 8 }, "properties": { "halo": 0.8, "title": "同奈文化", "fontsize": 12, "tyid": "304002", "oid": "103:1576575170469", "color": "#262626" }, "geometry": { "type": "Point", "coordinates": [ 105.468750, 10.055403 ] } }
{"year": "BC333",  "type": "Feature", "tippecanoe": { "layer": "2AFCA05309781583918697302", "minzoom": 2, "maxzoom": 8 }, "properties": { "halo": 0.8, "title": "尼格利陀人", "fontsize": 12, "tyid": "304001", "oid": "103:1576575170402", "color": "#262626" }, "geometry": { "type": "Point", "coordinates": [ 101.953125, 4.740675 ] } }
{"year": "BC333",  "type": "Feature", "tippecanoe": { "layer": "2AFCA05309781583918697302", "minzoom": 2, "maxzoom": 8 }, "properties": { "halo": 0.8, "title": "中山", "fontsize": 12, "tyid": "304000", "oid": "103:1576575170237", "color": "#202020" }, "geometry": { "type": "Point", "coordinates": [ 114.345703, 38.616870 ] } }
{"year": "BC333",  "type": "Feature", "tippecanoe": { "layer": "2AFCA05309781583918697302", "minzoom": 2, "maxzoom": 8 }, "properties": { "halo": 0.8, "title": "燕", "fontsize": 12, "tyid": "304000", "oid": "103:1576575170259", "color": "#202020" }, "geometry": { "type": "Point", "coordinates": [ 116.894531, 39.909736 ] } }
{"year": "BC333",  "type": "Feature", "tippecanoe": { "layer": "2AFCA05309781583918697302", "minzoom": 2, "maxzoom": 8 }, "properties": { "halo": 0.8, "title": "齐[田氏]", "fontsize": 12, "tyid": "304000", "oid": "103:1576575170084", "color": "#202020" }, "geometry": { "type": "Point", "coordinates": [ 118.037109, 36.879621 ] } }
{"year": "BC333",  "type": "Feature", "tippecanoe": { "layer": "2AFCA05309781583918697302", "minzoom": 2, "maxzoom": 8 }, "properties": { "halo": 0.8, "title": "韩", "fontsize": 12, "tyid": "304000", "oid": "103:1576575170172", "color": "#202020" }, "geometry": { "type": "Point", "coordinates": [ 113.378906, 34.452218 ] } }
{"year": "BC333",  "type": "Feature", "tippecanoe": { "layer": "2AFCA05309781583918697302", "minzoom": 2, "maxzoom": 8 }, "properties": { "halo": 0.8, "title": "宋", "fontsize": 12, "tyid": "304000", "oid": "103:1576575170048", "color": "#202020" }, "geometry": { "type": "Point", "coordinates": [ 116.455078, 34.379713 ] } }
{"year": "BC333",  "type": "Feature", "tippecanoe": { "layer": "2AFCA05309781583918697302", "minzoom": 2, "maxzoom": 8 }, "properties": { "halo": 0.8, "title": "箕子朝鲜", "fontsize": 12, "tyid": "304000", "oid": "103:1576575170270", "color": "#202020" }, "geometry": { "type": "Point", "coordinates": [ 122.783203, 40.913513 ] } }
{"year": "BC333",  "type": "Feature", "tippecanoe": { "layer": "2AFCA05309781583918697302", "minzoom": 2, "maxzoom": 8 }, "properties": { "halo": 0.8, "title": "南粤", "fontsize": 12, "tyid": "304001", "oid": "103:1576575170102", "color": "#262626" }, "geometry": { "type": "Point", "coordinates": [ 113.906250, 24.287027 ] } }
{"year": "BC333",  "type": "Feature", "tippecanoe": { "layer": "2AFCA05309781583918697302", "minzoom": 2, "maxzoom": 8 }, "properties": { "halo": 0.8, "title": "扬越", "fontsize": 12, "tyid": "304001", "oid": "103:1576575170511", "color": "#262626" }, "geometry": { "type": "Point", "coordinates": [ 115.488281, 26.431228 ] } }
{"year": "BC333",  "type": "Feature", "tippecanoe": { "layer": "2AFCA05309781583918697302", "minzoom": 2, "maxzoom": 8 }, "properties": { "halo": 0.8, "title": "闽越", "fontsize": 12, "tyid": "304001", "oid": "103:1576575170110", "color": "#262626" }, "geometry": { "type": "Point", "coordinates": [ 117.861328, 26.115986 ] } }
{"year": "BC333",  "type": "Feature", "tippecanoe": { "layer": "2AFCA05309781583918697302", "minzoom": 2, "maxzoom": 8 }, "properties": { "halo": 0.8, "title": "瓯越", "fontsize": 12, "tyid": "304001", "oid": "103:1576575170095", "color": "#262626" }, "geometry": { "type": "Point", "coordinates": [ 120.058594, 28.304381 ] } }
{"year": "BC333",  "type": "Feature", "tippecanoe": { "layer": "2AFCA05309781583918697302", "minzoom": 2, "maxzoom": 8 }, "properties": { "halo": 0.8, "title": "无文土器时代晚期", "fontsize": 12, "tyid": "304002", "oid": "103:1576575170481", "color": "#262626" }, "geometry": { "type": "Point", "coordinates": [ 126.123047, 38.616870 ] } }
{"year": "BC333",  "type": "Feature", "tippecanoe": { "layer": "2AFCA05309781583918697302", "minzoom": 2, "maxzoom": 8 }, "properties": { "halo": 0.8, "title": "辰国", "fontsize": 12, "tyid": "304000", "oid": "103:1576575170444", "color": "#202020" }, "geometry": { "type": "Point", "coordinates": [ 127.792969, 36.031332 ] } }
{"year": "BC333",  "type": "Feature", "tippecanoe": { "layer": "2AFCA05309781583918697302", "minzoom": 2, "maxzoom": 8 }, "properties": { "halo": 0.8, "title": "弥生人", "fontsize": 12, "tyid": "304001", "oid": "103:1576575170111", "color": "#262626" }, "geometry": { "type": "Point", "coordinates": [ 131.044922, 32.694866 ] } }
{"year": "BC333",  "type": "Feature", "tippecanoe": { "layer": "2AFCA05309781583918697302", "minzoom": 2, "maxzoom": 8 }, "properties": { "halo": 0.8, "title": "乌莱维文明", "fontsize": 12, "tyid": "304002", "oid": "103:1576575170505", "color": "#262626" }, "geometry": { "type": "Point", "coordinates": [ 29.882812, -2.547988 ] } }
{"year": "BC333",  "type": "Feature", "tippecanoe": { "layer": "2AFCA05309781583918697302", "minzoom": 2, "maxzoom": 8 }, "properties": { "halo": 0.8, "title": "艾布兰文化五期", "fontsize": 12, "tyid": "304002", "oid": "103:1576575170535", "color": "#262626" }, "geometry": { "type": "Point", "coordinates": [ 36.474609, -0.175781 ] } }
{"year": "BC333",  "type": "Feature", "tippecanoe": { "layer": "2AFCA05309781583918697302", "minzoom": 2, "maxzoom": 8 }, "properties": { "halo": 0.8, "title": "布尼文化", "fontsize": 12, "tyid": "304002", "oid": "103:1576575170484", "color": "#262626" }, "geometry": { "type": "Point", "coordinates": [ 107.226562, -6.751896 ] } }
{"year": "BC333",  "type": "Feature", "tippecanoe": { "layer": "2AFCA05309781583918697302", "minzoom": 2, "maxzoom": 8 }, "properties": { "halo": 0.8, "title": "巴拉瓦人", "fontsize": 12, "tyid": "304001", "oid": "103:1576575170497", "color": "#262626" }, "geometry": { "type": "Point", "coordinates": [ 146.513672, -41.967659 ] } }
{"year": "BC333",  "type": "Feature", "tippecanoe": { "layer": "2AFCA14F11281583918697304", "minzoom": 2, "maxzoom": 8 }, "properties": { "halo": 0.8, "title": "古白令海文化", "fontsize": 12, "tyid": "304002", "oid": "103:1576575170490", "color": "#262626" }, "geometry": { "type": "Point", "coordinates": [ -170.332031, 63.470145 ] } }
{"year": "BC333",  "type": "Feature", "tippecanoe": { "layer": "2AFCA14F11281583918697304", "minzoom": 2, "maxzoom": 8 }, "properties": { "halo": 0.8, "title": "查普卡洛文化", "fontsize": 12, "tyid": "304002", "oid": "103:1576575170446", "color": "#262626" }, "geometry": { "type": "Point", "coordinates": [ -99.931641, 20.303418 ] } }
{"year": "BC333",  "type": "Feature", "tippecanoe": { "layer": "2AFCA14F11281583918697304", "minzoom": 2, "maxzoom": 8 }, "properties": { "halo": 0.8, "title": "米斯特克人", "fontsize": 12, "tyid": "304001", "oid": "103:1576575170403", "color": "#262626" }, "geometry": { "type": "Point", "coordinates": [ -98.349609, 17.224758 ] } }
{"year": "BC333",  "type": "Feature", "tippecanoe": { "layer": "2AFCA14F11281583918697304", "minzoom": 2, "maxzoom": 8 }, "properties": { "halo": 0.8, "title": "特里克人", "fontsize": 12, "tyid": "304001", "oid": "103:1576575170541", "color": "#262626" }, "geometry": { "type": "Point", "coordinates": [ -97.294922, 17.644022 ] } }
{"year": "BC333",  "type": "Feature", "tippecanoe": { "layer": "2AFCA14F11281583918697304", "minzoom": 2, "maxzoom": 8 }, "properties": { "halo": 0.8, "title": "麦克斯人", "fontsize": 12, "tyid": "304001", "oid": "103:1576575170116", "color": "#262626" }, "geometry": { "type": "Point", "coordinates": [ -96.328125, 18.062312 ] } }
{"year": "BC333",  "type": "Feature", "tippecanoe": { "layer": "2AFCA14F11281583918697304", "minzoom": 2, "maxzoom": 8 }, "properties": { "halo": 0.8, "title": "祖赫人", "fontsize": 12, "tyid": "304001", "oid": "103:1576575170233", "color": "#262626" }, "geometry": { "type": "Point", "coordinates": [ -92.021484, 16.045813 ] } }
{"year": "BC333",  "type": "Feature", "tippecanoe": { "layer": "2AFCA14F11281583918697304", "minzoom": 2, "maxzoom": 8 }, "properties": { "halo": 0.8, "title": "基切人", "fontsize": 12, "tyid": "304001", "oid": "103:1576575170379", "color": "#262626" }, "geometry": { "type": "Point", "coordinates": [ -90.966797, 15.029686 ] } }
{"year": "BC333",  "type": "Feature", "tippecanoe": { "layer": "2AFCA14F11281583918697304", "minzoom": 2, "maxzoom": 8 }, "properties": { "halo": 0.8, "title": "阿尔托山文化", "fontsize": 12, "tyid": "304002", "oid": "103:1576575170335", "color": "#262626" }, "geometry": { "type": "Point", "coordinates": [ -91.054688, 14.349548 ] } }
{"year": "BC333",  "type": "Feature", "tippecanoe": { "layer": "2AFCA14F11281583918697304", "minzoom": 2, "maxzoom": 8 }, "properties": { "halo": 0.8, "title": "玛纳索塔文化", "fontsize": 12, "tyid": "304002", "oid": "103:1576575170515", "color": "#262626" }, "geometry": { "type": "Point", "coordinates": [ -82.441406, 27.683528 ] } }
{"year": "BC333",  "type": "Feature", "tippecanoe": { "layer": "2AFCA14F11281583918697304", "minzoom": 2, "maxzoom": 8 }, "properties": { "halo": 0.8, "title": "卡卢萨人", "fontsize": 12, "tyid": "304001", "oid": "103:1576575170161", "color": "#262626" }, "geometry": { "type": "Point", "coordinates": [ -81.650391, 27.137368 ] } }
{"year": "BC333",  "type": "Feature", "tippecanoe": { "layer": "2AFCA14F11281583918697304", "minzoom": 2, "maxzoom": 8 }, "properties": { "halo": 0.8, "title": "圣约翰文化", "fontsize": 12, "tyid": "304002", "oid": "103:1576575170459", "color": "#262626" }, "geometry": { "type": "Point", "coordinates": [ -81.474609, 29.382175 ] } }
{"year": "BC333",  "type": "Feature", "tippecanoe": { "layer": "2AFCA14F11281583918697304", "minzoom": 2, "maxzoom": 8 }, "properties": { "halo": 0.8, "title": "贝尔格莱德文化", "fontsize": 12, "tyid": "304002", "oid": "103:1576575170294", "color": "#262626" }, "geometry": { "type": "Point", "coordinates": [ -80.859375, 27.449790 ] } }
{"year": "BC333",  "type": "Feature", "tippecanoe": { "layer": "2AFCA14F11281583918697304", "minzoom": 2, "maxzoom": 8 }, "properties": { "halo": 0.8, "title": "格莱兹文化", "fontsize": 12, "tyid": "304002", "oid": "103:1576575170184", "color": "#262626" }, "geometry": { "type": "Point", "coordinates": [ -80.771484, 26.037042 ] } }
{"year": "BC333",  "type": "Feature", "tippecanoe": { "layer": "2AFCA14F11281583918697304", "minzoom": 2, "maxzoom": 8 }, "properties": { "halo": 0.8, "title": "雷卡人", "fontsize": 12, "tyid": "304001", "oid": "103:1576575170413", "color": "#262626" }, "geometry": { "type": "Point", "coordinates": [ -87.802734, 13.752725 ] } }
{"year": "BC333",  "type": "Feature", "tippecanoe": { "layer": "2AFCA14F11281583918697304", "minzoom": 2, "maxzoom": 8 }, "properties": { "halo": 0.8, "title": "格兰科克勒文化", "fontsize": 12, "tyid": "304002", "oid": "103:1576575170416", "color": "#262626" }, "geometry": { "type": "Point", "coordinates": [ -80.507812, 8.581021 ] } }
{"year": "BC333",  "type": "Feature", "tippecanoe": { "layer": "2AFCA14F11281583918697304", "minzoom": 2, "maxzoom": 8 }, "properties": { "halo": 0.8, "title": "伊拉玛文化", "fontsize": 12, "tyid": "304002", "oid": "103:1576575170347", "color": "#262626" }, "geometry": { "type": "Point", "coordinates": [ -76.464844, 3.776559 ] } }
{"year": "BC333",  "type": "Feature", "tippecanoe": { "layer": "2AFCA14F11281583918697304", "minzoom": 2, "maxzoom": 8 }, "properties": { "halo": 0.8, "title": "科罗索文化", "fontsize": 12, "tyid": "304002", "oid": "103:1576575170559", "color": "#262626" }, "geometry": { "type": "Point", "coordinates": [ -66.533203, 18.229351 ] } }
{"year": "BC333",  "type": "Feature", "tippecanoe": { "layer": "2AFCA14F11281583918697304", "minzoom": 2, "maxzoom": 8 }, "properties": { "halo": 0.8, "title": "克鲁姆湾文化", "fontsize": 12, "tyid": "304002", "oid": "103:1576575170495", "color": "#262626" }, "geometry": { "type": "Point", "coordinates": [ -64.775391, 17.811456 ] } }
{"year": "BC333",  "type": "Feature", "tippecanoe": { "layer": "2AFCA14F11281583918697304", "minzoom": 2, "maxzoom": 8 }, "properties": { "halo": 0.8, "title": "萨拉杜文化", "fontsize": 12, "tyid": "304002", "oid": "103:1576575170068", "color": "#262626" }, "geometry": { "type": "Point", "coordinates": [ -61.699219, 16.214675 ] } }
{"year": "BC333",  "type": "Feature", "tippecanoe": { "layer": "2AFCA14F11281583918697304", "minzoom": 2, "maxzoom": 8 }, "properties": { "halo": 0.8, "title": "卡斯特罗文化", "fontsize": 12, "tyid": "304002", "oid": "103:1576575170549", "color": "#262626" }, "geometry": { "type": "Point", "coordinates": [ -4.394531, 43.068888 ] } }
{"year": "BC333",  "type": "Feature", "tippecanoe": { "layer": "2AFCA14F11281583918697304", "minzoom": 2, "maxzoom": 8 }, "properties": { "halo": 0.8, "title": "特罗莫吉人", "fontsize": 12, "tyid": "304001", "oid": "103:1576575170042", "color": "#262626" }, "geometry": { "type": "Point", "coordinates": [ -3.691406, 42.228517 ] } }
{"year": "BC333",  "type": "Feature", "tippecanoe": { "layer": "2AFCA14F11281583918697304", "minzoom": 2, "maxzoom": 8 }, "properties": { "halo": 0.8, "title": "奥特里冈人", "fontsize": 12, "tyid": "304001", "oid": "103:1576575170306", "color": "#262626" }, "geometry": { "type": "Point", "coordinates": [ -3.251953, 42.875964 ] } }
{"year": "BC333",  "type": "Feature", "tippecanoe": { "layer": "2AFCA14F11281583918697304", "minzoom": 2, "maxzoom": 8 }, "properties": { "halo": 0.8, "title": "卡斯蒂利人", "fontsize": 12, "tyid": "304001", "oid": "103:1576575170160", "color": "#262626" }, "geometry": { "type": "Point", "coordinates": [ -2.812500, 43.068888 ] } }
{"year": "BC333",  "type": "Feature", "tippecanoe": { "layer": "2AFCA14F11281583918697304", "minzoom": 2, "maxzoom": 8 }, "properties": { "halo": 0.8, "title": "瓦杜里人", "fontsize": 12, "tyid": "304001", "oid": "103:1576575170028", "color": "#262626" }, "geometry": { "type": "Point", "coordinates": [ -2.285156, 42.940339 ] } }
{"year": "BC333",  "type": "Feature", "tippecanoe": { "layer": "2AFCA14F11281583918697304", "minzoom": 2, "maxzoom": 8 }, "properties": { "halo": 0.8, "title": "伯罗内人", "fontsize": 12, "tyid": "304001", "oid": "103:1576575170281", "color": "#262626" }, "geometry": { "type": "Point", "coordinates": [ -2.548828, 42.293564 ] } }
{"year": "BC333",  "type": "Feature", "tippecanoe": { "layer": "2AFCA14F11281583918697304", "minzoom": 2, "maxzoom": 8 }, "properties": { "halo": 0.8, "title": "巴斯克人", "fontsize": 12, "tyid": "304001", "oid": "103:1576575170304", "color": "#262626" }, "geometry": { "type": "Point", "coordinates": [ -1.494141, 42.811522 ] } }
{"year": "BC333",  "type": "Feature", "tippecanoe": { "layer": "2AFCA14F11281583918697304", "minzoom": 2, "maxzoom": 8 }, "properties": { "halo": 0.8, "title": "伊塞塔尼人", "fontsize": 12, "tyid": "304001", "oid": "103:1576575170249", "color": "#262626" }, "geometry": { "type": "Point", "coordinates": [ -1.054688, 42.163403 ] } }
{"year": "BC333",  "type": "Feature", "tippecanoe": { "layer": "2AFCA14F11281583918697304", "minzoom": 2, "maxzoom": 8 }, "properties": { "halo": 0.8, "title": "关切人", "fontsize": 12, "tyid": "304001", "oid": "103:1576575170430", "color": "#262626" }, "geometry": { "type": "Point", "coordinates": [ -16.611328, 28.304381 ] } }
{"year": "BC333",  "type": "Feature", "tippecanoe": { "layer": "2AFCA14F11281583918697304", "minzoom": 2, "maxzoom": 8 }, "properties": { "halo": 0.8, "title": "图尔杜利奥皮迪尼人", "fontsize": 12, "tyid": "304001", "oid": "103:1576575170035", "color": "#262626" }, "geometry": { "type": "Point", "coordinates": [ -8.789062, 39.909736 ] } }
{"year": "BC333",  "type": "Feature", "tippecanoe": { "layer": "2AFCA14F11281583918697304", "minzoom": 2, "maxzoom": 8 }, "properties": { "halo": 0.8, "title": "伊利尔卡沃尼人", "fontsize": 12, "tyid": "304001", "oid": "103:1576575170252", "color": "#262626" }, "geometry": { "type": "Point", "coordinates": [ -0.263672, 40.847060 ] } }
{"year": "BC333",  "type": "Feature", "tippecanoe": { "layer": "2AFCA14F11281583918697304", "minzoom": 2, "maxzoom": 8 }, "properties": { "halo": 0.8, "title": "埃德塔尼人", "fontsize": 12, "tyid": "304001", "oid": "103:1576575170323", "color": "#262626" }, "geometry": { "type": "Point", "coordinates": [ -0.966797, 39.639538 ] } }
{"year": "BC333",  "type": "Feature", "tippecanoe": { "layer": "2AFCA14F11281583918697304", "minzoom": 2, "maxzoom": 8 }, "properties": { "halo": 0.8, "title": "康斯塔尼人", "fontsize": 12, "tyid": "304001", "oid": "103:1576575170152", "color": "#262626" }, "geometry": { "type": "Point", "coordinates": [ -0.878906, 38.685510 ] } }
{"year": "BC333",  "type": "Feature", "tippecanoe": { "layer": "2AFCA14F11281583918697304", "minzoom": 2, "maxzoom": 8 }, "properties": { "halo": 0.8, "title": "瓜纳加拉文化", "fontsize": 12, "tyid": "304002", "oid": "103:1576575170175", "color": "#262626" }, "geometry": { "type": "Point", "coordinates": [ -80.595703, -1.669686 ] } }
{"year": "BC333",  "type": "Feature", "tippecanoe": { "layer": "2AFCA14F11281583918697304", "minzoom": 2, "maxzoom": 8 }, "properties": { "halo": 0.8, "title": "巴伊亚文化", "fontsize": 12, "tyid": "304002", "oid": "103:1576575170498", "color": "#262626" }, "geometry": { "type": "Point", "coordinates": [ -80.068359, -0.527336 ] } }
{"year": "BC333",  "type": "Feature", "tippecanoe": { "layer": "2AFCA14F11281583918697304", "minzoom": 2, "maxzoom": 8 }, "properties": { "halo": 0.8, "title": "查文文化", "fontsize": 12, "tyid": "304002", "oid": "103:1576575170420", "color": "#262626" }, "geometry": { "type": "Point", "coordinates": [ -77.958984, -8.320212 ] } }
{"year": "BC333",  "type": "Feature", "tippecanoe": { "layer": "2AFCA14F11281583918697304", "minzoom": 2, "maxzoom": 8 }, "properties": { "halo": 0.8, "title": "卡斯马-赛钦文化", "fontsize": 12, "tyid": "304002", "oid": "103:1576575170265", "color": "#262626" }, "geometry": { "type": "Point", "coordinates": [ -77.958984, -9.622414 ] } }
{"year": "BC333",  "type": "Feature", "tippecanoe": { "layer": "2AFCA14F11281583918697304", "minzoom": 2, "maxzoom": 8 }, "properties": { "halo": 0.8, "title": "帕拉卡斯文化", "fontsize": 12, "tyid": "304002", "oid": "103:1576575170093", "color": "#262626" }, "geometry": { "type": "Point", "coordinates": [ -75.673828, -14.179186 ] } }
{"year": "BC333",  "type": "Feature", "tippecanoe": { "layer": "2AFCA14F11281583918697304", "minzoom": 2, "maxzoom": 8 }, "properties": { "halo": 0.8, "title": "豪什人", "fontsize": 12, "tyid": "304001", "oid": "103:1576575170519", "color": "#262626" }, "geometry": { "type": "Point", "coordinates": [ -65.917969, -54.724620 ] } }
{"year": "BC333",  "type": "Feature", "tippecanoe": { "layer": "2AFCA14F11281583918697304", "minzoom": 2, "maxzoom": 8 }, "properties": { "halo": 0.8, "title": "洪斯吕克-埃菲尔文化", "fontsize": 12, "tyid": "304002", "oid": "103:1576575170428", "color": "#262626" }, "geometry": { "type": "Point", "coordinates": [ 7.998047, 50.345460 ] } }
{"year": "BC333",  "type": "Feature", "tippecanoe": { "layer": "2AFCA14F11281583918697304", "minzoom": 2, "maxzoom": 8 }, "properties": { "halo": 0.8, "title": "拉塞塔尼人", "fontsize": 12, "tyid": "304001", "oid": "103:1576575170137", "color": "#262626" }, "geometry": { "type": "Point", "coordinates": [ 1.054688, 41.442726 ] } }
{"year": "BC333",  "type": "Feature", "tippecanoe": { "layer": "2AFCA14F11281583918697304", "minzoom": 2, "maxzoom": 8 }, "properties": { "halo": 0.8, "title": "英迪格人", "fontsize": 12, "tyid": "304001", "oid": "103:1576575170242", "color": "#262626" }, "geometry": { "type": "Point", "coordinates": [ 2.285156, 42.163403 ] } }
{"year": "BC333",  "type": "Feature", "tippecanoe": { "layer": "2AFCA14F11281583918697304", "minzoom": 2, "maxzoom": 8 }, "properties": { "halo": 0.8, "title": "马萨利亚", "fontsize": 12, "tyid": "304000", "oid": "103:1576575170463", "color": "#202020" }, "geometry": { "type": "Point", "coordinates": [ 5.449219, 43.325178 ] } }
{"year": "BC333",  "type": "Feature", "tippecanoe": { "layer": "2AFCA14F11281583918697304", "minzoom": 2, "maxzoom": 8 }, "properties": { "halo": 0.8, "title": "帕莱波利斯", "fontsize": 12, "tyid": "304000", "oid": "103:1576575170457", "color": "#202020" }, "geometry": { "type": "Point", "coordinates": [ 3.076172, 42.163403 ] } }
{"year": "BC333",  "type": "Feature", "tippecanoe": { "layer": "2AFCA14F11281583918697304", "minzoom": 2, "maxzoom": 8 }, "properties": { "halo": 0.8, "title": "卡莫尼卡人", "fontsize": 12, "tyid": "304001", "oid": "103:1576575170501", "color": "#262626" }, "geometry": { "type": "Point", "coordinates": [ 10.283203, 46.012224 ] } }
{"year": "BC333",  "type": "Feature", "tippecanoe": { "layer": "2AFCA14F11281583918697304", "minzoom": 2, "maxzoom": 8 }, "properties": { "halo": 0.8, "title": "摩诺伊科", "fontsize": 12, "tyid": "304000", "oid": "103:1576575170232", "color": "#202020" }, "geometry": { "type": "Point", "coordinates": [ 7.382812, 43.771094 ] } }
{"year": "BC333",  "type": "Feature", "tippecanoe": { "layer": "2AFCA14F11281583918697304", "minzoom": 2, "maxzoom": 8 }, "properties": { "halo": 0.8, "title": "翁布里亚人", "fontsize": 12, "tyid": "304001", "oid": "103:1576575170018", "color": "#262626" }, "geometry": { "type": "Point", "coordinates": [ 12.832031, 42.811522 ] } }
{"year": "BC333",  "type": "Feature", "tippecanoe": { "layer": "2AFCA14F11281583918697304", "minzoom": 2, "maxzoom": 8 }, "properties": { "halo": 0.8, "title": "萨宾人", "fontsize": 12, "tyid": "304001", "oid": "103:1576575170472", "color": "#262626" }, "geometry": { "type": "Point", "coordinates": [ 12.656250, 42.163403 ] } }
{"year": "BC333",  "type": "Feature", "tippecanoe": { "layer": "2AFCA14F11281583918697304", "minzoom": 2, "maxzoom": 8 }, "properties": { "halo": 0.8, "title": "皮森特人", "fontsize": 12, "tyid": "304001", "oid": "103:1576575170089", "color": "#262626" }, "geometry": { "type": "Point", "coordinates": [ 13.535156, 43.004647 ] } }
{"year": "BC333",  "type": "Feature", "tippecanoe": { "layer": "2AFCA14F11281583918697304", "minzoom": 2, "maxzoom": 8 }, "properties": { "halo": 0.8, "title": "罗马共和国", "fontsize": 12, "tyid": "304000", "oid": "103:1576575170125", "color": "#202020" }, "geometry": { "type": "Point", "coordinates": [ 12.656250, 41.902277 ] } }
{"year": "BC333",  "type": "Feature", "tippecanoe": { "layer": "2AFCA14F11281583918697304", "minzoom": 2, "maxzoom": 8 }, "properties": { "halo": 0.8, "title": "奥斯坎人", "fontsize": 12, "tyid": "304001", "oid": "103:1576575170423", "color": "#262626" }, "geometry": { "type": "Point", "coordinates": [ 13.447266, 41.442726 ] } }
{"year": "BC333",  "type": "Feature", "tippecanoe": { "layer": "2AFCA14F11281583918697304", "minzoom": 2, "maxzoom": 8 }, "properties": { "halo": 0.8, "title": "道尼人", "fontsize": 12, "tyid": "304001", "oid": "103:1576575170205", "color": "#262626" }, "geometry": { "type": "Point", "coordinates": [ 15.292969, 41.705729 ] } }
{"year": "BC333",  "type": "Feature", "tippecanoe": { "layer": "2AFCA14F11281583918697304", "minzoom": 2, "maxzoom": 8 }, "properties": { "halo": 0.8, "title": "佩乌克提伊人", "fontsize": 12, "tyid": "304001", "oid": "103:1576575170368", "color": "#262626" }, "geometry": { "type": "Point", "coordinates": [ 16.347656, 41.046217 ] } }
{"year": "BC333",  "type": "Feature", "tippecanoe": { "layer": "2AFCA14F11281583918697304", "minzoom": 2, "maxzoom": 8 }, "properties": { "halo": 0.8, "title": "皮斯特罗斯", "fontsize": 12, "tyid": "304000", "oid": "103:1576575170275", "color": "#202020" }, "geometry": { "type": "Point", "coordinates": [ 23.994141, 42.293564 ] } }
{"year": "BC333",  "type": "Feature", "tippecanoe": { "layer": "2AFCA14F11281583918697304", "minzoom": 2, "maxzoom": 8 }, "properties": { "halo": 0.8, "title": "奥德索斯", "fontsize": 12, "tyid": "304000", "oid": "103:1576575170525", "color": "#202020" }, "geometry": { "type": "Point", "coordinates": [ 27.861328, 43.261206 ] } }
{"year": "BC333",  "type": "Feature", "tippecanoe": { "layer": "2AFCA14F11281583918697304", "minzoom": 2, "maxzoom": 8 }, "properties": { "halo": 0.8, "title": "安恰罗斯", "fontsize": 12, "tyid": "304000", "oid": "103:1576575170566", "color": "#202020" }, "geometry": { "type": "Point", "coordinates": [ 27.509766, 42.617791 ] } }
{"year": "BC333",  "type": "Feature", "tippecanoe": { "layer": "2AFCA14F11281583918697304", "minzoom": 2, "maxzoom": 8 }, "properties": { "halo": 0.8, "title": "梅森布里亚", "fontsize": 12, "tyid": "304000", "oid": "103:1576575170561", "color": "#202020" }, "geometry": { "type": "Point", "coordinates": [ 27.597656, 42.682435 ] } }
{"year": "BC333",  "type": "Feature", "tippecanoe": { "layer": "2AFCA14F11281583918697304", "minzoom": 2, "maxzoom": 8 }, "properties": { "halo": 0.8, "title": "阿波罗尼亚·潘提卡", "fontsize": 12, "tyid": "304000", "oid": "103:1576575170533", "color": "#202020" }, "geometry": { "type": "Point", "coordinates": [ 27.597656, 42.423457 ] } }
{"year": "BC333",  "type": "Feature", "tippecanoe": { "layer": "2AFCA14F11281583918697304", "minzoom": 2, "maxzoom": 8 }, "properties": { "halo": 0.8, "title": "尼康恩", "fontsize": 12, "tyid": "304000", "oid": "103:1576575170100", "color": "#202020" }, "geometry": { "type": "Point", "coordinates": [ 30.673828, 46.619261 ] } }
{"year": "BC333",  "type": "Feature", "tippecanoe": { "layer": "2AFCA14F11281583918697304", "minzoom": 2, "maxzoom": 8 }, "properties": { "halo": 0.8, "title": "提拉斯", "fontsize": 12, "tyid": "304000", "oid": "103:1576575170467", "color": "#202020" }, "geometry": { "type": "Point", "coordinates": [ 30.234375, 46.134170 ] } }
{"year": "BC333",  "type": "Feature", "tippecanoe": { "layer": "2AFCA14F11281583918697304", "minzoom": 2, "maxzoom": 8 }, "properties": { "halo": 0.8, "title": "敖德萨", "fontsize": 12, "tyid": "304000", "oid": "103:1576575170455", "color": "#202020" }, "geometry": { "type": "Point", "coordinates": [ 30.585938, 46.498392 ] } }
{"year": "BC333",  "type": "Feature", "tippecanoe": { "layer": "2AFCA14F11281583918697304", "minzoom": 2, "maxzoom": 8 }, "properties": { "halo": 0.8, "title": "奥里维亚", "fontsize": 12, "tyid": "304002", "oid": "103:1576575170453", "color": "#262626" }, "geometry": { "type": "Point", "coordinates": [ 31.816406, 46.679594 ] } }
{"year": "BC333",  "type": "Feature", "tippecanoe": { "layer": "2AFCA14F11281583918697304", "minzoom": 2, "maxzoom": 8 }, "properties": { "halo": 0.8, "title": "克尔柯特", "fontsize": 12, "tyid": "304000", "oid": "103:1576575170478", "color": "#202020" }, "geometry": { "type": "Point", "coordinates": [ 33.398438, 45.274886 ] } }
{"year": "BC333",  "type": "Feature", "tippecanoe": { "layer": "2AFCA14F11281583918697304", "minzoom": 2, "maxzoom": 8 }, "properties": { "halo": 0.8, "title": "希斯特里亚", "fontsize": 12, "tyid": "304000", "oid": "103:1576575170399", "color": "#202020" }, "geometry": { "type": "Point", "coordinates": [ 28.740234, 44.653024 ] } }
{"year": "BC333",  "type": "Feature", "tippecanoe": { "layer": "2AFCA14F11281583918697304", "minzoom": 2, "maxzoom": 8 }, "properties": { "halo": 0.8, "title": "托米斯", "fontsize": 12, "tyid": "304000", "oid": "103:1576575170438", "color": "#202020" }, "geometry": { "type": "Point", "coordinates": [ 28.476562, 44.213710 ] } }
{"year": "BC333",  "type": "Feature", "tippecanoe": { "layer": "2AFCA14F11281583918697304", "minzoom": 2, "maxzoom": 8 }, "properties": { "halo": 0.8, "title": "埃吉索斯", "fontsize": 12, "tyid": "304000", "oid": "103:1576575170563", "color": "#202020" }, "geometry": { "type": "Point", "coordinates": [ 29.355469, 45.026950 ] } }
{"year": "BC333",  "type": "Feature", "tippecanoe": { "layer": "2AFCA14F11281583918697304", "minzoom": 2, "maxzoom": 8 }, "properties": { "halo": 0.8, "title": "卡拉提斯", "fontsize": 12, "tyid": "304000", "oid": "103:1576575170162", "color": "#202020" }, "geometry": { "type": "Point", "coordinates": [ 28.564453, 43.834527 ] } }
{"year": "BC333",  "type": "Feature", "tippecanoe": { "layer": "2AFCA14F11281583918697304", "minzoom": 2, "maxzoom": 8 }, "properties": { "halo": 0.8, "title": "迪奥尼索波利斯", "fontsize": 12, "tyid": "304000", "oid": "103:1576575170517", "color": "#202020" }, "geometry": { "type": "Point", "coordinates": [ 28.125000, 43.452919 ] } }
{"year": "BC333",  "type": "Feature", "tippecanoe": { "layer": "2AFCA14F11281583918697304", "minzoom": 2, "maxzoom": 8 }, "properties": { "halo": 0.8, "title": "拜佐恩", "fontsize": 12, "tyid": "304000", "oid": "103:1576575170448", "color": "#202020" }, "geometry": { "type": "Point", "coordinates": [ 28.300781, 43.452919 ] } }
{"year": "BC333",  "type": "Feature", "tippecanoe": { "layer": "2AFCA14F11281583918697304", "minzoom": 2, "maxzoom": 8 }, "properties": { "halo": 0.8, "title": "拜占庭", "fontsize": 12, "tyid": "304000", "oid": "103:1576575170299", "color": "#202020" }, "geometry": { "type": "Point", "coordinates": [ 28.740234, 41.178654 ] } }
{"year": "BC333",  "type": "Feature", "tippecanoe": { "layer": "2AFCA14F11281583918697304", "minzoom": 2, "maxzoom": 8 }, "properties": { "halo": 0.8, "title": "克森尼索", "fontsize": 12, "tyid": "304000", "oid": "103:1576575170555", "color": "#202020" }, "geometry": { "type": "Point", "coordinates": [ 33.486328, 44.590467 ] } }
{"year": "BC333",  "type": "Feature", "tippecanoe": { "layer": "2AFCA14F11281583918697304", "minzoom": 2, "maxzoom": 8 }, "properties": { "halo": 0.8, "title": "博斯普鲁斯王国", "fontsize": 12, "tyid": "304000", "oid": "103:1576575170283", "color": "#202020" }, "geometry": { "type": "Point", "coordinates": [ 36.298828, 45.274886 ] } }
{"year": "BC333",  "type": "Feature", "tippecanoe": { "layer": "2AFCA14F11281583918697304", "minzoom": 2, "maxzoom": 8 }, "properties": { "halo": 0.8, "title": "杜林人", "fontsize": 12, "tyid": "304001", "oid": "103:1576575170189", "color": "#262626" }, "geometry": { "type": "Point", "coordinates": [ 34.453125, 44.964798 ] } }
{"year": "BC333",  "type": "Feature", "tippecanoe": { "layer": "2AFCA14F11281583918697304", "minzoom": 2, "maxzoom": 8 }, "properties": { "halo": 0.8, "title": "戈尔吉皮亚", "fontsize": 12, "tyid": "304000", "oid": "103:1576575170418", "color": "#202020" }, "geometry": { "type": "Point", "coordinates": [ 37.265625, 44.902578 ] } }
{"year": "BC333",  "type": "Feature", "tippecanoe": { "layer": "2AFCA14F11281583918697304", "minzoom": 2, "maxzoom": 8 }, "properties": { "halo": 0.8, "title": "卢卡尼亚人", "fontsize": 12, "tyid": "304001", "oid": "103:1576575170404", "color": "#262626" }, "geometry": { "type": "Point", "coordinates": [ 15.908203, 40.313043 ] } }
{"year": "BC333",  "type": "Feature", "tippecanoe": { "layer": "2AFCA14F11281583918697304", "minzoom": 2, "maxzoom": 8 }, "properties": { "halo": 0.8, "title": "布鲁提亚人", "fontsize": 12, "tyid": "304001", "oid": "103:1576575170483", "color": "#262626" }, "geometry": { "type": "Point", "coordinates": [ 16.259766, 39.436193 ] } }
{"year": "BC333",  "type": "Feature", "tippecanoe": { "layer": "2AFCA14F11281583918697304", "minzoom": 2, "maxzoom": 8 }, "properties": { "halo": 0.8, "title": "西古里人", "fontsize": 12, "tyid": "304001", "oid": "103:1576575170353", "color": "#262626" }, "geometry": { "type": "Point", "coordinates": [ 14.501953, 37.509726 ] } }
{"year": "BC333",  "type": "Feature", "tippecanoe": { "layer": "2AFCA14F11281583918697304", "minzoom": 2, "maxzoom": 8 }, "properties": { "halo": 0.8, "title": "梅萨皮伊人", "fontsize": 12, "tyid": "304001", "oid": "103:1576575170376", "color": "#262626" }, "geometry": { "type": "Point", "coordinates": [ 17.490234, 40.647304 ] } }
{"year": "BC333",  "type": "Feature", "tippecanoe": { "layer": "2AFCA14F11281583918697304", "minzoom": 2, "maxzoom": 8 }, "properties": { "halo": 0.8, "title": "查乌内斯人", "fontsize": 12, "tyid": "304001", "oid": "103:1576575170386", "color": "#262626" }, "geometry": { "type": "Point", "coordinates": [ 19.863281, 40.647304 ] } }
{"year": "BC333",  "type": "Feature", "tippecanoe": { "layer": "2AFCA14F11281583918697304", "minzoom": 2, "maxzoom": 8 }, "properties": { "halo": 0.8, "title": "莫洛西人", "fontsize": 12, "tyid": "304001", "oid": "103:1576575170537", "color": "#262626" }, "geometry": { "type": "Point", "coordinates": [ 20.478516, 39.977120 ] } }
{"year": "BC333",  "type": "Feature", "tippecanoe": { "layer": "2AFCA14F11281583918697304", "minzoom": 2, "maxzoom": 8 }, "properties": { "halo": 0.8, "title": "塞斯普罗蒂人", "fontsize": 12, "tyid": "304001", "oid": "103:1576575170060", "color": "#262626" }, "geometry": { "type": "Point", "coordinates": [ 20.917969, 39.436193 ] } }
{"year": "BC333",  "type": "Feature", "tippecanoe": { "layer": "2AFCA14F11281583918697304", "minzoom": 2, "maxzoom": 8 }, "properties": { "halo": 0.8, "title": "色萨利同盟", "fontsize": 12, "tyid": "304000", "oid": "103:1576575170223", "color": "#202020" }, "geometry": { "type": "Point", "coordinates": [ 22.236328, 39.504041 ] } }
{"year": "BC333",  "type": "Feature", "tippecanoe": { "layer": "2AFCA14F11281583918697304", "minzoom": 2, "maxzoom": 8 }, "properties": { "halo": 0.8, "title": "阿卡尔纳尼亚同盟", "fontsize": 12, "tyid": "304000", "oid": "103:1576575170364", "color": "#202020" }, "geometry": { "type": "Point", "coordinates": [ 21.005859, 38.685510 ] } }
{"year": "BC333",  "type": "Feature", "tippecanoe": { "layer": "2AFCA14F11281583918697304", "minzoom": 2, "maxzoom": 8 }, "properties": { "halo": 0.8, "title": "埃托利亚同盟", "fontsize": 12, "tyid": "304000", "oid": "103:1576575170425", "color": "#202020" }, "geometry": { "type": "Point", "coordinates": [ 21.533203, 38.685510 ] } }
{"year": "BC333",  "type": "Feature", "tippecanoe": { "layer": "2AFCA14F11281583918697304", "minzoom": 2, "maxzoom": 8 }, "properties": { "halo": 0.8, "title": "厄利斯", "fontsize": 12, "tyid": "304000", "oid": "103:1576575170383", "color": "#202020" }, "geometry": { "type": "Point", "coordinates": [ 21.357422, 37.788081 ] } }
{"year": "BC333",  "type": "Feature", "tippecanoe": { "layer": "2AFCA14F11281583918697304", "minzoom": 2, "maxzoom": 8 }, "properties": { "halo": 0.8, "title": "德尔菲-近邻同盟", "fontsize": 12, "tyid": "304000", "oid": "103:1576575170207", "color": "#202020" }, "geometry": { "type": "Point", "coordinates": [ 22.060547, 38.822591 ] } }
{"year": "BC333",  "type": "Feature", "tippecanoe": { "layer": "2AFCA14F11281583918697304", "minzoom": 2, "maxzoom": 8 }, "properties": { "halo": 0.8, "title": "阿卡迪亚同盟", "fontsize": 12, "tyid": "304000", "oid": "103:1576575170333", "color": "#202020" }, "geometry": { "type": "Point", "coordinates": [ 22.060547, 37.718590 ] } }
{"year": "BC333",  "type": "Feature", "tippecanoe": { "layer": "2AFCA14F11281583918697304", "minzoom": 2, "maxzoom": 8 }, "properties": { "halo": 0.8, "title": "古美西尼", "fontsize": 12, "tyid": "304000", "oid": "103:1576575170179", "color": "#202020" }, "geometry": { "type": "Point", "coordinates": [ 21.884766, 37.160317 ] } }
{"year": "BC333",  "type": "Feature", "tippecanoe": { "layer": "2AFCA14F11281583918697304", "minzoom": 2, "maxzoom": 8 }, "properties": { "halo": 0.8, "title": "彼奥提亚同盟", "fontsize": 12, "tyid": "304000", "oid": "103:1576575170290", "color": "#202020" }, "geometry": { "type": "Point", "coordinates": [ 23.115234, 38.410558 ] } }
{"year": "BC333",  "type": "Feature", "tippecanoe": { "layer": "2AFCA14F11281583918697304", "minzoom": 2, "maxzoom": 8 }, "properties": { "halo": 0.8, "title": "科林斯", "fontsize": 12, "tyid": "304000", "oid": "103:1576575170150", "color": "#202020" }, "geometry": { "type": "Point", "coordinates": [ 22.763672, 37.926868 ] } }
{"year": "BC333",  "type": "Feature", "tippecanoe": { "layer": "2AFCA14F11281583918697304", "minzoom": 2, "maxzoom": 8 }, "properties": { "halo": 0.8, "title": "阿尔戈斯", "fontsize": 12, "tyid": "304000", "oid": "103:1576575170529", "color": "#202020" }, "geometry": { "type": "Point", "coordinates": [ 22.939453, 37.718590 ] } }
{"year": "BC333",  "type": "Feature", "tippecanoe": { "layer": "2AFCA14F11281583918697304", "minzoom": 2, "maxzoom": 8 }, "properties": { "halo": 0.8, "title": "斯巴达", "fontsize": 12, "tyid": "304000", "oid": "103:1576575170585", "color": "#202020" }, "geometry": { "type": "Point", "coordinates": [ 22.587891, 37.020098 ] } }
{"year": "BC333",  "type": "Feature", "tippecanoe": { "layer": "2AFCA14F11281583918697304", "minzoom": 2, "maxzoom": 8 }, "properties": { "halo": 0.8, "title": "亚扪王国", "fontsize": 12, "tyid": "304000", "oid": "103:1576575170570", "color": "#202020" }, "geometry": { "type": "Point", "coordinates": [ 36.123047, 32.175612 ] } }
{"year": "BC333",  "type": "Feature", "tippecanoe": { "layer": "2AFCA14F11281583918697304", "minzoom": 2, "maxzoom": 8 }, "properties": { "halo": 0.8, "title": "以东王国", "fontsize": 12, "tyid": "304000", "oid": "103:1576575170577", "color": "#202020" }, "geometry": { "type": "Point", "coordinates": [ 35.332031, 30.448674 ] } }
{"year": "BC333",  "type": "Feature", "tippecanoe": { "layer": "2AFCA14F11281583918697304", "minzoom": 2, "maxzoom": 8 }, "properties": { "halo": 0.8, "title": "焉耆国", "fontsize": 12, "tyid": "304000", "oid": "103:1576575170214", "color": "#202020" }, "geometry": { "type": "Point", "coordinates": [ 86.308594, 42.032974 ] } }
{"year": "BC333",  "type": "Feature", "tippecanoe": { "layer": "2AFCA14F11281583918697304", "minzoom": 2, "maxzoom": 8 }, "properties": { "halo": 0.8, "title": "莎车国", "fontsize": 12, "tyid": "304000", "oid": "103:1576575170489", "color": "#202020" }, "geometry": { "type": "Point", "coordinates": [ 77.343750, 38.685510 ] } }
{"year": "BC333",  "type": "Feature", "tippecanoe": { "layer": "2AFCA14F11281583918697304", "minzoom": 2, "maxzoom": 8 }, "properties": { "halo": 0.8, "title": "流水墓地文化", "fontsize": 12, "tyid": "304002", "oid": "103:1576575170461", "color": "#262626" }, "geometry": { "type": "Point", "coordinates": [ 81.562500, 36.456636 ] } }
{"year": "BC333",  "type": "Feature", "tippecanoe": { "layer": "2AFCA14F11281583918697304", "minzoom": 2, "maxzoom": 8 }, "properties": { "halo": 0.8, "title": "且末国", "fontsize": 12, "tyid": "304000", "oid": "103:1576575170480", "color": "#202020" }, "geometry": { "type": "Point", "coordinates": [ 85.605469, 38.272689 ] } }
{"year": "BC333",  "type": "Feature", "tippecanoe": { "layer": "2AFCA14F11281583918697304", "minzoom": 2, "maxzoom": 8 }, "properties": { "halo": 0.8, "title": "小宛国", "fontsize": 12, "tyid": "304000", "oid": "103:1576575170397", "color": "#202020" }, "geometry": { "type": "Point", "coordinates": [ 85.429688, 37.579413 ] } }
{"year": "BC333",  "type": "Feature", "tippecanoe": { "layer": "2AFCA14F11281583918697304", "minzoom": 2, "maxzoom": 8 }, "properties": { "halo": 0.8, "title": "西周国", "fontsize": 12, "tyid": "304000", "oid": "103:1576575170575", "color": "#202020" }, "geometry": { "type": "Point", "coordinates": [ 112.412109, 34.741612 ] } }
{"year": "BC333",  "type": "Feature", "tippecanoe": { "layer": "2AFCA14F11281583918697304", "minzoom": 2, "maxzoom": 8 }, "properties": { "halo": 0.8, "title": "冉駹羌", "fontsize": 12, "tyid": "304000", "oid": "103:1576575170458", "color": "#202020" }, "geometry": { "type": "Point", "coordinates": [ 103.623047, 31.503629 ] } }
{"year": "BC333",  "type": "Feature", "tippecanoe": { "layer": "2AFCA14F11281583918697304", "minzoom": 2, "maxzoom": 8 }, "properties": { "halo": 0.8, "title": "筰都", "fontsize": 12, "tyid": "304001", "oid": "103:1576575170343", "color": "#262626" }, "geometry": { "type": "Point", "coordinates": [ 102.568359, 29.228890 ] } }
{"year": "BC333",  "type": "Feature", "tippecanoe": { "layer": "2AFCA14F11281583918697304", "minzoom": 2, "maxzoom": 8 }, "properties": { "halo": 0.8, "title": "徙", "fontsize": 12, "tyid": "304001", "oid": "103:1576575170522", "color": "#262626" }, "geometry": { "type": "Point", "coordinates": [ 102.216797, 28.613459 ] } }
{"year": "BC333",  "type": "Feature", "tippecanoe": { "layer": "2AFCA14F11281583918697304", "minzoom": 2, "maxzoom": 8 }, "properties": { "halo": 0.8, "title": "充", "fontsize": 12, "tyid": "304000", "oid": "103:1576575170443", "color": "#202020" }, "geometry": { "type": "Point", "coordinates": [ 105.996094, 31.128199 ] } }
{"year": "BC333",  "type": "Feature", "tippecanoe": { "layer": "2AFCA14F11281583918697304", "minzoom": 2, "maxzoom": 8 }, "properties": { "halo": 0.8, "title": "靡莫", "fontsize": 12, "tyid": "304001", "oid": "103:1576575170373", "color": "#262626" }, "geometry": { "type": "Point", "coordinates": [ 103.886719, 25.799891 ] } }
{"year": "BC333",  "type": "Feature", "tippecanoe": { "layer": "2AFCA14F11281583918697304", "minzoom": 2, "maxzoom": 8 }, "properties": { "halo": 0.8, "title": "劳浸", "fontsize": 12, "tyid": "304001", "oid": "103:1576575170562", "color": "#262626" }, "geometry": { "type": "Point", "coordinates": [ 103.710938, 24.926295 ] } }
{"year": "BC333",  "type": "Feature", "tippecanoe": { "layer": "2AFCA14F11281583918697304", "minzoom": 2, "maxzoom": 8 }, "properties": { "halo": 0.8, "title": "石坛文化", "fontsize": 12, "tyid": "304002", "oid": "103:1576575170358", "color": "#262626" }, "geometry": { "type": "Point", "coordinates": [ 103.359375, 19.559790 ] } }
{"year": "BC333",  "type": "Feature", "tippecanoe": { "layer": "2AFCA14F11281583918697304", "minzoom": 2, "maxzoom": 8 }, "properties": { "halo": 0.8, "title": "东山文化", "fontsize": 12, "tyid": "304002", "oid": "103:1576575170385", "color": "#262626" }, "geometry": { "type": "Point", "coordinates": [ 105.292969, 21.698265 ] } }
{"year": "BC333",  "type": "Feature", "tippecanoe": { "layer": "2AFCA14F11281583918697304", "minzoom": 2, "maxzoom": 8 }, "properties": { "halo": 0.8, "title": "东周", "fontsize": 12, "tyid": "304000", "oid": "103:1576575170499", "color": "#202020" }, "geometry": { "type": "Point", "coordinates": [ 112.587891, 34.741612 ] } }
{"year": "BC333",  "type": "Feature", "tippecanoe": { "layer": "2AFCA14F11281583918697304", "minzoom": 2, "maxzoom": 8 }, "properties": { "halo": 0.8, "title": "东周国", "fontsize": 12, "tyid": "304000", "oid": "103:1576575170576", "color": "#202020" }, "geometry": { "type": "Point", "coordinates": [ 112.851562, 34.669359 ] } }
{"year": "BC333",  "type": "Feature", "tippecanoe": { "layer": "2AFCA14F11281583918697304", "minzoom": 2, "maxzoom": 8 }, "properties": { "halo": 0.8, "title": "卫", "fontsize": 12, "tyid": "304000", "oid": "103:1576575170221", "color": "#202020" }, "geometry": { "type": "Point", "coordinates": [ 114.873047, 35.460670 ] } }
{"year": "BC333",  "type": "Feature", "tippecanoe": { "layer": "2AFCA14F11281583918697304", "minzoom": 2, "maxzoom": 8 }, "properties": { "halo": 0.8, "title": "任", "fontsize": 12, "tyid": "304000", "oid": "103:1576575170229", "color": "#202020" }, "geometry": { "type": "Point", "coordinates": [ 116.630859, 35.389050 ] } }
{"year": "BC333",  "type": "Feature", "tippecanoe": { "layer": "2AFCA14F11281583918697304", "minzoom": 2, "maxzoom": 8 }, "properties": { "halo": 0.8, "title": "邾", "fontsize": 12, "tyid": "304000", "oid": "103:1576575170235", "color": "#202020" }, "geometry": { "type": "Point", "coordinates": [ 116.894531, 35.389050 ] } }
{"year": "BC333",  "type": "Feature", "tippecanoe": { "layer": "2AFCA14F11281583918697304", "minzoom": 2, "maxzoom": 8 }, "properties": { "halo": 0.8, "title": "滕", "fontsize": 12, "tyid": "304000", "oid": "103:1576575170543", "color": "#202020" }, "geometry": { "type": "Point", "coordinates": [ 116.982422, 35.101934 ] } }
{"year": "BC333",  "type": "Feature", "tippecanoe": { "layer": "2AFCA14F11281583918697304", "minzoom": 2, "maxzoom": 8 }, "properties": { "halo": 0.8, "title": "鲁", "fontsize": 12, "tyid": "304000", "oid": "103:1576575170261", "color": "#202020" }, "geometry": { "type": "Point", "coordinates": [ 117.685547, 35.389050 ] } }
{"year": "BC333",  "type": "Feature", "tippecanoe": { "layer": "2AFCA14F11281583918697304", "minzoom": 2, "maxzoom": 8 }, "properties": { "halo": 0.8, "title": "费", "fontsize": 12, "tyid": "304000", "oid": "103:1576575170419", "color": "#202020" }, "geometry": { "type": "Point", "coordinates": [ 117.861328, 34.885931 ] } }
{"year": "BC333",  "type": "Feature", "tippecanoe": { "layer": "2AFCA14F11281583918697304", "minzoom": 2, "maxzoom": 8 }, "properties": { "halo": 0.8, "title": "邳", "fontsize": 12, "tyid": "304000", "oid": "103:1576575170092", "color": "#202020" }, "geometry": { "type": "Point", "coordinates": [ 117.861328, 34.016242 ] } }
{"year": "BC333",  "type": "Feature", "tippecanoe": { "layer": "2AFCA14F11281583918697304", "minzoom": 2, "maxzoom": 8 }, "properties": { "halo": 0.8, "title": "屠何", "fontsize": 12, "tyid": "304001", "oid": "103:1576575170357", "color": "#262626" }, "geometry": { "type": "Point", "coordinates": [ 120.322266, 40.847060 ] } }
{"year": "BC333",  "type": "Feature", "tippecanoe": { "layer": "2AFCA14F11281583918697304", "minzoom": 2, "maxzoom": 8 }, "properties": { "halo": 0.8, "title": "桐", "fontsize": 12, "tyid": "304000", "oid": "103:1576575170548", "color": "#202020" }, "geometry": { "type": "Point", "coordinates": [ 116.718750, 30.977609 ] } }
{"year": "BC333",  "type": "Feature", "tippecanoe": { "layer": "2AFCA14F11281583918697304", "minzoom": 2, "maxzoom": 8 }, "properties": { "halo": 0.8, "title": "营埔文化", "fontsize": 12, "tyid": "304002", "oid": "103:1576575170604", "color": "#262626" }, "geometry": { "type": "Point", "coordinates": [ 120.673828, 24.367114 ] } }
{"year": "BC333",  "type": "Feature", "tippecanoe": { "layer": "2AFCA14F11281583918697304", "minzoom": 2, "maxzoom": 8 }, "properties": { "halo": 0.8, "title": "卑南文化", "fontsize": 12, "tyid": "304002", "oid": "103:1576575170602", "color": "#262626" }, "geometry": { "type": "Point", "coordinates": [ 120.761719, 22.674847 ] } }
{"year": "BC333",  "type": "Feature", "tippecanoe": { "layer": "2AFCA14F11281583918697304", "minzoom": 2, "maxzoom": 8 }, "properties": { "halo": 0.8, "title": "圆山文化", "fontsize": 12, "tyid": "304002", "oid": "103:1576575170606", "color": "#262626" }, "geometry": { "type": "Point", "coordinates": [ 121.289062, 24.926295 ] } }
{"year": "BC333",  "type": "Feature", "tippecanoe": { "layer": "2AFCA14F11281583918697304", "minzoom": 2, "maxzoom": 8 }, "properties": { "halo": 0.8, "title": "麒麟文化", "fontsize": 12, "tyid": "304002", "oid": "103:1576575170608", "color": "#262626" }, "geometry": { "type": "Point", "coordinates": [ 121.289062, 23.563987 ] } }
{"year": "BC333",  "type": "Feature", "tippecanoe": { "layer": "2AFCA14F11281583918697304", "minzoom": 2, "maxzoom": 8 }, "properties": { "halo": 0.8, "title": "托雷斯海峡岛民", "fontsize": 12, "tyid": "304001", "oid": "103:1576575170029", "color": "#262626" }, "geometry": { "type": "Point", "coordinates": [ 142.382812, -11.264612 ] } }
{"year": "BC333",  "type": "Feature", "tippecanoe": { "layer": "2AFCA19BC1281583918697328", "minzoom": 2, "maxzoom": 8 }, "properties": { "halo": 1.6, "title": "诺顿文化", "fontsize": 12, "tyid": "304002", "oid": "103:1576575170400", "color": "#0056E7" }, "geometry": { "type": "Point", "coordinates": [ -157.851562, 70.436799 ] } }
{"year": "BC333",  "type": "Feature", "tippecanoe": { "layer": "2AFCA19BC1281583918697328", "minzoom": 2, "maxzoom": 8 }, "properties": { "halo": 1.6, "title": "尤皮克人", "fontsize": 12, "tyid": "304001", "oid": "103:1576575170557", "color": "#0056E7" }, "geometry": { "type": "Point", "coordinates": [ -156.796875, 62.021528 ] } }
{"year": "BC333",  "type": "Feature", "tippecanoe": { "layer": "2AFCA19BC1281583918697328", "minzoom": 2, "maxzoom": 8 }, "properties": { "halo": 1.6, "title": "因纽皮雅特人", "fontsize": 12, "tyid": "304001", "oid": "103:1576575170547", "color": "#0056E7" }, "geometry": { "type": "Point", "coordinates": [ -149.501953, 65.219894 ] } }
{"year": "BC333",  "type": "Feature", "tippecanoe": { "layer": "2AFCA19BC1281583918697328", "minzoom": 2, "maxzoom": 8 }, "properties": { "halo": 1.6, "title": "阿留申人", "fontsize": 12, "tyid": "304001", "oid": "103:1576575170010", "color": "#0056E7" }, "geometry": { "type": "Point", "coordinates": [ -152.226562, 61.312452 ] } }
{"year": "BC333",  "type": "Feature", "tippecanoe": { "layer": "2AFCA19BC1281583918697328", "minzoom": 2, "maxzoom": 8 }, "properties": { "halo": 1.6, "title": "因纽特人", "fontsize": 12, "tyid": "304001", "oid": "103:1576575170246", "color": "#0056E7" }, "geometry": { "type": "Point", "coordinates": [ -96.855469, 64.129784 ] } }
{"year": "BC333",  "type": "Feature", "tippecanoe": { "layer": "2AFCA19BC1281583918697328", "minzoom": 2, "maxzoom": 8 }, "properties": { "halo": 1.6, "title": "泰萨勒页岩文化", "fontsize": 12, "tyid": "304002", "oid": "103:1576575170045", "color": "#0056E7" }, "geometry": { "type": "Point", "coordinates": [ -99.843750, 56.704506 ] } }
{"year": "BC333",  "type": "Feature", "tippecanoe": { "layer": "2AFCA19BC1281583918697328", "minzoom": 2, "maxzoom": 8 }, "properties": { "halo": 1.6, "title": "坎贝尔文化", "fontsize": 12, "tyid": "304002", "oid": "103:1576575170264", "color": "#0056E7" }, "geometry": { "type": "Point", "coordinates": [ -121.289062, 38.685510 ] } }
{"year": "BC333",  "type": "Feature", "tippecanoe": { "layer": "2AFCA19BC1281583918697328", "minzoom": 2, "maxzoom": 8 }, "properties": { "halo": 1.6, "title": "圣迪基图文化", "fontsize": 12, "tyid": "304002", "oid": "103:1576575170052", "color": "#0056E7" }, "geometry": { "type": "Point", "coordinates": [ -115.224609, 33.211116 ] } }
{"year": "BC333",  "type": "Feature", "tippecanoe": { "layer": "2AFCA19BC1281583918697328", "minzoom": 2, "maxzoom": 8 }, "properties": { "halo": 1.6, "title": "独立二期文化", "fontsize": 12, "tyid": "304002", "oid": "103:1576575170359", "color": "#0056E7" }, "geometry": { "type": "Point", "coordinates": [ -41.220703, 81.960148 ] } }
{"year": "BC333",  "type": "Feature", "tippecanoe": { "layer": "2AFCA19BC1281583918697328", "minzoom": 2, "maxzoom": 8 }, "properties": { "halo": 1.6, "title": "波茵特半岛文化", "fontsize": 12, "tyid": "304002", "oid": "103:1576575170286", "color": "#0056E7" }, "geometry": { "type": "Point", "coordinates": [ -76.816406, 45.336702 ] } }
{"year": "BC333",  "type": "Feature", "tippecanoe": { "layer": "2AFCA19BC1281583918697328", "minzoom": 2, "maxzoom": 8 }, "properties": { "halo": 1.6, "title": "古海洋文化", "fontsize": 12, "tyid": "304002", "oid": "103:1576575170415", "color": "#0056E7" }, "geometry": { "type": "Point", "coordinates": [ -66.972656, 46.920255 ] } }
{"year": "BC333",  "type": "Feature", "tippecanoe": { "layer": "2AFCA19BC1281583918697328", "minzoom": 2, "maxzoom": 8 }, "properties": { "halo": 1.6, "title": "阿登纳文化", "fontsize": 12, "tyid": "304002", "oid": "103:1576575170531", "color": "#0056E7" }, "geometry": { "type": "Point", "coordinates": [ -81.826172, 40.513799 ] } }
{"year": "BC333",  "type": "Feature", "tippecanoe": { "layer": "2AFCA19BC1281583918697328", "minzoom": 2, "maxzoom": 8 }, "properties": { "halo": 1.6, "title": "凯尔特布立吞人", "fontsize": 12, "tyid": "304001", "oid": "103:1576575170278", "color": "#0056E7" }, "geometry": { "type": "Point", "coordinates": [ -1.845703, 52.589701 ] } }
{"year": "BC333",  "type": "Feature", "tippecanoe": { "layer": "2AFCA19BC1281583918697328", "minzoom": 2, "maxzoom": 8 }, "properties": { "halo": 1.6, "title": "巴富尔人", "fontsize": 12, "tyid": "304001", "oid": "103:1576575170305", "color": "#0056E7" }, "geometry": { "type": "Point", "coordinates": [ -8.261719, 22.917923 ] } }
{"year": "BC333",  "type": "Feature", "tippecanoe": { "layer": "2AFCA19BC1281583918697328", "minzoom": 2, "maxzoom": 8 }, "properties": { "halo": 1.6, "title": "索宁克人", "fontsize": 12, "tyid": "304001", "oid": "103:1576575170540", "color": "#0056E7" }, "geometry": { "type": "Point", "coordinates": [ -8.964844, 14.944785 ] } }
{"year": "BC333",  "type": "Feature", "tippecanoe": { "layer": "2AFCA19BC1281583918697328", "minzoom": 2, "maxzoom": 8 }, "properties": { "halo": 1.6, "title": "曼德人", "fontsize": 12, "tyid": "304001", "oid": "103:1576575170114", "color": "#0056E7" }, "geometry": { "type": "Point", "coordinates": [ -7.558594, 8.146243 ] } }
{"year": "BC333",  "type": "Feature", "tippecanoe": { "layer": "2AFCA19BC1281583918697328", "minzoom": 2, "maxzoom": 8 }, "properties": { "halo": 1.6, "title": "昌戈人", "fontsize": 12, "tyid": "304001", "oid": "103:1576575170442", "color": "#0056E7" }, "geometry": { "type": "Point", "coordinates": [ -70.136719, -24.926295 ] } }
{"year": "BC333",  "type": "Feature", "tippecanoe": { "layer": "2AFCA19BC1281583918697328", "minzoom": 2, "maxzoom": 8 }, "properties": { "halo": 1.6, "title": "图皮人", "fontsize": 12, "tyid": "304001", "oid": "103:1576575170033", "color": "#0056E7" }, "geometry": { "type": "Point", "coordinates": [ -39.902344, -16.888660 ] } }
{"year": "BC333",  "type": "Feature", "tippecanoe": { "layer": "2AFCA19BC1281583918697328", "minzoom": 2, "maxzoom": 8 }, "properties": { "halo": 1.6, "title": "萨米人", "fontsize": 12, "tyid": "304001", "oid": "103:1576575170072", "color": "#0056E7" }, "geometry": { "type": "Point", "coordinates": [ 25.400391, 68.171555 ] } }
{"year": "BC333",  "type": "Feature", "tippecanoe": { "layer": "2AFCA19BC1281583918697328", "minzoom": 2, "maxzoom": 8 }, "properties": { "halo": 1.6, "title": "原始日耳曼人", "fontsize": 12, "tyid": "304001", "oid": "103:1576575170395", "color": "#0056E7" }, "geometry": { "type": "Point", "coordinates": [ 12.480469, 60.326948 ] } }
{"year": "BC333",  "type": "Feature", "tippecanoe": { "layer": "2AFCA19BC1281583918697328", "minzoom": 2, "maxzoom": 8 }, "properties": { "halo": 1.6, "title": "山外高卢人", "fontsize": 12, "tyid": "304001", "oid": "103:1576575170054", "color": "#0056E7" }, "geometry": { "type": "Point", "coordinates": [ 2.812500, 47.694974 ] } }
{"year": "BC333",  "type": "Feature", "tippecanoe": { "layer": "2AFCA19BC1281583918697328", "minzoom": 2, "maxzoom": 8 }, "properties": { "halo": 1.6, "title": "波德洛什维耶墓葬文化", "fontsize": 12, "tyid": "304002", "oid": "103:1576575170391", "color": "#0056E7" },