{"year": "BC340000000",  "type": "Feature", "tippecanoe": { "layer": "2B0947CF2F281572856867745", "minzoom": 2, "maxzoom": 10 }, "properties": { "fontsize": 16, "color": "#333333", "tyid": "300001", "oid": "103:1571623885671", "title": "欧美大陆" }, "geometry": { "type": "Point", "coordinates": [ -10.898438, 6.839170 ] } }
{"year": "BC340000000",  "type": "Feature", "tippecanoe": { "layer": "2B0947CF2F281572856867745", "minzoom": 2, "maxzoom": 10 }, "properties": { "color": "#15708D", "tyid": "301001", "oid": "103:1571623899869", "title": "泛大洋", "fontsize": 16, "offset": "[0,1.3]" }, "geometry": { "type": "Point", "coordinates": [ -136.845703, -0.966751 ] } }
{"year": "BC340000000",  "type": "Feature", "tippecanoe": { "layer": "2B0947CF2F281572856867745", "minzoom": 2, "maxzoom": 10 }, "properties": { "fontsize": 16, "color": "#333333", "tyid": "300001", "oid": "103:1571623885673", "title": "西伯利亚大陆" }, "geometry": { "type": "Point", "coordinates": [ 19.160156, 41.112469 ] } }
{"year": "BC340000000",  "type": "Feature", "tippecanoe": { "layer": "2B0947CF2F281572856867745", "minzoom": 2, "maxzoom": 10 }, "properties": { "color": "#15708D", "tyid": "301001", "oid": "103:1571623899867", "title": "古特提斯洋", "fontsize": 16, "offset": "[0,1.3]" }, "geometry": { "type": "Point", "coordinates": [ 67.675781, 11.264612 ] } }
{"year": "BC340000000",  "type": "Feature", "tippecanoe": { "layer": "2B0947CF2F281572856867745", "minzoom": 2, "maxzoom": 10 }, "properties": { "fontsize": 16, "color": "#333333", "tyid": "300001", "oid": "103:1571623885669", "title": "冈瓦那大陆" }, "geometry": { "type": "Point", "coordinates": [ 40.517578, -59.175928 ] } }
