{ "type": "Feature", "tippecanoe": { "layer": "2AFC9E38BEF01583918756770", "minzoom": 2, "maxzoom": 8 }, "properties": { "halo": 1.6, "title": "古白令海文化", "fontsize": 12, "tyid": "304002", "oid": "103:1576575205685", "color": "#0056E7" }, "geometry": { "type": "Point", "coordinates": [ -170.332031, 63.470145 ] } }
{ "type": "Feature", "tippecanoe": { "layer": "2AFC9E38BEF01583918756770", "minzoom": 2, "maxzoom": 8 }, "properties": { "halo": 1.6, "title": "查普卡洛文化", "fontsize": 12, "tyid": "304002", "oid": "103:1576575205695", "color": "#0056E7" }, "geometry": { "type": "Point", "coordinates": [ -99.931641, 20.303418 ] } }
{ "type": "Feature", "tippecanoe": { "layer": "2AFC9E38BEF01583918756770", "minzoom": 2, "maxzoom": 8 }, "properties": { "halo": 1.6, "title": "米斯特克人", "fontsize": 12, "tyid": "304001", "oid": "103:1576575205673", "color": "#0056E7" }, "geometry": { "type": "Point", "coordinates": [ -98.349609, 17.224758 ] } }
{ "type": "Feature", "tippecanoe": { "layer": "2AFC9E38BEF01583918756770", "minzoom": 2, "maxzoom": 8 }, "properties": { "halo": 1.6, "title": "特里克人", "fontsize": 12, "tyid": "304001", "oid": "103:1576575205416", "color": "#0056E7" }, "geometry": { "type": "Point", "coordinates": [ -97.294922, 17.644022 ] } }
{ "type": "Feature", "tippecanoe": { "layer": "2AFC9E38BEF01583918756770", "minzoom": 2, "maxzoom": 8 }, "properties": { "halo": 1.6, "title": "麦克斯人", "fontsize": 12, "tyid": "304001", "oid": "103:1576575205472", "color": "#0056E7" }, "geometry": { "type": "Point", "coordinates": [ -96.328125, 18.062312 ] } }
{ "type": "Feature", "tippecanoe": { "layer": "2AFC9E38BEF01583918756770", "minzoom": 2, "maxzoom": 8 }, "properties": { "halo": 1.6, "title": "祖赫人", "fontsize": 12, "tyid": "304001", "oid": "103:1576575205721", "color": "#0056E7" }, "geometry": { "type": "Point", "coordinates": [ -92.021484, 16.045813 ] } }
{ "type": "Feature", "tippecanoe": { "layer": "2AFC9E38BEF01583918756770", "minzoom": 2, "maxzoom": 8 }, "properties": { "halo": 1.6, "title": "基切人", "fontsize": 12, "tyid": "304001", "oid": "103:1576575205765", "color": "#0056E7" }, "geometry": { "type": "Point", "coordinates": [ -90.966797, 15.029686 ] } }
{ "type": "Feature", "tippecanoe": { "layer": "2AFC9E38BEF01583918756770", "minzoom": 2, "maxzoom": 8 }, "properties": { "halo": 1.6, "title": "阿尔托山文化", "fontsize": 12, "tyid": "304002", "oid": "103:1576575205718", "color": "#0056E7" }, "geometry": { "type": "Point", "coordinates": [ -91.054688, 14.349548 ] } }
{ "type": "Feature", "tippecanoe": { "layer": "2AFC9E38BEF01583918756770", "minzoom": 2, "maxzoom": 8 }, "properties": { "halo": 1.6, "title": "玛纳索塔文化", "fontsize": 12, "tyid": "304002", "oid": "103:1576575205853", "color": "#0056E7" }, "geometry": { "type": "Point", "coordinates": [ -82.441406, 27.683528 ] } }
{ "type": "Feature", "tippecanoe": { "layer": "2AFC9E38BEF01583918756770", "minzoom": 2, "maxzoom": 8 }, "properties": { "halo": 1.6, "title": "卡卢萨人", "fontsize": 12, "tyid": "304001", "oid": "103:1576575205514", "color": "#0056E7" }, "geometry": { "type": "Point", "coordinates": [ -81.650391, 27.137368 ] } }
{ "type": "Feature", "tippecanoe": { "layer": "2AFC9E38BEF01583918756770", "minzoom": 2, "maxzoom": 8 }, "properties": { "halo": 1.6, "title": "圣约翰文化", "fontsize": 12, "tyid": "304002", "oid": "103:1576575205856", "color": "#0056E7" }, "geometry": { "type": "Point", "coordinates": [ -81.474609, 29.382175 ] } }
{ "type": "Feature", "tippecanoe": { "layer": "2AFC9E38BEF01583918756770", "minzoom": 2, "maxzoom": 8 }, "properties": { "halo": 1.6, "title": "贝尔格莱德文化", "fontsize": 12, "tyid": "304002", "oid": "103:1576575205556", "color": "#0056E7" }, "geometry": { "type": "Point", "coordinates": [ -80.859375, 27.449790 ] } }
{ "type": "Feature", "tippecanoe": { "layer": "2AFC9E38BEF01583918756770", "minzoom": 2, "maxzoom": 8 }, "properties": { "halo": 1.6, "title": "格莱兹文化", "fontsize": 12, "tyid": "304002", "oid": "103:1576575205686", "color": "#0056E7" }, "geometry": { "type": "Point", "coordinates": [ -80.771484, 26.037042 ] } }
{ "type": "Feature", "tippecanoe": { "layer": "2AFC9E38BEF01583918756770", "minzoom": 2, "maxzoom": 8 }, "properties": { "halo": 1.6, "title": "雷卡人", "fontsize": 12, "tyid": "304001", "oid": "103:1576575205503", "color": "#0056E7" }, "geometry": { "type": "Point", "coordinates": [ -87.802734, 13.752725 ] } }
{ "type": "Feature", "tippecanoe": { "layer": "2AFC9E38BEF01583918756770", "minzoom": 2, "maxzoom": 8 }, "properties": { "halo": 1.6, "title": "格兰科克勒文化", "fontsize": 12, "tyid": "304002", "oid": "103:1576575205655", "color": "#0056E7" }, "geometry": { "type": "Point", "coordinates": [ -80.507812, 8.581021 ] } }
{ "type": "Feature", "tippecanoe": { "layer": "2AFC9E38BEF01583918756770", "minzoom": 2, "maxzoom": 8 }, "properties": { "halo": 1.6, "title": "伊拉玛文化", "fontsize": 12, "tyid": "304002", "oid": "103:1576575205364", "color": "#0056E7" }, "geometry": { "type": "Point", "coordinates": [ -76.464844, 3.776559 ] } }
{ "type": "Feature", "tippecanoe": { "layer": "2AFC9E38BEF01583918756770", "minzoom": 2, "maxzoom": 8 }, "properties": { "halo": 1.6, "title": "科罗索文化", "fontsize": 12, "tyid": "304002", "oid": "103:1576575205850", "color": "#0056E7" }, "geometry": { "type": "Point", "coordinates": [ -66.533203, 18.229351 ] } }
{ "type": "Feature", "tippecanoe": { "layer": "2AFC9E38BEF01583918756770", "minzoom": 2, "maxzoom": 8 }, "properties": { "halo": 1.6, "title": "克鲁姆湾文化", "fontsize": 12, "tyid": "304002", "oid": "103:1576575205873", "color": "#0056E7" }, "geometry": { "type": "Point", "coordinates": [ -64.775391, 17.811456 ] } }
{ "type": "Feature", "tippecanoe": { "layer": "2AFC9E38BEF01583918756770", "minzoom": 2, "maxzoom": 8 }, "properties": { "halo": 1.6, "title": "萨拉杜文化", "fontsize": 12, "tyid": "304002", "oid": "103:1576575205839", "color": "#0056E7" }, "geometry": { "type": "Point", "coordinates": [ -61.699219, 16.214675 ] } }
{ "type": "Feature", "tippecanoe": { "layer": "2AFC9E38BEF01583918756770", "minzoom": 2, "maxzoom": 8 }, "properties": { "halo": 1.6, "title": "卡斯特罗文化", "fontsize": 12, "tyid": "304002", "oid": "103:1576575205518", "color": "#0056E7" }, "geometry": { "type": "Point", "coordinates": [ -4.394531, 43.068888 ] } }
{ "type": "Feature", "tippecanoe": { "layer": "2AFC9E38BEF01583918756770", "minzoom": 2, "maxzoom": 8 }, "properties": { "halo": 1.6, "title": "特罗莫吉人", "fontsize": 12, "tyid": "304001", "oid": "103:1576575205414", "color": "#0056E7" }, "geometry": { "type": "Point", "coordinates": [ -3.691406, 42.228517 ] } }
{ "type": "Feature", "tippecanoe": { "layer": "2AFC9E38BEF01583918756770", "minzoom": 2, "maxzoom": 8 }, "properties": { "halo": 1.6, "title": "奥特里冈人", "fontsize": 12, "tyid": "304001", "oid": "103:1576575205981", "color": "#0056E7" }, "geometry": { "type": "Point", "coordinates": [ -3.251953, 42.875964 ] } }
{ "type": "Feature", "tippecanoe": { "layer": "2AFC9E38BEF01583918756770", "minzoom": 2, "maxzoom": 8 }, "properties": { "halo": 1.6, "title": "卡斯蒂利人", "fontsize": 12, "tyid": "304001", "oid": "103:1576575205984", "color": "#0056E7" }, "geometry": { "type": "Point", "coordinates": [ -2.812500, 43.068888 ] } }
{ "type": "Feature", "tippecanoe": { "layer": "2AFC9E38BEF01583918756770", "minzoom": 2, "maxzoom": 8 }, "properties": { "halo": 1.6, "title": "瓦杜里人", "fontsize": 12, "tyid": "304001", "oid": "103:1576575205983", "color": "#0056E7" }, "geometry": { "type": "Point", "coordinates": [ -2.285156, 42.940339 ] } }
{ "type": "Feature", "tippecanoe": { "layer": "2AFC9E38BEF01583918756770", "minzoom": 2, "maxzoom": 8 }, "properties": { "halo": 1.6, "title": "伯罗内人", "fontsize": 12, "tyid": "304001", "oid": "103:1576575205544", "color": "#0056E7" }, "geometry": { "type": "Point", "coordinates": [ -2.548828, 42.293564 ] } }
{ "type": "Feature", "tippecanoe": { "layer": "2AFC9E38BEF01583918756770", "minzoom": 2, "maxzoom": 8 }, "properties": { "halo": 1.6, "title": "巴斯克人", "fontsize": 12, "tyid": "304001", "oid": "103:1576575205572", "color": "#0056E7" }, "geometry": { "type": "Point", "coordinates": [ -1.494141, 42.811522 ] } }
{ "type": "Feature", "tippecanoe": { "layer": "2AFC9E38BEF01583918756770", "minzoom": 2, "maxzoom": 8 }, "properties": { "halo": 1.6, "title": "伊塞塔尼人", "fontsize": 12, "tyid": "304001", "oid": "103:1576575205355", "color": "#0056E7" }, "geometry": { "type": "Point", "coordinates": [ -1.054688, 42.163403 ] } }
{ "type": "Feature", "tippecanoe": { "layer": "2AFC9E38BEF01583918756770", "minzoom": 2, "maxzoom": 8 }, "properties": { "halo": 1.6, "title": "关切人", "fontsize": 12, "tyid": "304001", "oid": "103:1576575205867", "color": "#0056E7" }, "geometry": { "type": "Point", "coordinates": [ -16.611328, 28.304381 ] } }
{ "type": "Feature", "tippecanoe": { "layer": "2AFC9E38BEF01583918756770", "minzoom": 2, "maxzoom": 8 }, "properties": { "halo": 1.6, "title": "图尔杜利奥皮迪尼人", "fontsize": 12, "tyid": "304001", "oid": "103:1576575205977", "color": "#0056E7" }, "geometry": { "type": "Point", "coordinates": [ -8.789062, 39.909736 ] } }
{ "type": "Feature", "tippecanoe": { "layer": "2AFC9E38BEF01583918756770", "minzoom": 2, "maxzoom": 8 }, "properties": { "halo": 1.6, "title": "伊利尔卡沃尼人", "fontsize": 12, "tyid": "304001", "oid": "103:1576575205357", "color": "#0056E7" }, "geometry": { "type": "Point", "coordinates": [ -0.263672, 40.847060 ] } }
{ "type": "Feature", "tippecanoe": { "layer": "2AFC9E38BEF01583918756770", "minzoom": 2, "maxzoom": 8 }, "properties": { "halo": 1.6, "title": "埃德塔尼人", "fontsize": 12, "tyid": "304001", "oid": "103:1576575205591", "color": "#0056E7" }, "geometry": { "type": "Point", "coordinates": [ -0.966797, 39.639538 ] } }
{ "type": "Feature", "tippecanoe": { "layer": "2AFC9E38BEF01583918756770", "minzoom": 2, "maxzoom": 8 }, "properties": { "halo": 1.6, "title": "康斯塔尼人", "fontsize": 12, "tyid": "304001", "oid": "103:1576575205510", "color": "#0056E7" }, "geometry": { "type": "Point", "coordinates": [ -0.878906, 38.685510 ] } }
{ "type": "Feature", "tippecanoe": { "layer": "2AFC9E38BEF01583918756770", "minzoom": 2, "maxzoom": 8 }, "properties": { "halo": 1.6, "title": "瓜纳加拉文化", "fontsize": 12, "tyid": "304002", "oid": "103:1576575205822", "color": "#0056E7" }, "geometry": { "type": "Point", "coordinates": [ -80.595703, -1.669686 ] } }
{ "type": "Feature", "tippecanoe": { "layer": "2AFC9E38BEF01583918756770", "minzoom": 2, "maxzoom": 8 }, "properties": { "halo": 1.6, "title": "巴伊亚文化", "fontsize": 12, "tyid": "304002", "oid": "103:1576575205567", "color": "#0056E7" }, "geometry": { "type": "Point", "coordinates": [ -80.068359, -0.527336 ] } }
{ "type": "Feature", "tippecanoe": { "layer": "2AFC9E38BEF01583918756770", "minzoom": 2, "maxzoom": 8 }, "properties": { "halo": 1.6, "title": "查文文化", "fontsize": 12, "tyid": "304002", "oid": "103:1576575205535", "color": "#0056E7" }, "geometry": { "type": "Point", "coordinates": [ -77.958984, -8.320212 ] } }
{ "type": "Feature", "tippecanoe": { "layer": "2AFC9E38BEF01583918756770", "minzoom": 2, "maxzoom": 8 }, "properties": { "halo": 1.6, "title": "卡斯马-赛钦文化", "fontsize": 12, "tyid": "304002", "oid": "103:1576575205798", "color": "#0056E7" }, "geometry": { "type": "Point", "coordinates": [ -77.958984, -9.622414 ] } }
{ "type": "Feature", "tippecanoe": { "layer": "2AFC9E38BEF01583918756770", "minzoom": 2, "maxzoom": 8 }, "properties": { "halo": 1.6, "title": "帕拉卡斯文化", "fontsize": 12, "tyid": "304002", "oid": "103:1576575205703", "color": "#0056E7" }, "geometry": { "type": "Point", "coordinates": [ -75.673828, -14.179186 ] } }
{ "type": "Feature", "tippecanoe": { "layer": "2AFC9E38BEF01583918756770", "minzoom": 2, "maxzoom": 8 }, "properties": { "halo": 1.6, "title": "豪什人", "fontsize": 12, "tyid": "304001", "oid": "103:1576575205767", "color": "#0056E7" }, "geometry": { "type": "Point", "coordinates": [ -65.917969, -54.724620 ] } }
{ "type": "Feature", "tippecanoe": { "layer": "2AFC9E38BEF01583918756770", "minzoom": 2, "maxzoom": 8 }, "properties": { "halo": 1.6, "title": "洪斯吕克-埃菲尔文化", "fontsize": 12, "tyid": "304002", "oid": "103:1576575205800", "color": "#0056E7" }, "geometry": { "type": "Point", "coordinates": [ 7.998047, 50.345460 ] } }
{ "type": "Feature", "tippecanoe": { "layer": "2AFC9E38BEF01583918756770", "minzoom": 2, "maxzoom": 8 }, "properties": { "halo": 1.6, "title": "拉塞塔尼人", "fontsize": 12, "tyid": "304001", "oid": "103:1576575205970", "color": "#0056E7" }, "geometry": { "type": "Point", "coordinates": [ 1.054688, 41.442726 ] } }
{ "type": "Feature", "tippecanoe": { "layer": "2AFC9E38BEF01583918756770", "minzoom": 2, "maxzoom": 8 }, "properties": { "halo": 1.6, "title": "英迪格人", "fontsize": 12, "tyid": "304001", "oid": "103:1576575205969", "color": "#0056E7" }, "geometry": { "type": "Point", "coordinates": [ 2.285156, 42.163403 ] } }
{ "type": "Feature", "tippecanoe": { "layer": "2AFC9E38BEF01583918756770", "minzoom": 2, "maxzoom": 8 }, "properties": { "halo": 1.8, "title": "马萨利亚", "fontsize": 12, "tyid": "304000", "oid": "103:1576575205809", "color": "#0056E7" }, "geometry": { "type": "Point", "coordinates": [ 5.449219, 43.325178 ] } }
{ "type": "Feature", "tippecanoe": { "layer": "2AFC9E38BEF01583918756770", "minzoom": 2, "maxzoom": 8 }, "properties": { "halo": 1.8, "title": "帕莱波利斯", "fontsize": 12, "tyid": "304000", "oid": "103:1576575205761", "color": "#0056E7" }, "geometry": { "type": "Point", "coordinates": [ 3.076172, 42.163403 ] } }
{ "type": "Feature", "tippecanoe": { "layer": "2AFC9E38BEF01583918756770", "minzoom": 2, "maxzoom": 8 }, "properties": { "halo": 1.6, "title": "卡莫尼卡人", "fontsize": 12, "tyid": "304001", "oid": "103:1576575205633", "color": "#0056E7" }, "geometry": { "type": "Point", "coordinates": [ 10.283203, 46.012224 ] } }
{ "type": "Feature", "tippecanoe": { "layer": "2AFC9E38BEF01583918756770", "minzoom": 2, "maxzoom": 8 }, "properties": { "halo": 1.8, "title": "摩诺伊科", "fontsize": 12, "tyid": "304000", "oid": "103:1576575205762", "color": "#0056E7" }, "geometry": { "type": "Point", "coordinates": [ 7.382812, 43.771094 ] } }
{ "type": "Feature", "tippecanoe": { "layer": "2AFC9E38BEF01583918756770", "minzoom": 2, "maxzoom": 8 }, "properties": { "halo": 1.8, "title": "罗马共和国", "fontsize": 12, "tyid": "304000", "oid": "103:1576575205486", "color": "#0056E7" }, "geometry": { "type": "Point", "coordinates": [ 12.392578, 41.836828 ] } }
{ "type": "Feature", "tippecanoe": { "layer": "2AFC9E38BEF01583918756770", "minzoom": 2, "maxzoom": 8 }, "properties": { "halo": 1.6, "title": "翁布里亚人", "fontsize": 12, "tyid": "304001", "oid": "103:1576575205612", "color": "#0056E7" }, "geometry": { "type": "Point", "coordinates": [ 12.832031, 42.811522 ] } }
{ "type": "Feature", "tippecanoe": { "layer": "2AFC9E38BEF01583918756770", "minzoom": 2, "maxzoom": 8 }, "properties": { "halo": 1.6, "title": "萨宾人", "fontsize": 12, "tyid": "304001", "oid": "103:1576575205743", "color": "#0056E7" }, "geometry": { "type": "Point", "coordinates": [ 12.656250, 42.098222 ] } }
{ "type": "Feature", "tippecanoe": { "layer": "2AFC9E38BEF01583918756770", "minzoom": 2, "maxzoom": 8 }, "properties": { "halo": 1.6, "title": "皮森特人", "fontsize": 12, "tyid": "304001", "oid": "103:1576575205449", "color": "#0056E7" }, "geometry": { "type": "Point", "coordinates": [ 13.535156, 43.004647 ] } }
{ "type": "Feature", "tippecanoe": { "layer": "2AFC9E38BEF01583918756770", "minzoom": 2, "maxzoom": 8 }, "properties": { "halo": 1.6, "title": "拉丁人", "fontsize": 12, "tyid": "304001", "oid": "103:1576575205712", "color": "#0056E7" }, "geometry": { "type": "Point", "coordinates": [ 12.919922, 41.640078 ] } }
{ "type": "Feature", "tippecanoe": { "layer": "2AFC9E38BEF01583918756770", "minzoom": 2, "maxzoom": 8 }, "properties": { "halo": 1.6, "title": "奥斯坎人", "fontsize": 12, "tyid": "304001", "oid": "103:1576575205581", "color": "#0056E7" }, "geometry": { "type": "Point", "coordinates": [ 13.447266, 41.442726 ] } }
{ "type": "Feature", "tippecanoe": { "layer": "2AFC9E38BEF01583918756770", "minzoom": 2, "maxzoom": 8 }, "properties": { "halo": 1.6, "title": "道尼人", "fontsize": 12, "tyid": "304001", "oid": "103:1576575205690", "color": "#0056E7" }, "geometry": { "type": "Point", "coordinates": [ 15.292969, 41.705729 ] } }
{ "type": "Feature", "tippecanoe": { "layer": "2AFC9E38BEF01583918756770", "minzoom": 2, "maxzoom": 8 }, "properties": { "halo": 1.6, "title": "佩乌克提伊人", "fontsize": 12, "tyid": "304001", "oid": "103:1576575205451", "color": "#0056E7" }, "geometry": { "type": "Point", "coordinates": [ 16.347656, 41.046217 ] } }
{ "type": "Feature", "tippecanoe": { "layer": "2AFC9E38BEF01583918756770", "minzoom": 2, "maxzoom": 8 }, "properties": { "halo": 1.6, "title": "培奥尼亚人", "fontsize": 12, "tyid": "304001", "oid": "103:1576575205700", "color": "#0056E7" }, "geometry": { "type": "Point", "coordinates": [ 22.148438, 41.771312 ] } }
{ "type": "Feature", "tippecanoe": { "layer": "2AFC9E38BEF01583918756770", "minzoom": 2, "maxzoom": 8 }, "properties": { "halo": 1.8, "title": "皮斯特罗斯", "fontsize": 12, "tyid": "304000", "oid": "103:1576575205757", "color": "#0056E7" }, "geometry": { "type": "Point", "coordinates": [ 23.994141, 42.293564 ] } }
{ "type": "Feature", "tippecanoe": { "layer": "2AFC9E38BEF01583918756770", "minzoom": 2, "maxzoom": 8 }, "properties": { "halo": 1.6, "title": "盖塔人", "fontsize": 12, "tyid": "304001", "oid": "103:1576575205662", "color": "#0056E7" }, "geometry": { "type": "Point", "coordinates": [ 26.806641, 44.465151 ] } }
{ "type": "Feature", "tippecanoe": { "layer": "2AFC9E38BEF01583918756770", "minzoom": 2, "maxzoom": 8 }, "properties": { "halo": 1.8, "title": "奥德索斯", "fontsize": 12, "tyid": "304000", "oid": "103:1576575205717", "color": "#0056E7" }, "geometry": { "type": "Point", "coordinates": [ 27.861328, 43.261206 ] } }
{ "type": "Feature", "tippecanoe": { "layer": "2AFC9E38BEF01583918756770", "minzoom": 2, "maxzoom": 8 }, "properties": { "halo": 1.8, "title": "安恰罗斯", "fontsize": 12, "tyid": "304000", "oid": "103:1576575205834", "color": "#0056E7" }, "geometry": { "type": "Point", "coordinates": [ 27.509766, 42.617791 ] } }
{ "type": "Feature", "tippecanoe": { "layer": "2AFC9E38BEF01583918756770", "minzoom": 2, "maxzoom": 8 }, "properties": { "halo": 1.8, "title": "梅森布里亚", "fontsize": 12, "tyid": "304000", "oid": "103:1576575205802", "color": "#0056E7" }, "geometry": { "type": "Point", "coordinates": [ 27.597656, 42.682435 ] } }
{ "type": "Feature", "tippecanoe": { "layer": "2AFC9E38BEF01583918756770", "minzoom": 2, "maxzoom": 8 }, "properties": { "halo": 1.8, "title": "阿波罗尼亚·潘提卡", "fontsize": 12, "tyid": "304000", "oid": "103:1576575205870", "color": "#0056E7" }, "geometry": { "type": "Point", "coordinates": [ 27.597656, 42.423457 ] } }
{ "type": "Feature", "tippecanoe": { "layer": "2AFC9E38BEF01583918756770", "minzoom": 2, "maxzoom": 8 }, "properties": { "halo": 1.8, "title": "尼康恩", "fontsize": 12, "tyid": "304000", "oid": "103:1576575205629", "color": "#0056E7" }, "geometry": { "type": "Point", "coordinates": [ 30.673828, 46.619261 ] } }
{ "type": "Feature", "tippecanoe": { "layer": "2AFC9E38BEF01583918756770", "minzoom": 2, "maxzoom": 8 }, "properties": { "halo": 1.8, "title": "提拉斯", "fontsize": 12, "tyid": "304000", "oid": "103:1576575205955", "color": "#0056E7" }, "geometry": { "type": "Point", "coordinates": [ 30.234375, 46.134170 ] } }
{ "type": "Feature", "tippecanoe": { "layer": "2AFC9E38BEF01583918756770", "minzoom": 2, "maxzoom": 8 }, "properties": { "halo": 1.8, "title": "敖德萨", "fontsize": 12, "tyid": "304000", "oid": "103:1576575205869", "color": "#0056E7" }, "geometry": { "type": "Point", "coordinates": [ 30.585938, 46.498392 ] } }
{ "type": "Feature", "tippecanoe": { "layer": "2AFC9E38BEF01583918756770", "minzoom": 2, "maxzoom": 8 }, "properties": { "halo": 1.6, "title": "奥里维亚", "fontsize": 12, "tyid": "304002", "oid": "103:1576575205889", "color": "#0056E7" }, "geometry": { "type": "Point", "coordinates": [ 31.816406, 46.679594 ] } }
{ "type": "Feature", "tippecanoe": { "layer": "2AFC9E38BEF01583918756770", "minzoom": 2, "maxzoom": 8 }, "properties": { "halo": 1.8, "title": "克尔柯特", "fontsize": 12, "tyid": "304000", "oid": "103:1576575205875", "color": "#0056E7" }, "geometry": { "type": "Point", "coordinates": [ 33.398438, 45.274886 ] } }
{ "type": "Feature", "tippecanoe": { "layer": "2AFC9E38BEF01583918756770", "minzoom": 2, "maxzoom": 8 }, "properties": { "halo": 1.8, "title": "希斯特里亚", "fontsize": 12, "tyid": "304000", "oid": "103:1576575205958", "color": "#0056E7" }, "geometry": { "type": "Point", "coordinates": [ 28.740234, 44.527843 ] } }
{ "type": "Feature", "tippecanoe": { "layer": "2AFC9E38BEF01583918756770", "minzoom": 2, "maxzoom": 8 }, "properties": { "halo": 1.8, "title": "托米斯", "fontsize": 12, "tyid": "304000", "oid": "103:1576575205622", "color": "#0056E7" }, "geometry": { "type": "Point", "coordinates": [ 28.476562, 44.213710 ] } }
{ "type": "Feature", "tippecanoe": { "layer": "2AFC9E38BEF01583918756770", "minzoom": 2, "maxzoom": 8 }, "properties": { "halo": 1.8, "title": "埃吉索斯", "fontsize": 12, "tyid": "304000", "oid": "103:1576575205787", "color": "#0056E7" }, "geometry": { "type": "Point", "coordinates": [ 29.355469, 45.026950 ] } }
{ "type": "Feature", "tippecanoe": { "layer": "2AFC9E38BEF01583918756770", "minzoom": 2, "maxzoom": 8 }, "properties": { "halo": 1.8, "title": "卡拉提斯", "fontsize": 12, "tyid": "304000", "oid": "103:1576575205959", "color": "#0056E7" }, "geometry": { "type": "Point", "coordinates": [ 28.564453, 43.834527 ] } }
{ "type": "Feature", "tippecanoe": { "layer": "2AFC9E38BEF01583918756770", "minzoom": 2, "maxzoom": 8 }, "properties": { "halo": 1.8, "title": "迪奥尼索波利斯", "fontsize": 12, "tyid": "304000", "oid": "103:1576575205831", "color": "#0056E7" }, "geometry": { "type": "Point", "coordinates": [ 28.125000, 43.452919 ] } }
{ "type": "Feature", "tippecanoe": { "layer": "2AFC9E38BEF01583918756770", "minzoom": 2, "maxzoom": 8 }, "properties": { "halo": 1.8, "title": "拜佐恩", "fontsize": 12, "tyid": "304000", "oid": "103:1576575205777", "color": "#0056E7" }, "geometry": { "type": "Point", "coordinates": [ 28.300781, 43.452919 ] } }
{ "type": "Feature", "tippecanoe": { "layer": "2AFC9E38BEF01583918756770", "minzoom": 2, "maxzoom": 8 }, "properties": { "halo": 1.8, "title": "拜占庭", "fontsize": 12, "tyid": "304000", "oid": "103:1576575205781", "color": "#0056E7" }, "geometry": { "type": "Point", "coordinates": [ 28.740234, 41.178654 ] } }
{ "type": "Feature", "tippecanoe": { "layer": "2AFC9E38BEF01583918756770", "minzoom": 2, "maxzoom": 8 }, "properties": { "halo": 1.8, "title": "克森尼索", "fontsize": 12, "tyid": "304000", "oid": "103:1576575205953", "color": "#0056E7" }, "geometry": { "type": "Point", "coordinates": [ 33.486328, 44.590467 ] } }
{ "type": "Feature", "tippecanoe": { "layer": "2AFC9E38BEF01583918756770", "minzoom": 2, "maxzoom": 8 }, "properties": { "halo": 1.8, "title": "博斯普鲁斯王国", "fontsize": 12, "tyid": "304000", "oid": "103:1576575205950", "color": "#0056E7" }, "geometry": { "type": "Point", "coordinates": [ 36.298828, 45.274886 ] } }
{ "type": "Feature", "tippecanoe": { "layer": "2AFC9E38BEF01583918756770", "minzoom": 2, "maxzoom": 8 }, "properties": { "halo": 1.6, "title": "杜林人", "fontsize": 12, "tyid": "304001", "oid": "103:1576575205825", "color": "#0056E7" }, "geometry": { "type": "Point", "coordinates": [ 34.453125, 44.964798 ] } }
{ "type": "Feature", "tippecanoe": { "layer": "2AFC9E38BEF01583918756770", "minzoom": 2, "maxzoom": 8 }, "properties": { "halo": 1.8, "title": "西奥多西亚", "fontsize": 12, "tyid": "304000", "oid": "103:1576575205860", "color": "#0056E7" }, "geometry": { "type": "Point", "coordinates": [ 35.332031, 45.089036 ] } }
{ "type": "Feature", "tippecanoe": { "layer": "2AFC9E38BEF01583918756770", "minzoom": 2, "maxzoom": 8 }, "properties": { "halo": 1.8, "title": "戈尔吉皮亚", "fontsize": 12, "tyid": "304000", "oid": "103:1576575205823", "color": "#0056E7" }, "geometry": { "type": "Point", "coordinates": [ 37.265625, 44.902578 ] } }
{ "type": "Feature", "tippecanoe": { "layer": "2AFC9E38BEF01583918756770", "minzoom": 2, "maxzoom": 8 }, "properties": { "halo": 1.8, "title": "辛迪卡", "fontsize": 12, "tyid": "304000", "oid": "103:1576575205367", "color": "#0056E7" }, "geometry": { "type": "Point", "coordinates": [ 38.408203, 44.777936 ] } }
{ "type": "Feature", "tippecanoe": { "layer": "2AFC9E38BEF01583918756770", "minzoom": 2, "maxzoom": 8 }, "properties": { "halo": 1.6, "title": "卢卡尼亚人", "fontsize": 12, "tyid": "304001", "oid": "103:1576575205490", "color": "#0056E7" }, "geometry": { "type": "Point", "coordinates": [ 15.908203, 40.313043 ] } }
{ "type": "Feature", "tippecanoe": { "layer": "2AFC9E38BEF01583918756770", "minzoom": 2, "maxzoom": 8 }, "properties": { "halo": 1.6, "title": "布鲁提亚人", "fontsize": 12, "tyid": "304001", "oid": "103:1576575205720", "color": "#0056E7" }, "geometry": { "type": "Point", "coordinates": [ 16.259766, 39.436193 ] } }
{ "type": "Feature", "tippecanoe": { "layer": "2AFC9E38BEF01583918756770", "minzoom": 2, "maxzoom": 8 }, "properties": { "halo": 1.6, "title": "西古里人", "fontsize": 12, "tyid": "304001", "oid": "103:1576575205861", "color": "#0056E7" }, "geometry": { "type": "Point", "coordinates": [ 14.765625, 37.370157 ] } }
{ "type": "Feature", "tippecanoe": { "layer": "2AFC9E38BEF01583918756770", "minzoom": 2, "maxzoom": 8 }, "properties": { "halo": 1.6, "title": "梅萨皮伊人", "fontsize": 12, "tyid": "304001", "oid": "103:1576575205806", "color": "#0056E7" }, "geometry": { "type": "Point", "coordinates": [ 17.490234, 40.647304 ] } }
{ "type": "Feature", "tippecanoe": { "layer": "2AFC9E38BEF01583918756770", "minzoom": 2, "maxzoom": 8 }, "properties": { "halo": 1.6, "title": "查乌内斯人", "fontsize": 12, "tyid": "304001", "oid": "103:1576575205538", "color": "#0056E7" }, "geometry": { "type": "Point", "coordinates": [ 20.126953, 40.713956 ] } }
{ "type": "Feature", "tippecanoe": { "layer": "2AFC9E38BEF01583918756770", "minzoom": 2, "maxzoom": 8 }, "properties": { "halo": 1.6, "title": "莫洛西人", "fontsize": 12, "tyid": "304001", "oid": "103:1576575205454", "color": "#0056E7" }, "geometry": { "type": "Point", "coordinates": [ 20.478516, 39.977120 ] } }
{ "type": "Feature", "tippecanoe": { "layer": "2AFC9E38BEF01583918756770", "minzoom": 2, "maxzoom": 8 }, "properties": { "halo": 1.6, "title": "塞斯普罗蒂人", "fontsize": 12, "tyid": "304001", "oid": "103:1576575205738", "color": "#0056E7" }, "geometry": { "type": "Point", "coordinates": [ 20.917969, 39.436193 ] } }
{ "type": "Feature", "tippecanoe": { "layer": "2AFC9E38BEF01583918756770", "minzoom": 2, "maxzoom": 8 }, "properties": { "halo": 1.8, "title": "色萨利同盟", "fontsize": 12, "tyid": "304000", "oid": "103:1576575205428", "color": "#0056E7" }, "geometry": { "type": "Point", "coordinates": [ 22.236328, 39.504041 ] } }
{ "type": "Feature", "tippecanoe": { "layer": "2AFC9E38BEF01583918756770", "minzoom": 2, "maxzoom": 8 }, "properties": { "halo": 1.8, "title": "阿卡尔纳尼亚同盟", "fontsize": 12, "tyid": "304000", "oid": "103:1576575205603", "color": "#0056E7" }, "geometry": { "type": "Point", "coordinates": [ 21.005859, 38.685510 ] } }
{ "type": "Feature", "tippecanoe": { "layer": "2AFC9E38BEF01583918756770", "minzoom": 2, "maxzoom": 8 }, "properties": { "halo": 1.8, "title": "埃托利亚同盟", "fontsize": 12, "tyid": "304000", "oid": "103:1576575205962", "color": "#0056E7" }, "geometry": { "type": "Point", "coordinates": [ 21.533203, 38.685510 ] } }
{ "type": "Feature", "tippecanoe": { "layer": "2AFC9E38BEF01583918756770", "minzoom": 2, "maxzoom": 8 }, "properties": { "halo": 1.8, "title": "德尔菲-近邻同盟", "fontsize": 12, "tyid": "304000", "oid": "103:1576575205883", "color": "#0056E7" }, "geometry": { "type": "Point", "coordinates": [ 22.060547, 38.822591 ] } }
{ "type": "Feature", "tippecanoe": { "layer": "2AFC9E38BEF01583918756770", "minzoom": 2, "maxzoom": 8 }, "properties": { "halo": 1.8, "title": "阿凯亚第一同盟", "fontsize": 12, "tyid": "304000", "oid": "103:1576575205600", "color": "#0056E7" }, "geometry": { "type": "Point", "coordinates": [ 21.972656, 38.134557 ] } }
{ "type": "Feature", "tippecanoe": { "layer": "2AFC9E38BEF01583918756770", "minzoom": 2, "maxzoom": 8 }, "properties": { "halo": 1.8, "title": "昔兰尼共和国", "fontsize": 12, "tyid": "304000", "oid": "103:1576575205376", "color": "#0056E7" }, "geometry": { "type": "Point", "coordinates": [ 21.533203, 32.546813 ] } }
{ "type": "Feature", "tippecanoe": { "layer": "2AFC9E38BEF01583918756770", "minzoom": 2, "maxzoom": 8 }, "properties": { "halo": 1.8, "title": "哈尔基季基同盟", "fontsize": 12, "tyid": "304000", "oid": "103:1576575205644", "color": "#0056E7" }, "geometry": { "type": "Point", "coordinates": [ 23.378906, 40.446947 ] } }
{ "type": "Feature", "tippecanoe": { "layer": "2AFC9E38BEF01583918756770", "minzoom": 2, "maxzoom": 8 }, "properties": { "halo": 1.8, "title": "彼奥提亚同盟", "fontsize": 12, "tyid": "304000", "oid": "103:1576575205553", "color": "#0056E7" }, "geometry": { "type": "Point", "coordinates": [ 23.115234, 38.410558 ] } }
{ "type": "Feature", "tippecanoe": { "layer": "2AFC9E38BEF01583918756770", "minzoom": 2, "maxzoom": 8 }, "properties": { "halo": 1.8, "title": "雅典", "fontsize": 12, "tyid": "304000", "oid": "103:1576575205370", "color": "#0056E7" }, "geometry": { "type": "Point", "coordinates": [ 23.818359, 38.065392 ] } }
{ "type": "Feature", "tippecanoe": { "layer": "2AFC9E38BEF01583918756770", "minzoom": 2, "maxzoom": 8 }, "properties": { "halo": 1.8, "title": "阿尔戈斯", "fontsize": 12, "tyid": "304000", "oid": "103:1576575205790", "color": "#0056E7" }, "geometry": { "type": "Point", "coordinates": [ 22.675781, 37.718590 ] } }
{ "type": "Feature", "tippecanoe": { "layer": "2AFC9E38BEF01583918756770", "minzoom": 2, "maxzoom": 8 }, "properties": { "halo": 1.8, "title": "安德罗斯", "fontsize": 12, "tyid": "304000", "oid": "103:1576575205844", "color": "#0056E7" }, "geometry": { "type": "Point", "coordinates": [ 24.785156, 37.926868 ] } }
{ "type": "Feature", "tippecanoe": { "layer": "2AFC9E38BEF01583918756770", "minzoom": 2, "maxzoom": 8 }, "properties": { "halo": 1.8, "title": "亚扪王国", "fontsize": 12, "tyid": "304000", "oid": "103:1576575205921", "color": "#0056E7" }, "geometry": { "type": "Point", "coordinates": [ 36.123047, 32.175612 ] } }
{ "type": "Feature", "tippecanoe": { "layer": "2AFC9E38BEF01583918756770", "minzoom": 2, "maxzoom": 8 }, "properties": { "halo": 1.8, "title": "以东王国", "fontsize": 12, "tyid": "304000", "oid": "103:1576575205723", "color": "#0056E7" }, "geometry": { "type": "Point", "coordinates": [ 35.332031, 30.448674 ] } }
{ "type": "Feature", "tippecanoe": { "layer": "2AFC9E38BEF01583918756770", "minzoom": 2, "maxzoom": 8 }, "properties": { "halo": 1.8, "title": "焉耆国", "fontsize": 12, "tyid": "304000", "oid": "103:1576575205797", "color": "#0056E7" }, "geometry": { "type": "Point", "coordinates": [ 86.308594, 42.032974 ] } }
{ "type": "Feature", "tippecanoe": { "layer": "2AFC9E38BEF01583918756770", "minzoom": 2, "maxzoom": 8 }, "properties": { "halo": 1.8, "title": "莎车国", "fontsize": 12, "tyid": "304000", "oid": "103:1576575205796", "color": "#0056E7" }, "geometry": { "type": "Point", "coordinates": [ 77.343750, 38.685510 ] } }
{ "type": "Feature", "tippecanoe": { "layer": "2AFC9E38BEF01583918756770", "minzoom": 2, "maxzoom": 8 }, "properties": { "halo": 1.6, "title": "流水墓地文化", "fontsize": 12, "tyid": "304002", "oid": "103:1576575205813", "color": "#0056E7" }, "geometry": { "type": "Point", "coordinates": [ 81.562500, 36.456636 ] } }
{ "type": "Feature", "tippecanoe": { "layer": "2AFC9E38BEF01583918756770", "minzoom": 2, "maxzoom": 8 }, "properties": { "halo": 1.8, "title": "且末国", "fontsize": 12, "tyid": "304000", "oid": "103:1576575205755", "color": "#0056E7" }, "geometry": { "type": "Point", "coordinates": [ 85.605469, 38.272689 ] } }
{ "type": "Feature", "tippecanoe": { "layer": "2AFC9E38BEF01583918756770", "minzoom": 2, "maxzoom": 8 }, "properties": { "halo": 1.8, "title": "小宛国", "fontsize": 12, "tyid": "304000", "oid": "103:1576575205373", "color": "#0056E7" }, "geometry": { "type": "Point", "coordinates": [ 85.429688, 37.579413 ] } }
{ "type": "Feature", "tippecanoe": { "layer": "2AFC9E38BEF01583918756770", "minzoom": 2, "maxzoom": 8 }, "properties": { "halo": 1.8, "title": "豲戎", "fontsize": 12, "tyid": "304000", "oid": "103:1576575205682", "color": "#0056E7" }, "geometry": { "type": "Point", "coordinates": [ 104.501953, 34.741612 ] } }
{ "type": "Feature", "tippecanoe": { "layer": "2AFC9E38BEF01583918756770", "minzoom": 2, "maxzoom": 8 }, "properties": { "halo": 1.8, "title": "昔阝", "fontsize": 12, "tyid": "304000", "oid": "103:1576575205340", "color": "#0056E7" }, "geometry": { "type": "Point", "coordinates": [ 106.347656, 32.472695 ] } }
{ "type": "Feature", "tippecanoe": { "layer": "2AFC9E38BEF01583918756770", "minzoom": 2, "maxzoom": 8 }, "properties": { "halo": 1.8, "title": "晋", "fontsize": 12, "tyid": "304000", "oid": "103:1576575205681", "color": "#0056E7" }, "geometry": { "type": "Point", "coordinates": [ 111.357422, 35.746512 ] } }
{ "type": "Feature", "tippecanoe": { "layer": "2AFC9E38BEF01583918756770", "minzoom": 2, "maxzoom": 8 }, "properties": { "halo": 1.8, "title": "冉駹羌", "fontsize": 12, "tyid": "304000", "oid": "103:1576575205871", "color": "#0056E7" }, "geometry": { "type": "Point", "coordinates": [ 103.623047, 31.503629 ] } }
{ "type": "Feature", "tippecanoe": { "layer": "2AFC9E38BEF01583918756770", "minzoom": 2, "maxzoom": 8 }, "properties": { "halo": 1.6, "title": "筰都", "fontsize": 12, "tyid": "304001", "oid": "103:1576575205342", "color": "#0056E7" }, "geometry": { "type": "Point", "coordinates": [ 102.568359, 29.228890 ] } }
{ "type": "Feature", "tippecanoe": { "layer": "2AFC9E38BEF01583918756770", "minzoom": 2, "maxzoom": 8 }, "properties": { "halo": 1.6, "title": "徙", "fontsize": 12, "tyid": "304001", "oid": "103:1576575205746", "color": "#0056E7" }, "geometry": { "type": "Point", "coordinates": [ 102.216797, 28.613459 ] } }
{ "type": "Feature", "tippecanoe": { "layer": "2AFC9E38BEF01583918756770", "minzoom": 2, "maxzoom": 8 }, "properties": { "halo": 1.8, "title": "平周", "fontsize": 12, "tyid": "304000", "oid": "103:1576575205756", "color": "#0056E7" }, "geometry": { "type": "Point", "coordinates": [ 105.996094, 31.952162 ] } }
{ "type": "Feature", "tippecanoe": { "layer": "2AFC9E38BEF01583918756770", "minzoom": 2, "maxzoom": 8 }, "properties": { "halo": 1.8, "title": "充", "fontsize": 12, "tyid": "304000", "oid": "103:1576575205882", "color": "#0056E7" }, "geometry": { "type": "Point", "coordinates": [ 105.996094, 31.128199 ] } }
{ "type": "Feature", "tippecanoe": { "layer": "2AFC9E38BEF01583918756770", "minzoom": 2, "maxzoom": 8 }, "properties": { "halo": 1.6, "title": "靡莫", "fontsize": 12, "tyid": "304001", "oid": "103:1576575205896", "color": "#0056E7" }, "geometry": { "type": "Point", "coordinates": [ 103.886719, 25.799891 ] } }
{ "type": "Feature", "tippecanoe": { "layer": "2AFC9E38BEF01583918756770", "minzoom": 2, "maxzoom": 8 }, "properties": { "halo": 1.6, "title": "劳浸", "fontsize": 12, "tyid": "304001", "oid": "103:1576575205836", "color": "#0056E7" }, "geometry": { "type": "Point", "coordinates": [ 103.710938, 24.926295 ] } }
{ "type": "Feature", "tippecanoe": { "layer": "2AFC9E38BEF01583918756770", "minzoom": 2, "maxzoom": 8 }, "properties": { "halo": 1.6, "title": "石坛文化", "fontsize": 12, "tyid": "304002", "oid": "103:1576575205793", "color": "#0056E7" }, "geometry": { "type": "Point", "coordinates": [ 103.359375, 19.559790 ] } }
{ "type": "Feature", "tippecanoe": { "layer": "2AFC9E38BEF01583918756770", "minzoom": 2, "maxzoom": 8 }, "properties": { "halo": 1.6, "title": "东山文化", "fontsize": 12, "tyid": "304002", "oid": "103:1576575205827", "color": "#0056E7" }, "geometry": { "type": "Point", "coordinates": [ 105.292969, 21.698265 ] } }
{ "type": "Feature", "tippecanoe": { "layer": "2AFC9E38BEF01583918756770", "minzoom": 2, "maxzoom": 8 }, "properties": { "halo": 1.8, "title": "东周", "fontsize": 12, "tyid": "304000", "oid": "103:1576575205849", "color": "#0056E7" }, "geometry": { "type": "Point", "coordinates": [ 112.587891, 34.741612 ] } }
{ "type": "Feature", "tippecanoe": { "layer": "2AFC9E38BEF01583918756770", "minzoom": 2, "maxzoom": 8 }, "properties": { "halo": 1.8, "title": "郑", "fontsize": 12, "tyid": "304000", "oid": "103:1576575205346", "color": "#0056E7" }, "geometry": { "type": "Point", "coordinates": [ 113.730469, 34.379713 ] } }
{ "type": "Feature", "tippecanoe": { "layer": "2AFC9E38BEF01583918756770", "minzoom": 2, "maxzoom": 8 }, "properties": { "halo": 1.8, "title": "卫", "fontsize": 12, "tyid": "304000", "oid": "103:1576575205397", "color": "#0056E7" }, "geometry": { "type": "Point", "coordinates": [ 114.785156, 35.532226 ] } }
{ "type": "Feature", "tippecanoe": { "layer": "2AFC9E38BEF01583918756770", "minzoom": 2, "maxzoom": 8 }, "properties": { "halo": 1.8, "title": "任", "fontsize": 12, "tyid": "304000", "oid": "103:1576575205440", "color": "#0056E7" }, "geometry": { "type": "Point", "coordinates": [ 116.630859, 35.389050 ] } }
{ "type": "Feature", "tippecanoe": { "layer": "2AFC9E38BEF01583918756770", "minzoom": 2, "maxzoom": 8 }, "properties": { "halo": 1.8, "title": "鲁", "fontsize": 12, "tyid": "304000", "oid": "103:1576575205481", "color": "#0056E7" }, "geometry": { "type": "Point", "coordinates": [ 117.246094, 35.603719 ] } }
{ "type": "Feature", "tippecanoe": { "layer": "2AFC9E38BEF01583918756770", "minzoom": 2, "maxzoom": 8 }, "properties": { "halo": 1.8, "title": "邾", "fontsize": 12, "tyid": "304000", "oid": "103:1576575205607", "color": "#0056E7" }, "geometry": { "type": "Point", "coordinates": [ 116.894531, 35.389050 ] } }
{ "type": "Feature", "tippecanoe": { "layer": "2AFC9E38BEF01583918756770", "minzoom": 2, "maxzoom": 8 }, "properties": { "halo": 1.8, "title": "小邾", "fontsize": 12, "tyid": "304000", "oid": "103:1576575205874", "color": "#0056E7" }, "geometry": { "type": "Point", "coordinates": [ 117.421875, 35.173808 ] } }
{ "type": "Feature", "tippecanoe": { "layer": "2AFC9E38BEF01583918756770", "minzoom": 2, "maxzoom": 8 }, "properties": { "halo": 1.8, "title": "费", "fontsize": 12, "tyid": "304000", "oid": "103:1576575205770", "color": "#0056E7" }, "geometry": { "type": "Point", "coordinates": [ 117.949219, 35.029996 ] } }
{ "type": "Feature", "tippecanoe": { "layer": "2AFC9E38BEF01583918756770", "minzoom": 2, "maxzoom": 8 }, "properties": { "halo": 1.8, "title": "邳", "fontsize": 12, "tyid": "304000", "oid": "103:1576575205450", "color": "#0056E7" }, "geometry": { "type": "Point", "coordinates": [ 117.861328, 34.016242 ] } }
{ "type": "Feature", "tippecanoe": { "layer": "2AFC9E38BEF01583918756770", "minzoom": 2, "maxzoom": 8 }, "properties": { "halo": 1.6, "title": "屠何", "fontsize": 12, "tyid": "304001", "oid": "103:1576575205409", "color": "#0056E7" }, "geometry": { "type": "Point", "coordinates": [ 120.322266, 40.847060 ] } }
{ "type": "Feature", "tippecanoe": { "layer": "2AFC9E38BEF01583918756770", "minzoom": 2, "maxzoom": 8 }, "properties": { "halo": 1.8, "title": "桐", "fontsize": 12, "tyid": "304000", "oid": "103:1576575205728", "color": "#0056E7" }, "geometry": { "type": "Point", "coordinates": [ 116.718750, 30.977609 ] } }
{ "type": "Feature", "tippecanoe": { "layer": "2AFC9E38BEF01583918756770", "minzoom": 2, "maxzoom": 8 }, "properties": { "halo": 1.8, "title": "缚娄", "fontsize": 12, "tyid": "304000", "oid": "103:1576575205934", "color": "#0056E7" }, "geometry": { "type": "Point", "coordinates": [ 114.345703, 23.160563 ] } }
{ "type": "Feature", "tippecanoe": { "layer": "2AFC9E38BEF01583918756770", "minzoom": 2, "maxzoom": 8 }, "properties": { "halo": 1.6, "title": "营埔文化", "fontsize": 12, "tyid": "304002", "oid": "103:1576575206001", "color": "#0056E7" }, "geometry": { "type": "Point", "coordinates": [ 120.673828, 24.367114 ] } }
{ "type": "Feature", "tippecanoe": { "layer": "2AFC9E38BEF01583918756770", "minzoom": 2, "maxzoom": 8 }, "properties": { "halo": 1.6, "title": "卑南文化", "fontsize": 12, "tyid": "304002", "oid": "103:1576575206000", "color": "#0056E7" }, "geometry": { "type": "Point", "coordinates": [ 120.761719, 22.674847 ] } }
{ "type": "Feature", "tippecanoe": { "layer": "2AFC9E38BEF01583918756770", "minzoom": 2, "maxzoom": 8 }, "properties": { "halo": 1.6, "title": "圆山文化", "fontsize": 12, "tyid": "304002", "oid": "103:1576575206003", "color": "#0056E7" }, "geometry": { "type": "Point", "coordinates": [ 121.289062, 24.926295 ] } }
{ "type": "Feature", "tippecanoe": { "layer": "2AFC9E38BEF01583918756770", "minzoom": 2, "maxzoom": 8 }, "properties": { "halo": 1.6, "title": "麒麟文化", "fontsize": 12, "tyid": "304002", "oid": "103:1576575206005", "color": "#0056E7" }, "geometry": { "type": "Point", "coordinates": [ 121.289062, 23.563987 ] } }
{ "type": "Feature", "tippecanoe": { "layer": "2AFC9E38BEF01583918756770", "minzoom": 2, "maxzoom": 8 }, "properties": { "halo": 1.6, "title": "托雷斯海峡岛民", "fontsize": 12, "tyid": "304001", "oid": "103:1576575205620", "color": "#0056E7" }, "geometry": { "type": "Point", "coordinates": [ 142.382812, -11.264612 ] } }
{ "type": "Feature", "tippecanoe": { "layer": "2AFCA0BEE0F01583918756754", "minzoom": 2, "maxzoom": 8 }, "properties": { "halo": 0.8, "title": "古白令海文化", "fontsize": 12, "tyid": "304002", "oid": "103:1576575205685", "color": "#262626" }, "geometry": { "type": "Point", "coordinates": [ -170.332031, 63.470145 ] } }
{ "type": "Feature", "tippecanoe": { "layer": "2AFCA0BEE0F01583918756754", "minzoom": 2, "maxzoom": 8 }, "properties": { "halo": 0.8, "title": "查普卡洛文化", "fontsize": 12, "tyid": "304002", "oid": "103:1576575205695", "color": "#262626" }, "geometry": { "type": "Point", "coordinates": [ -99.931641, 20.303418 ] } }
{ "type": "Feature", "tippecanoe": { "layer": "2AFCA0BEE0F01583918756754", "minzoom": 2, "maxzoom": 8 }, "properties": { "halo": 0.8, "title": "米斯特克人", "fontsize": 12, "tyid": "304001", "oid": "103:1576575205673", "color": "#262626" }, "geometry": { "type": "Point", "coordinates": [ -98.349609, 17.224758 ] } }
{ "type": "Feature", "tippecanoe": { "layer": "2AFCA0BEE0F01583918756754", "minzoom": 2, "maxzoom": 8 }, "properties": { "halo": 0.8, "title": "特里克人", "fontsize": 12, "tyid": "304001", "oid": "103:1576575205416", "color": "#262626" }, "geometry": { "type": "Point", "coordinates": [ -97.294922, 17.644022 ] } }
{ "type": "Feature", "tippecanoe": { "layer": "2AFCA0BEE0F01583918756754", "minzoom": 2, "maxzoom": 8 }, "properties": { "halo": 0.8, "title": "麦克斯人", "fontsize": 12, "tyid": "304001", "oid": "103:1576575205472", "color": "#262626" }, "geometry": { "type": "Point", "coordinates": [ -96.328125, 18.062312 ] } }
{ "type": "Feature", "tippecanoe": { "layer": "2AFCA0BEE0F01583918756754", "minzoom": 2, "maxzoom": 8 }, "properties": { "halo": 0.8, "title": "祖赫人", "fontsize": 12, "tyid": "304001", "oid": "103:1576575205721", "color": "#262626" }, "geometry": { "type": "Point", "coordinates": [ -92.021484, 16.045813 ] } }
{ "type": "Feature", "tippecanoe": { "layer": "2AFCA0BEE0F01583918756754", "minzoom": 2, "maxzoom": 8 }, "properties": { "halo": 0.8, "title": "基切人", "fontsize": 12, "tyid": "304001", "oid": "103:1576575205765", "color": "#262626" }, "geometry": { "type": "Point", "coordinates": [ -90.966797, 15.029686 ] } }
{ "type": "Feature", "tippecanoe": { "layer": "2AFCA0BEE0F01583918756754", "minzoom": 2, "maxzoom": 8 }, "properties": { "halo": 0.8, "title": "阿尔托山文化", "fontsize": 12, "tyid": "304002", "oid": "103:1576575205718", "color": "#262626" }, "geometry": { "type": "Point", "coordinates": [ -91.054688, 14.349548 ] } }
{ "type": "Feature", "tippecanoe": { "layer": "2AFCA0BEE0F01583918756754", "minzoom": 2, "maxzoom": 8 }, "properties": { "halo": 0.8, "title": "玛纳索塔文化", "fontsize": 12, "tyid": "304002", "oid": "103:1576575205853", "color": "#262626" }, "geometry": { "type": "Point", "coordinates": [ -82.441406, 27.683528 ] } }
{ "type": "Feature", "tippecanoe": { "layer": "2AFCA0BEE0F01583918756754", "minzoom": 2, "maxzoom": 8 }, "properties": { "halo": 0.8, "title": "卡卢萨人", "fontsize": 12, "tyid": "304001", "oid": "103:1576575205514", "color": "#262626" }, "geometry": { "type": "Point", "coordinates": [ -81.650391, 27.137368 ] } }
{ "type": "Feature", "tippecanoe": { "layer": "2AFCA0BEE0F01583918756754", "minzoom": 2, "maxzoom": 8 }, "properties": { "halo": 0.8, "title": "圣约翰文化", "fontsize": 12, "tyid": "304002", "oid": "103:1576575205856", "color": "#262626" }, "geometry": { "type": "Point", "coordinates": [ -81.474609, 29.382175 ] } }
{ "type": "Feature", "tippecanoe": { "layer": "2AFCA0BEE0F01583918756754", "minzoom": 2, "maxzoom": 8 }, "properties": { "halo": 0.8, "title": "贝尔格莱德文化", "fontsize": 12, "tyid": "304002", "oid": "103:1576575205556", "color": "#262626" }, "geometry": { "type": "Point", "coordinates": [ -80.859375, 27.449790 ] } }
{ "type": "Feature", "tippecanoe": { "layer": "2AFCA0BEE0F01583918756754", "minzoom": 2, "maxzoom": 8 }, "properties": { "halo": 0.8, "title": "格莱兹文化", "fontsize": 12, "tyid": "304002", "oid": "103:1576575205686", "color": "#262626" }, "geometry": { "type": "Point", "coordinates": [ -80.771484, 26.037042 ] } }
{ "type": "Feature", "tippecanoe": { "layer": "2AFCA0BEE0F01583918756754", "minzoom": 2, "maxzoom": 8 }, "properties": { "halo": 0.8, "title": "雷卡人", "fontsize": 12, "tyid": "304001", "oid": "103:1576575205503", "color": "#262626" }, "geometry": { "type": "Point", "coordinates": [ -87.802734, 13.752725 ] } }
{ "type": "Feature", "tippecanoe": { "layer": "2AFCA0BEE0F01583918756754", "minzoom": 2, "maxzoom": 8 }, "properties": { "halo": 0.8, "title": "格兰科克勒文化", "fontsize": 12, "tyid": "304002", "oid": "103:1576575205655", "color": "#262626" }, "geometry": { "type": "Point", "coordinates": [ -80.507812, 8.581021 ] } }
{ "type": "Feature", "tippecanoe": { "layer": "2AFCA0BEE0F01583918756754", "minzoom": 2, "maxzoom": 8 }, "properties": { "halo": 0.8, "title": "伊拉玛文化", "fontsize": 12, "tyid": "304002", "oid": "103:1576575205364", "color": "#262626" }, "geometry": { "type": "Point", "coordinates": [ -76.464844, 3.776559 ] } }
{ "type": "Feature", "tippecanoe": { "layer": "2AFCA0BEE0F01583918756754", "minzoom": 2, "maxzoom": 8 }, "properties": { "halo": 0.8, "title": "科罗索文化", "fontsize": 12, "tyid": "304002", "oid": "103:1576575205850", "color": "#262626" }, "geometry": { "type": "Point", "coordinates": [ -66.533203, 18.229351 ] } }
{ "type": "Feature", "tippecanoe": { "layer": "2AFCA0BEE0F01583918756754", "minzoom": 2, "maxzoom": 8 }, "properties": { "halo": 0.8, "title": "克鲁姆湾文化", "fontsize": 12, "tyid": "304002", "oid": "103:1576575205873", "color": "#262626" }, "geometry": { "type": "Point", "coordinates": [ -64.775391, 17.811456 ] } }
{ "type": "Feature", "tippecanoe": { "layer": "2AFCA0BEE0F01583918756754", "minzoom": 2, "maxzoom": 8 }, "properties": { "halo": 0.8, "title": "萨拉杜文化", "fontsize": 12, "tyid": "304002", "oid": "103:1576575205839", "color": "#262626" }, "geometry": { "type": "Point", "coordinates": [ -61.699219, 16.214675 ] } }
{ "type": "Feature", "tippecanoe": { "layer": "2AFCA0BEE0F01583918756754", "minzoom": 2, "maxzoom": 8 }, "properties": { "halo": 0.8, "title": "卡斯特罗文化", "fontsize": 12, "tyid": "304002", "oid": "103:1576575205518", "color": "#262626" }, "geometry": { "type": "Point", "coordinates": [ -4.394531, 43.068888 ] } }
{ "type": "Feature", "tippecanoe": { "layer": "2AFCA0BEE0F01583918756754", "minzoom": 2, "maxzoom": 8 }, "properties": { "halo": 0.8, "title": "特罗莫吉人", "fontsize": 12, "tyid": "304001", "oid": "103:1576575205414", "color": "#262626" }, "geometry": { "type": "Point", "coordinates": [ -3.691406, 42.228517 ] } }
{ "type": "Feature", "tippecanoe": { "layer": "2AFCA0BEE0F01583918756754", "minzoom": 2, "maxzoom": 8 }, "properties": { "halo": 0.8, "title": "奥特里冈人", "fontsize": 12, "tyid": "304001", "oid": "103:1576575205981", "color": "#262626" }, "geometry": { "type": "Point", "coordinates": [ -3.251953, 42.875964 ] } }
{ "type": "Feature", "tippecanoe": { "layer": "2AFCA0BEE0F01583918756754", "minzoom": 2, "maxzoom": 8 }, "properties": { "halo": 0.8, "title": "卡斯蒂利人", "fontsize": 12, "tyid": "304001", "oid": "103:1576575205984", "color": "#262626" }, "geometry": { "type": "Point", "coordinates": [ -2.812500, 43.068888 ] } }
{ "type": "Feature", "tippecanoe": { "layer": "2AFCA0BEE0F01583918756754", "minzoom": 2, "maxzoom": 8 }, "properties": { "halo": 0.8, "title": "瓦杜里人", "fontsize": 12, "tyid": "304001", "oid": "103:1576575205983", "color": "#262626" }, "geometry": { "type": "Point", "coordinates": [ -2.285156, 42.940339 ] } }
{ "type": "Feature", "tippecanoe": { "layer": "2AFCA0BEE0F01583918756754", "minzoom": 2, "maxzoom": 8 }, "properties": { "halo": 0.8, "title": "伯罗内人", "fontsize": 12, "tyid": "304001", "oid": "103:1576575205544", "color": "#262626" }, "geometry": { "type": "Point", "coordinates": [ -2.548828, 42.293564 ] } }
{ "type": "Feature", "tippecanoe": { "layer": "2AFCA0BEE0F01583918756754", "minzoom": 2, "maxzoom": 8 }, "properties": { "halo": 0.8, "title": "巴斯克人", "fontsize": 12, "tyid": "304001", "oid": "103:1576575205572", "color": "#262626" }, "geometry": { "type": "Point", "coordinates": [ -1.494141, 42.811522 ] } }
{ "type": "Feature", "tippecanoe": { "layer": "2AFCA0BEE0F01583918756754", "minzoom": 2, "maxzoom": 8 }, "properties": { "halo": 0.8, "title": "伊塞塔尼人", "fontsize": 12, "tyid": "304001", "oid": "103:1576575205355", "color": "#262626" }, "geometry": { "type": "Point", "coordinates": [ -1.054688, 42.163403 ] } }
{ "type": "Feature", "tippecanoe": { "layer": "2AFCA0BEE0F01583918756754", "minzoom": 2, "maxzoom": 8 }, "properties": { "halo": 0.8, "title": "关切人", "fontsize": 12, "tyid": "304001", "oid": "103:1576575205867", "color": "#262626" }, "geometry": { "type": "Point", "coordinates": [ -16.611328, 28.304381 ] } }
{ "type": "Feature", "tippecanoe": { "layer": "2AFCA0BEE0F01583918756754", "minzoom": 2, "maxzoom": 8 }, "properties": { "halo": 0.8, "title": "图尔杜利奥皮迪尼人", "fontsize": 12, "tyid": "304001", "oid": "103:1576575205977", "color": "#262626" }, "geometry": { "type": "Point", "coordinates": [ -8.789062, 39.909736 ] } }
{ "type": "Feature", "tippecanoe": { "layer": "2AFCA0BEE0F01583918756754", "minzoom": 2, "maxzoom": 8 }, "properties": { "halo": 0.8, "title": "伊利尔卡沃尼人", "fontsize": 12, "tyid": "304001", "oid": "103:1576575205357", "color": "#262626" }, "geometry": { "type": "Point", "coordinates": [ -0.263672, 40.847060 ] } }
{ "type": "Feature", "tippecanoe": { "layer": "2AFCA0BEE0F01583918756754", "minzoom": 2, "maxzoom": 8 }, "properties": { "halo": 0.8, "title": "埃德塔尼人", "fontsize": 12, "tyid": "304001", "oid": "103:1576575205591", "color": "#262626" }, "geometry": { "type": "Point", "coordinates": [ -0.966797, 39.639538 ] } }
{ "type": "Feature", "tippecanoe": { "layer": "2AFCA0BEE0F01583918756754", "minzoom": 2, "maxzoom": 8 }, "properties": { "halo": 0.8, "title": "康斯塔尼人", "fontsize": 12, "tyid": "304001", "oid": "103:1576575205510", "color": "#262626" }, "geometry": { "type": "Point", "coordinates": [ -0.878906, 38.685510 ] } }
{ "type": "Feature", "tippecanoe": { "layer": "2AFCA0BEE0F01583918756754", "minzoom": 2, "maxzoom": 8 }, "properties": { "halo": 0.8, "title": "瓜纳加拉文化", "fontsize": 12, "tyid": "304002", "oid": "103:1576575205822", "color": "#262626" }, "geometry": { "type": "Point", "coordinates": [ -80.595703, -1.669686 ] } }
{ "type": "Feature", "tippecanoe": { "layer": "2AFCA0BEE0F01583918756754", "minzoom": 2, "maxzoom": 8 }, "properties": { "halo": 0.8, "title": "巴伊亚文化", "fontsize": 12, "tyid": "304002", "oid": "103:1576575205567", "color": "#262626" }, "geometry": { "type": "Point", "coordinates": [ -80.068359, -0.527336 ] } }
{ "type": "Feature", "tippecanoe": { "layer": "2AFCA0BEE0F01583918756754", "minzoom": 2, "maxzoom": 8 }, "properties": { "halo": 0.8, "title": "查文文化", "fontsize": 12, "tyid": "304002", "oid": "103:1576575205535", "color": "#262626" }, "geometry": { "type": "Point", "coordinates": [ -77.958984, -8.320212 ] } }
{ "type": "Feature", "tippecanoe": { "layer": "2AFCA0BEE0F01583918756754", "minzoom": 2, "maxzoom": 8 }, "properties": { "halo": 0.8, "title": "卡斯马-赛钦文化", "fontsize": 12, "tyid": "304002", "oid": "103:1576575205798", "color": "#262626" }, "geometry": { "type": "Point", "coordinates": [ -77.958984, -9.622414 ] } }
{ "type": "Feature", "tippecanoe": { "layer": "2AFCA0BEE0F01583918756754", "minzoom": 2, "maxzoom": 8 }, "properties": { "halo": 0.8, "title": "帕拉卡斯文化", "fontsize": 12, "tyid": "304002", "oid": "103:1576575205703", "color": "#262626" }, "geometry": { "type": "Point", "coordinates": [ -75.673828, -14.179186 ] } }
{ "type": "Feature", "tippecanoe": { "layer": "2AFCA0BEE0F01583918756754", "minzoom": 2, "maxzoom": 8 }, "properties": { "halo": 0.8, "title": "豪什人", "fontsize": 12, "tyid": "304001", "oid": "103:1576575205767", "color": "#262626" }, "geometry": { "type": "Point", "coordinates": [ -65.917969, -54.724620 ] } }
{ "type": "Feature", "tippecanoe": { "layer": "2AFCA0BEE0F01583918756754", "minzoom": 2, "maxzoom": 8 }, "properties": { "halo": 0.8, "title": "洪斯吕克-埃菲尔文化", "fontsize": 12, "tyid": "304002", "oid": "103:1576575205800", "color": "#262626" }, "geometry": { "type": "Point", "coordinates": [ 7.998047, 50.345460 ] } }
{ "type": "Feature", "tippecanoe": { "layer": "2AFCA0BEE0F01583918756754", "minzoom": 2, "maxzoom": 8 }, "properties": { "halo": 0.8, "title": "拉塞塔尼人", "fontsize": 12, "tyid": "304001", "oid": "103:1576575205970", "color": "#262626" }, "geometry": { "type": "Point", "coordinates": [ 1.054688, 41.442726 ] } }
{ "type": "Feature", "tippecanoe": { "layer": "2AFCA0BEE0F01583918756754", "minzoom": 2, "maxzoom": 8 }, "properties": { "halo": 0.8, "title": "英迪格人", "fontsize": 12, "tyid": "304001", "oid": "103:1576575205969", "color": "#262626" }, "geometry": { "type": "Point", "coordinates": [ 2.285156, 42.163403 ] } }
{ "type": "Feature", "tippecanoe": { "layer": "2AFCA0BEE0F01583918756754", "minzoom": 2, "maxzoom": 8 }, "properties": { "halo": 0.8, "title": "马萨利亚", "fontsize": 12, "tyid": "304000", "oid": "103:1576575205809", "color": "#202020" }, "geometry": { "type": "Point", "coordinates": [ 5.449219, 43.325178 ] } }
{ "type": "Feature", "tippecanoe": { "layer": "2AFCA0BEE0F01583918756754", "minzoom": 2, "maxzoom": 8 }, "properties": { "halo": 0.8, "title": "帕莱波利斯", "fontsize": 12, "tyid": "304000", "oid": "103:1576575205761", "color": "#202020" }, "geometry": { "type": "Point", "coordinates": [ 3.076172, 42.163403 ] } }
{ "type": "Feature", "tippecanoe": { "layer": "2AFCA0BEE0F01583918756754", "minzoom": 2, "maxzoom": 8 }, "properties": { "halo": 0.8, "title": "卡莫尼卡人", "fontsize": 12, "tyid": "304001", "oid": "103:1576575205633", "color": "#262626" }, "geometry": { "type": "Point", "coordinates": [ 10.283203, 46.012224 ] } }
{ "type": "Feature", "tippecanoe": { "layer": "2AFCA0BEE0F01583918756754", "minzoom": 2, "maxzoom": 8 }, "properties": { "halo": 0.8, "title": "摩诺伊科", "fontsize": 12, "tyid": "304000", "oid": "103:1576575205762", "color": "#202020" }, "geometry": { "type": "Point", "coordinates": [ 7.382812, 43.771094 ] } }
{ "type": "Feature", "tippecanoe": { "layer": "2AFCA0BEE0F01583918756754", "minzoom": 2, "maxzoom": 8 }, "properties": { "halo": 0.8, "title": "罗马共和国", "fontsize": 12, "tyid": "304000", "oid": "103:1576575205486", "color": "#202020" }, "geometry": { "type": "Point", "coordinates": [ 12.392578, 41.836828 ] } }
{ "type": "Feature", "tippecanoe": { "layer": "2AFCA0BEE0F01583918756754", "minzoom": 2, "maxzoom": 8 }, "properties": { "halo": 0.8, "title": "翁布里亚人", "fontsize": 12, "tyid": "304001", "oid": "103:1576575205612", "color": "#262626" }, "geometry": { "type": "Point", "coordinates": [ 12.832031, 42.811522 ] } }
{ "type": "Feature", "tippecanoe": { "layer": "2AFCA0BEE0F01583918756754", "minzoom": 2, "maxzoom": 8 }, "properties": { "halo": 0.8, "title": "萨宾人", "fontsize": 12, "tyid": "304001", "oid": "103:1576575205743", "color": "#262626" }, "geometry": { "type": "Point", "coordinates": [ 12.656250, 42.098222 ] } }
{ "type": "Feature", "tippecanoe": { "layer": "2AFCA0BEE0F01583918756754", "minzoom": 2, "maxzoom": 8 }, "properties": { "halo": 0.8, "title": "皮森特人", "fontsize": 12, "tyid": "304001", "oid": "103:1576575205449", "color": "#262626" }, "geometry": { "type": "Point", "coordinates": [ 13.535156, 43.004647 ] } }
{ "type": "Feature", "tippecanoe": { "layer": "2AFCA0BEE0F01583918756754", "minzoom": 2, "maxzoom": 8 }, "properties": { "halo": 0.8, "title": "拉丁人", "fontsize": 12, "tyid": "304001", "oid": "103:1576575205712", "color": "#262626" }, "geometry": { "type": "Point", "coordinates": [ 12.919922, 41.640078 ] } }
{ "type": "Feature", "tippecanoe": { "layer": "2AFCA0BEE0F01583918756754", "minzoom": 2, "maxzoom": 8 }, "properties": { "halo": 0.8, "title": "奥斯坎人", "fontsize": 12, "tyid": "304001", "oid": "103:1576575205581", "color": "#262626" }, "geometry": { "type": "Point", "coordinates": [ 13.447266, 41.442726 ] } }
{ "type": "Feature", "tippecanoe": { "layer": "2AFCA0BEE0F01583918756754", "minzoom": 2, "maxzoom": 8 }, "properties": { "halo": 0.8, "title": "道尼人", "fontsize": 12, "tyid": "304001", "oid": "103:1576575205690", "color": "#262626" }, "geometry": { "type": "Point", "coordinates": [ 15.292969, 41.705729 ] } }
{ "type": "Feature", "tippecanoe": { "layer": "2AFCA0BEE0F01583918756754", "minzoom": 2, "maxzoom": 8 }, "properties": { "halo": 0.8, "title": "佩乌克提伊人", "fontsize": 12, "tyid": "304001", "oid": "103:1576575205451", "color": "#262626" }, "geometry": { "type": "Point", "coordinates": [ 16.347656, 41.046217 ] } }
{ "type": "Feature", "tippecanoe": { "layer": "2AFCA0BEE0F01583918756754", "minzoom": 2, "maxzoom": 8 }, "properties": { "halo": 0.8, "title": "培奥尼亚人", "fontsize": 12, "tyid": "304001", "oid": "103:1576575205700", "color": "#262626" }, "geometry": { "type": "Point", "coordinates": [ 22.148438, 41.771312 ] } }
{ "type": "Feature", "tippecanoe": { "layer": "2AFCA0BEE0F01583918756754", "minzoom": 2, "maxzoom": 8 }, "properties": { "halo": 0.8, "title": "皮斯特罗斯", "fontsize": 12, "tyid": "304000", "oid": "103:1576575205757", "color": "#202020" }, "geometry": { "type": "Point", "coordinates": [ 23.994141, 42.293564 ] } }
{ "type": "Feature", "tippecanoe": { "layer": "2AFCA0BEE0F01583918756754", "minzoom": 2, "maxzoom": 8 }, "properties": { "halo": 0.8, "title": "盖塔人", "fontsize": 12, "tyid": "304001", "oid": "103:1576575205662", "color": "#262626" }, "geometry": { "type": "Point", "coordinates": [ 26.806641, 44.465151 ] } }
{ "type": "Feature", "tippecanoe": { "layer": "2AFCA0BEE0F01583918756754", "minzoom": 2, "maxzoom": 8 }, "properties": { "halo": 0.8, "title": "奥德索斯", "fontsize": 12, "tyid": "304000", "oid": "103:1576575205717", "color": "#202020" }, "geometry": { "type": "Point", "coordinates": [ 27.861328, 43.261206 ] } }
{ "type": "Feature", "tippecanoe": { "layer": "2AFCA0BEE0F01583918756754", "minzoom": 2, "maxzoom": 8 }, "properties": { "halo": 0.8, "title": "安恰罗斯", "fontsize": 12, "tyid": "304000", "oid": "103:1576575205834", "color": "#202020" }, "geometry": { "type": "Point", "coordinates": [ 27.509766, 42.617791 ] } }
{ "type": "Feature", "tippecanoe": { "layer": "2AFCA0BEE0F01583918756754", "minzoom": 2, "maxzoom": 8 }, "properties": { "halo": 0.8, "title": "梅森布里亚", "fontsize": 12, "tyid": "304000", "oid": "103:1576575205802", "color": "#202020" }, "geometry": { "type": "Point", "coordinates": [ 27.597656, 42.682435 ] } }
{ "type": "Feature", "tippecanoe": { "layer": "2AFCA0BEE0F01583918756754", "minzoom": 2, "maxzoom": 8 }, "properties": { "halo": 0.8, "title": "阿波罗尼亚·潘提卡", "fontsize": 12, "tyid": "304000", "oid": "103:1576575205870", "color": "#202020" }, "geometry": { "type": "Point", "coordinates": [ 27.597656, 42.423457 ] } }
{ "type": "Feature", "tippecanoe": { "layer": "2AFCA0BEE0F01583918756754", "minzoom": 2, "maxzoom": 8 }, "properties": { "halo": 0.8, "title": "尼康恩", "fontsize": 12, "tyid": "304000", "oid": "103:1576575205629", "color": "#202020" }, "geometry": { "type": "Point", "coordinates": [ 30.673828, 46.619261 ] } }
{ "type": "Feature", "tippecanoe": { "layer": "2AFCA0BEE0F01583918756754", "minzoom": 2, "maxzoom": 8 }, "properties": { "halo": 0.8, "title": "提拉斯", "fontsize": 12, "tyid": "304000", "oid": "103:1576575205955", "color": "#202020" }, "geometry": { "type": "Point", "coordinates": [ 30.234375, 46.134170 ] } }
{ "type": "Feature", "tippecanoe": { "layer": "2AFCA0BEE0F01583918756754", "minzoom": 2, "maxzoom": 8 }, "properties": { "halo": 0.8, "title": "敖德萨", "fontsize": 12, "tyid": "304000", "oid": "103:1576575205869", "color": "#202020" }, "geometry": { "type": "Point", "coordinates": [ 30.585938, 46.498392 ] } }
{ "type": "Feature", "tippecanoe": { "layer": "2AFCA0BEE0F01583918756754", "minzoom": 2, "maxzoom": 8 }, "properties": { "halo": 0.8, "title": "奥里维亚", "fontsize": 12, "tyid": "304002", "oid": "103:1576575205889", "color": "#262626" }, "geometry": { "type": "Point", "coordinates": [ 31.816406, 46.679594 ] } }
{ "type": "Feature", "tippecanoe": { "layer": "2AFCA0BEE0F01583918756754", "minzoom": 2, "maxzoom": 8 }, "properties": { "halo": 0.8, "title": "克尔柯特", "fontsize": 12, "tyid": "304000", "oid": "103:1576575205875", "color": "#202020" }, "geometry": { "type": "Point", "coordinates": [ 33.398438, 45.274886 ] } }
{ "type": "Feature", "tippecanoe": { "layer": "2AFCA0BEE0F01583918756754", "minzoom": 2, "maxzoom": 8 }, "properties": { "halo": 0.8, "title": "希斯特里亚", "fontsize": 12, "tyid": "304000", "oid": "103:1576575205958", "color": "#202020" }, "geometry": { "type": "Point", "coordinates": [ 28.740234, 44.527843 ] } }
{ "type": "Feature", "tippecanoe": { "layer": "2AFCA0BEE0F01583918756754", "minzoom": 2, "maxzoom": 8 }, "properties": { "halo": 0.8, "title": "托米斯", "fontsize": 12, "tyid": "304000", "oid": "103:1576575205622", "color": "#202020" }, "geometry": { "type": "Point", "coordinates": [ 28.476562, 44.213710 ] } }
{ "type": "Feature", "tippecanoe": { "layer": "2AFCA0BEE0F01583918756754", "minzoom": 2, "maxzoom": 8 }, "properties": { "halo": 0.8, "title": "埃吉索斯", "fontsize": 12, "tyid": "304000", "oid": "103:1576575205787", "color": "#202020" }, "geometry": { "type": "Point", "coordinates": [ 29.355469, 45.026950 ] } }
{ "type": "Feature", "tippecanoe": { "layer": "2AFCA0BEE0F01583918756754", "minzoom": 2, "maxzoom": 8 }, "properties": { "halo": 0.8, "title": "卡拉提斯", "fontsize": 12, "tyid": "304000", "oid": "103:1576575205959", "color": "#202020" }, "geometry": { "type": "Point", "coordinates": [ 28.564453, 43.834527 ] } }
{ "type": "Feature", "tippecanoe": { "layer": "2AFCA0BEE0F01583918756754", "minzoom": 2, "maxzoom": 8 }, "properties": { "halo": 0.8, "title": "迪奥尼索波利斯", "fontsize": 12, "tyid": "304000", "oid": "103:1576575205831", "color": "#202020" }, "geometry": { "type": "Point", "coordinates": [ 28.125000, 43.452919 ] } }
{ "type": "Feature", "tippecanoe": { "layer": "2AFCA0BEE0F01583918756754", "minzoom": 2, "maxzoom": 8 }, "properties": { "halo": 0.8, "title": "拜佐恩", "fontsize": 12, "tyid": "304000", "oid": "103:1576575205777", "color": "#202020" }, "geometry": { "type": "Point", "coordinates": [ 28.300781, 43.452919 ] } }
{ "type": "Feature", "tippecanoe": { "layer": "2AFCA0BEE0F01583918756754", "minzoom": 2, "maxzoom": 8 }, "properties": { "halo": 0.8, "title": "拜占庭", "fontsize": 12, "tyid": "304000", "oid": "103:1576575205781", "color": "#202020" }, "geometry": { "type": "Point", "coordinates": [ 28.740234, 41.178654 ] } }
{ "type": "Feature", "tippecanoe": { "layer": "2AFCA0BEE0F01583918756754", "minzoom": 2, "maxzoom": 8 }, "properties": { "halo": 0.8, "title": "克森尼索", "fontsize": 12, "tyid": "304000", "oid": "103:1576575205953", "color": "#202020" }, "geometry": { "type": "Point", "coordinates": [ 33.486328, 44.590467 ] } }
{ "type": "Feature", "tippecanoe": { "layer": "2AFCA0BEE0F01583918756754", "minzoom": 2, "maxzoom": 8 }, "properties": { "halo": 0.8, "title": "博斯普鲁斯王国", "fontsize": 12, "tyid": "304000", "oid": "103:1576575205950", "color": "#202020" }, "geometry": { "type": "Point", "coordinates": [ 36.298828, 45.274886 ] } }
{ "type": "Feature", "tippecanoe": { "layer": "2AFCA0BEE0F01583918756754", "minzoom": 2, "maxzoom": 8 }, "properties": { "halo": 0.8, "title": "杜林人", "fontsize": 12, "tyid": "304001", "oid": "103:1576575205825", "color": "#262626" }, "geometry": { "type": "Point", "coordinates": [ 34.453125, 44.964798 ] } }
{ "type": "Feature", "tippecanoe": { "layer": "2AFCA0BEE0F01583918756754", "minzoom": 2, "maxzoom": 8 }, "properties": { "halo": 0.8, "title": "西奥多西亚", "fontsize": 12, "tyid": "304000", "oid": "103:1576575205860", "color": "#202020" }, "geometry": { "type": "Point", "coordinates": [ 35.332031, 45.089036 ] } }
{ "type": "Feature", "tippecanoe": { "layer": "2AFCA0BEE0F01583918756754", "minzoom": 2, "maxzoom": 8 }, "properties": { "halo": 0.8, "title": "戈尔吉皮亚", "fontsize": 12, "tyid": "304000", "oid": "103:1576575205823", "color": "#202020" }, "geometry": { "type": "Point", "coordinates": [ 37.265625, 44.902578 ] } }
{ "type": "Feature", "tippecanoe": { "layer": "2AFCA0BEE0F01583918756754", "minzoom": 2, "maxzoom": 8 }, "properties": { "halo": 0.8, "title": "辛迪卡", "fontsize": 12, "tyid": "304000", "oid": "103:1576575205367", "color": "#202020" }, "geometry": { "type": "Point", "coordinates": [ 38.408203, 44.777936 ] } }
{ "type": "Feature", "tippecanoe": { "layer": "2AFCA0BEE0F01583918756754", "minzoom": 2, "maxzoom": 8 }, "properties": { "halo": 0.8, "title": "卢卡尼亚人", "fontsize": 12, "tyid": "304001", "oid": "103:1576575205490", "color": "#262626" }, "geometry": { "type": "Point", "coordinates": [ 15.908203, 40.313043 ] } }
{ "type": "Feature", "tippecanoe": { "layer": "2AFCA0BEE0F01583918756754", "minzoom": 2, "maxzoom": 8 }, "properties": { "halo": 0.8, "title": "布鲁提亚人", "fontsize": 12, "tyid": "304001", "oid": "103:1576575205720", "color": "#262626" }, "geometry": { "type": "Point", "coordinates": [ 16.259766, 39.436193 ] } }
{ "type": "Feature", "tippecanoe": { "layer": "2AFCA0BEE0F01583918756754", "minzoom": 2, "maxzoom": 8 }, "properties": { "halo": 0.8, "title": "西古里人", "fontsize": 12, "tyid": "304001", "oid": "103:1576575205861", "color": "#262626" }, "geometry": { "type": "Point", "coordinates": [ 14.765625, 37.370157 ] } }
{ "type": "Feature", "tippecanoe": { "layer": "2AFCA0BEE0F01583918756754", "minzoom": 2, "maxzoom": 8 }, "properties": { "halo": 0.8, "title": "梅萨皮伊人", "fontsize": 12, "tyid": "304001", "oid": "103:1576575205806", "color": "#262626" }, "geometry": { "type": "Point", "coordinates": [ 17.490234, 40.647304 ] } }
{ "type": "Feature", "tippecanoe": { "layer": "2AFCA0BEE0F01583918756754", "minzoom": 2, "maxzoom": 8 }, "properties": { "halo": 0.8, "title": "查乌内斯人", "fontsize": 12, "tyid": "304001", "oid": "103:1576575205538", "color": "#262626" }, "geometry": { "type": "Point", "coordinates": [ 20.126953, 40.713956 ] } }
{ "type": "Feature", "tippecanoe": { "layer": "2AFCA0BEE0F01583918756754", "minzoom": 2, "maxzoom": 8 }, "properties": { "halo": 0.8, "title": "莫洛西人", "fontsize": 12, "tyid": "304001", "oid": "103:1576575205454", "color": "#262626" }, "geometry": { "type": "Point", "coordinates": [ 20.478516, 39.977120 ] } }
{ "type": "Feature", "tippecanoe": { "layer": "2AFCA0BEE0F01583918756754", "minzoom": 2, "maxzoom": 8 }, "properties": { "halo": 0.8, "title": "塞斯普罗蒂人", "fontsize": 12, "tyid": "304001", "oid": "103:1576575205738", "color": "#262626" }, "geometry": { "type": "Point", "coordinates": [ 20.917969, 39.436193 ] } }
{ "type": "Feature", "tippecanoe": { "layer": "2AFCA0BEE0F01583918756754", "minzoom": 2, "maxzoom": 8 }, "properties": { "halo": 0.8, "title": "色萨利同盟", "fontsize": 12, "tyid": "304000", "oid": "103:1576575205428", "color": "#202020" }, "geometry": { "type": "Point", "coordinates": [ 22.236328, 39.504041 ] } }
{ "type": "Feature", "tippecanoe": { "layer": "2AFCA0BEE0F01583918756754", "minzoom": 2, "maxzoom": 8 }, "properties": { "halo": 0.8, "title": "阿卡尔纳尼亚同盟", "fontsize": 12, "tyid": "304000", "oid": "103:1576575205603", "color": "#202020" }, "geometry": { "type": "Point", "coordinates": [ 21.005859, 38.685510 ] } }
{ "type": "Feature", "tippecanoe": { "layer": "2AFCA0BEE0F01583918756754", "minzoom": 2, "maxzoom": 8 }, "properties": { "halo": 0.8, "title": "埃托利亚同盟", "fontsize": 12, "tyid": "304000", "oid": "103:1576575205962", "color": "#202020" }, "geometry": { "type": "Point", "coordinates": [ 21.533203, 38.685510 ] } }
{ "type": "Feature", "tippecanoe": { "layer": "2AFCA0BEE0F01583918756754", "minzoom": 2, "maxzoom": 8 }, "properties": { "halo": 0.8, "title": "德尔菲-近邻同盟", "fontsize": 12, "tyid": "304000", "oid": "103:1576575205883", "color": "#202020" }, "geometry": { "type": "Point", "coordinates": [ 22.060547, 38.822591 ] } }
{ "type": "Feature", "tippecanoe": { "layer": "2AFCA0BEE0F01583918756754", "minzoom": 2, "maxzoom": 8 }, "properties": { "halo": 0.8, "title": "阿凯亚第一同盟", "fontsize": 12, "tyid": "304000", "oid": "103:1576575205600", "color": "#202020" }, "geometry": { "type": "Point", "coordinates": [ 21.972656, 38.134557 ] } }
{ "type": "Feature", "tippecanoe": { "layer": "2AFCA0BEE0F01583918756754", "minzoom": 2, "maxzoom": 8 }, "properties": { "halo": 0.8, "title": "昔兰尼共和国", "fontsize": 12, "tyid": "304000", "oid": "103:1576575205376", "color": "#202020" }, "geometry": { "type": "Point", "coordinates": [ 21.533203, 32.546813 ] } }
{ "type": "Feature", "tippecanoe": { "layer": "2AFCA0BEE0F01583918756754", "minzoom": 2, "maxzoom": 8 }, "properties": { "halo": 0.8, "title": "哈尔基季基同盟", "fontsize": 12, "tyid": "304000", "oid": "103:1576575205644", "color": "#202020" }, "geometry": { "type": "Point", "coordinates": [ 23.378906, 40.446947 ] } }
{ "type": "Feature", "tippecanoe": { "layer": "2AFCA0BEE0F01583918756754", "minzoom": 2, "maxzoom": 8 }, "properties": { "halo": 0.8, "title": "彼奥提亚同盟", "fontsize": 12, "tyid": "304000", "oid": "103:1576575205553", "color": "#202020" }, "geometry": { "type": "Point", "coordinates": [ 23.115234, 38.410558 ] } }
{ "type": "Feature", "tippecanoe": { "layer": "2AFCA0BEE0F01583918756754", "minzoom": 2, "maxzoom": 8 }, "properties": { "halo": 0.8, "title": "雅典", "fontsize": 12, "tyid": "304000", "oid": "103:1576575205370", "color": "#202020" }, "geometry": { "type": "Point", "coordinates": [ 23.818359, 38.065392 ] } }
{ "type": "Feature", "tippecanoe": { "layer": "2AFCA0BEE0F01583918756754", "minzoom": 2, "maxzoom": 8 }, "properties": { "halo": 0.8, "title": "阿尔戈斯", "fontsize": 12, "tyid": "304000", "oid": "103:1576575205790", "color": "#202020" }, "geometry": { "type": "Point", "coordinates": [ 22.675781, 37.718590 ] } }
{ "type": "Feature", "tippecanoe": { "layer": "2AFCA0BEE0F01583918756754", "minzoom": 2, "maxzoom": 8 }, "properties": { "halo": 0.8, "title": "安德罗斯", "fontsize": 12, "tyid": "304000", "oid": "103:1576575205844", "color": "#202020" }, "geometry": { "type": "Point", "coordinates": [ 24.785156, 37.926868 ] } }
{ "type": "Feature", "tippecanoe": { "layer": "2AFCA0BEE0F01583918756754", "minzoom": 2, "maxzoom": 8 }, "properties": { "halo": 0.8, "title": "亚扪王国", "fontsize": 12, "tyid": "304000", "oid": "103:1576575205921", "color": "#202020" }, "geometry": { "type": "Point", "coordinates": [ 36.123047, 32.175612 ] } }
{ "type": "Feature", "tippecanoe": { "layer": "2AFCA0BEE0F01583918756754", "minzoom": 2, "maxzoom": 8 }, "properties": { "halo": 0.8, "title": "以东王国", "fontsize": 12, "tyid": "304000", "oid": "103:1576575205723", "color": "#202020" }, "geometry": { "type": "Point", "coordinates": [ 35.332031, 30.448674 ] } }
{ "type": "Feature", "tippecanoe": { "layer": "2AFCA0BEE0F01583918756754", "minzoom": 2, "maxzoom": 8 }, "properties": { "halo": 0.8, "title": "焉耆国", "fontsize": 12, "tyid": "304000", "oid": "103:1576575205797", "color": "#202020" }, "geometry": { "type": "Point", "coordinates": [ 86.308594, 42.032974 ] } }
{ "type": "Feature", "tippecanoe": { "layer": "2AFCA0BEE0F01583918756754", "minzoom": 2, "maxzoom": 8 }, "properties": { "halo": 0.8, "title": "莎车国", "fontsize": 12, "tyid": "304000", "oid": "103:1576575205796", "color": "#202020" }, "geometry": { "type": "Point", "coordinates": [ 77.343750, 38.685510 ] } }
{ "type": "Feature", "tippecanoe": { "layer": "2AFCA0BEE0F01583918756754", "minzoom": 2, "maxzoom": 8 }, "properties": { "halo": 0.8, "title": "流水墓地文化", "fontsize": 12, "tyid": "304002", "oid": "103:1576575205813", "color": "#262626" }, "geometry": { "type": "Point", "coordinates": [ 81.562500, 36.456636 ] } }
{ "type": "Feature", "tippecanoe": { "layer": "2AFCA0BEE0F01583918756754", "minzoom": 2, "maxzoom": 8 }, "properties": { "halo": 0.8, "title": "且末国", "fontsize": 12, "tyid": "304000", "oid": "103:1576575205755", "color": "#202020" }, "geometry": { "type": "Point", "coordinates": [ 85.605469, 38.272689 ] } }
{ "type": "Feature", "tippecanoe": { "layer": "2AFCA0BEE0F01583918756754", "minzoom": 2, "maxzoom": 8 }, "properties": { "halo": 0.8, "title": "小宛国", "fontsize": 12, "tyid": "304000", "oid": "103:1576575205373", "color": "#202020" }, "geometry": { "type": "Point", "coordinates": [ 85.429688, 37.579413 ] } }
{ "type": "Feature", "tippecanoe": { "layer": "2AFCA0BEE0F01583918756754", "minzoom": 2, "maxzoom": 8 }, "properties": { "halo": 0.8, "title": "豲戎", "fontsize": 12, "tyid": "304000", "oid": "103:1576575205682", "color": "#202020" }, "geometry": { "type": "Point", "coordinates": [ 104.501953, 34.741612 ] } }
{ "type": "Feature", "tippecanoe": { "layer": "2AFCA0BEE0F01583918756754", "minzoom": 2, "maxzoom": 8 }, "properties": { "halo": 0.8, "title": "昔阝", "fontsize": 12, "tyid": "304000", "oid": "103:1576575205340", "color": "#202020" }, "geometry": { "type": "Point", "coordinates": [ 106.347656, 32.472695 ] } }
{ "type": "Feature", "tippecanoe": { "layer": "2AFCA0BEE0F01583918756754", "minzoom": 2, "maxzoom": 8 }, "properties": { "halo": 0.8, "title": "晋", "fontsize": 12, "tyid": "304000", "oid": "103:1576575205681", "color": "#202020" }, "geometry": { "type": "Point", "coordinates": [ 111.357422, 35.746512 ] } }
{ "type": "Feature", "tippecanoe": { "layer": "2AFCA0BEE0F01583918756754", "minzoom": 2, "maxzoom": 8 }, "properties": { "halo": 0.8, "title": "冉駹羌", "fontsize": 12, "tyid": "304000", "oid": "103:1576575205871", "color": "#202020" }, "geometry": { "type": "Point", "coordinates": [ 103.623047, 31.503629 ] } }
{ "type": "Feature", "tippecanoe": { "layer": "2AFCA0BEE0F01583918756754", "minzoom": 2, "maxzoom": 8 }, "properties": { "halo": 0.8, "title": "筰都", "fontsize": 12, "tyid": "304001", "oid": "103:1576575205342", "color": "#262626" }, "geometry": { "type": "Point", "coordinates": [ 102.568359, 29.228890 ] } }
{ "type": "Feature", "tippecanoe": { "layer": "2AFCA0BEE0F01583918756754", "minzoom": 2, "maxzoom": 8 }, "properties": { "halo": 0.8, "title": "徙", "fontsize": 12, "tyid": "304001", "oid": "103:1576575205746", "color": "#262626" }, "geometry": { "type": "Point", "coordinates": [ 102.216797, 28.613459 ] } }
{ "type": "Feature", "tippecanoe": { "layer": "2AFCA0BEE0F01583918756754", "minzoom": 2, "maxzoom": 8 }, "properties": { "halo": 0.8, "title": "平周", "fontsize": 12, "tyid": "304000", "oid": "103:1576575205756", "color": "#202020" }, "geometry": { "type": "Point", "coordinates": [ 105.996094, 31.952162 ] } }
{ "type": "Feature", "tippecanoe": { "layer": "2AFCA0BEE0F01583918756754", "minzoom": 2, "maxzoom": 8 }, "properties": { "halo": 0.8, "title": "充", "fontsize": 12, "tyid": "304000", "oid": "103:1576575205882", "color": "#202020" }, "geometry": { "type": "Point", "coordinates": [ 105.996094, 31.128199 ] } }
{ "type": "Feature", "tippecanoe": { "layer": "2AFCA0BEE0F01583918756754", "minzoom": 2, "maxzoom": 8 }, "properties": { "halo": 0.8, "title": "靡莫", "fontsize": 12, "tyid": "304001", "oid": "103:1576575205896", "color": "#262626" }, "geometry": { "type": "Point", "coordinates": [ 103.886719, 25.799891 ] } }
{ "type": "Feature", "tippecanoe": { "layer": "2AFCA0BEE0F01583918756754", "minzoom": 2, "maxzoom": 8 }, "properties": { "halo": 0.8, "title": "劳浸", "fontsize": 12, "tyid": "304001", "oid": "103:1576575205836", "color": "#262626" }, "geometry": { "type": "Point", "coordinates": [ 103.710938, 24.926295 ] } }
{ "type": "Feature", "tippecanoe": { "layer": "2AFCA0BEE0F01583918756754", "minzoom": 2, "maxzoom": 8 }, "properties": { "halo": 0.8, "title": "石坛文化", "fontsize": 12, "tyid": "304002", "oid": "103:1576575205793", "color": "#262626" }, "geometry": { "type": "Point", "coordinates": [ 103.359375, 19.559790 ] } }
{ "type": "Feature", "tippecanoe": { "layer": "2AFCA0BEE0F01583918756754", "minzoom": 2, "maxzoom": 8 }, "properties": { "halo": 0.8, "title": "东山文化", "fontsize": 12, "tyid": "304002", "oid": "103:1576575205827", "color": "#262626" }, "geometry": { "type": "Point", "coordinates": [ 105.292969, 21.698265 ] } }
{ "type": "Feature", "tippecanoe": { "layer": "2AFCA0BEE0F01583918756754", "minzoom": 2, "maxzoom": 8 }, "properties": { "halo": 0.8, "title": "东周", "fontsize": 12, "tyid": "304000", "oid": "103:1576575205849", "color": "#202020" }, "geometry": { "type": "Point", "coordinates": [ 112.587891, 34.741612 ] } }
{ "type": "Feature", "tippecanoe": { "layer": "2AFCA0BEE0F01583918756754", "minzoom": 2, "maxzoom": 8 }, "properties": { "halo": 0.8, "title": "郑", "fontsize": 12, "tyid": "304000", "oid": "103:1576575205346", "color": "#202020" }, "geometry": { "type": "Point", "coordinates": [ 113.730469, 34.379713 ] } }
{ "type": "Feature", "tippecanoe": { "layer": "2AFCA0BEE0F01583918756754", "minzoom": 2, "maxzoom": 8 }, "properties": { "halo": 0.8, "title": "卫", "fontsize": 12, "tyid": "304000", "oid": "103:1576575205397", "color": "#202020" }, "geometry": { "type": "Point", "coordinates": [ 114.785156, 35.532226 ] } }
{ "type": "Feature", "tippecanoe": { "layer": "2AFCA0BEE0F01583918756754", "minzoom": 2, "maxzoom": 8 }, "properties": { "halo": 0.8, "title": "任", "fontsize": 12, "tyid": "304000", "oid": "103:1576575205440", "color": "#202020" }, "geometry": { "type": "Point", "coordinates": [ 116.630859, 35.389050 ] } }
{ "type": "Feature", "tippecanoe": { "layer": "2AFCA0BEE0F01583918756754", "minzoom": 2, "maxzoom": 8 }, "properties": { "halo": 0.8, "title": "鲁", "fontsize": 12, "tyid": "304000", "oid": "103:1576575205481", "color": "#202020" }, "geometry": { "type": "Point", "coordinates": [ 117.246094, 35.603719 ] } }
{ "type": "Feature", "tippecanoe": { "layer": "2AFCA0BEE0F01583918756754", "minzoom": 2, "maxzoom": 8 }, "properties": { "halo": 0.8, "title": "邾", "fontsize": 12, "tyid": "304000", "oid": "103:1576575205607", "color": "#202020" }, "geometry": { "type": "Point", "coordinates": [ 116.894531, 35.389050 ] } }
{ "type": "Feature", "tippecanoe": { "layer": "2AFCA0BEE0F01583918756754", "minzoom": 2, "maxzoom": 8 }, "properties": { "halo": 0.8, "title": "小邾", "fontsize": 12, "tyid": "304000", "oid": "103:1576575205874", "color": "#202020" }, "geometry": { "type": "Point", "coordinates": [ 117.421875, 35.173808 ] } }
{ "type": "Feature", "tippecanoe": { "layer": "2AFCA0BEE0F01583918756754", "minzoom": 2, "maxzoom": 8 }, "properties": { "halo": 0.8, "title": "费", "fontsize": 12, "tyid": "304000", "oid": "103:1576575205770", "color": "#202020" }, "geometry": { "type": "Point", "coordinates": [ 117.949219, 35.029996 ] } }
{ "type": "Feature", "tippecanoe": { "layer": "2AFCA0BEE0F01583918756754", "minzoom": 2, "maxzoom": 8 }, "properties": { "halo": 0.8, "title": "邳", "fontsize": 12, "tyid": "304000", "oid": "103:1576575205450", "color": "#202020" }, "geometry": { "type": "Point", "coordinates": [ 117.861328, 34.016242 ] } }
{ "type": "Feature", "tippecanoe": { "layer": "2AFCA0BEE0F01583918756754", "minzoom": 2, "maxzoom": 8 }, "properties": { "halo": 0.8, "title": "屠何", "fontsize": 12, "tyid": "304001", "oid": "103:1576575205409", "color": "#262626" }, "geometry": { "type": "Point", "coordinates": [ 120.322266, 40.847060 ] } }
{ "type": "Feature", "tippecanoe": { "layer": "2AFCA0BEE0F01583918756754", "minzoom": 2, "maxzoom": 8 }, "properties": { "halo": 0.8, "title": "桐", "fontsize": 12, "tyid": "304000", "oid": "103:1576575205728", "color": "#202020" }, "geometry": { "type": "Point", "coordinates": [ 116.718750, 30.977609 ] } }
{ "type": "Feature", "tippecanoe": { "layer": "2AFCA0BEE0F01583918756754", "minzoom": 2, "maxzoom": 8 }, "properties": { "halo": 0.8, "title": "缚娄", "fontsize": 12, "tyid": "304000", "oid": "103:1576575205934", "color": "#202020" }, "geometry": { "type": "Point", "coordinates": [ 114.345703, 23.160563 ] } }
{ "type": "Feature", "tippecanoe": { "layer": "2AFCA0BEE0F01583918756754", "minzoom": 2, "maxzoom": 8 }, "properties": { "halo": 0.8, "title": "营埔文化", "fontsize": 12, "tyid": "304002", "oid": "103:1576575206001", "color": "#262626" }, "geometry": { "type": "Point", "coordinates": [ 120.673828, 24.367114 ] } }
{ "type": "Feature", "tippecanoe": { "layer": "2AFCA0BEE0F01583918756754", "minzoom": 2, "maxzoom": 8 }, "properties": { "halo": 0.8, "title": "卑南文化", "fontsize": 12, "tyid": "304002", "oid": "103:1576575206000", "color": "#262626" }, "geometry": { "type": "Point", "coordinates": [ 120.761719, 22.674847 ] } }
{ "type": "Feature", "tippecanoe": { "layer": "2AFCA0BEE0F01583918756754", "minzoom": 2, "maxzoom": 8 }, "properties": { "halo": 0.8, "title": "圆山文化", "fontsize": 12, "tyid": "304002", "oid": "103:1576575206003", "color": "#262626" }, "geometry": { "type": "Point", "coordinates": [ 121.289062, 24.926295 ] } }
{ "type": "Feature", "tippecanoe": { "layer": "2AFCA0BEE0F01583918756754", "minzoom": 2, "maxzoom": 8 }, "properties": { "halo": 0.8, "title": "麒麟文化", "fontsize": 12, "tyid": "304002", "oid": "103:1576575206005", "color": "#262626" }, "geometry": { "type": "Point", "coordinates": [ 121.289062, 23.563987 ] } }
{ "type": "Feature", "tippecanoe": { "layer": "2AFCA0BEE0F01583918756754", "minzoom": 2, "maxzoom": 8 }, "properties": { "halo": 0.8, "title": "托雷斯海峡岛民", "fontsize": 12, "tyid": "304001", "oid": "103:1576575205620", "color": "#262626" }, "geometry": { "type": "Point", "coordinates": [ 142.382812, -11.264612 ] } }
{ "type": "Feature", "tippecanoe": { "layer": "2AFCA0BEE2081583918756752", "minzoom": 2, "maxzoom": 8 }, "properties": { "halo": 0.8, "title": "拉霍亚文化", "fontsize": 12, "tyid": "304002", "oid": "103:1576575205905", "color": "#262626" }, "geometry": { "type": "Point", "coordinates": [ -118.916016, 34.597042 ] } }
{ "type": "Feature", "tippecanoe": { "layer": "2AFCA0BEE2081583918756752", "minzoom": 2, "maxzoom": 8 }, "properties": { "halo": 0.8, "title": "古普韦布洛人", "fontsize": 12, "tyid": "304001", "oid": "103:1576575205877", "color": "#262626" }, "geometry": { "type": "Point", "coordinates": [ -110.126953, 36.949892 ] } }
{ "type": "Feature", "tippecanoe": { "layer": "2AFCA0BEE2081583918756752", "minzoom": 2, "maxzoom": 8 }, "properties": { "halo": 0.8, "title": "科奇斯文化", "fontsize": 12, "tyid": "304002", "oid": "103:1576575205715", "color": "#262626" }, "geometry": { "type": "Point", "coordinates": [ -110.039062, 32.249974 ] } }
{ "type": "Feature", "tippecanoe": { "layer": "2AFCA0BEE2081583918756752", "minzoom": 2, "maxzoom": 8 }, "properties": { "halo": 0.8, "title": "奇瓦瓦文化", "fontsize": 12, "tyid": "304002", "oid": "103:1576575205443", "color": "#262626" }, "geometry": { "type": "Point", "coordinates": [ -107.226562, 32.768800 ] } }
{ "type": "Feature", "tippecanoe": { "layer": "2AFCA0BEE2081583918756752", "minzoom": 2, "maxzoom": 8 }, "properties": { "halo": 0.8, "title": "奥沙拉文化", "fontsize": 12, "tyid": "304002", "oid": "103:1576575205582", "color": "#262626" }, "geometry": { "type": "Point", "coordinates": [ -106.699219, 37.579413 ] } }
{ "type": "Feature", "tippecanoe": { "layer": "2AFCA0BEE2081583918756752", "minzoom": 2, "maxzoom": 8 }, "properties": { "halo": 0.8, "title": "瓜伊库拉人", "fontsize": 12, "tyid": "304001", "oid": "103:1576575205768", "color": "#262626" }, "geometry": { "type": "Point", "coordinates": [ -111.269531, 24.846565 ] } }
{ "type": "Feature", "tippecanoe": { "layer": "2AFCA0BEE2081583918756752", "minzoom": 2, "maxzoom": 8 }, "properties": { "halo": 0.8, "title": "楚拉时期", "fontsize": 12, "tyid": "304002", "oid": "103:1576575205764", "color": "#262626" }, "geometry": { "type": "Point", "coordinates": [ -92.109375, 32.620870 ] } }
{ "type": "Feature", "tippecanoe": { "layer": "2AFCA0BEE2081583918756752", "minzoom": 2, "maxzoom": 8 }, "properties": { "halo": 0.8, "title": "华斯塔克文明", "fontsize": 12, "tyid": "304002", "oid": "103:1576575205643", "color": "#262626" }, "geometry": { "type": "Point", "coordinates": [ -98.613281, 22.105999 ] } }
{ "type": "Feature", "tippecanoe": { "layer": "2AFCA0BEE2081583918756752", "minzoom": 2, "maxzoom": 8 }, "properties": { "halo": 0.8, "title": "奇蒂玛察人", "fontsize": 12, "tyid": "304001", "oid": "103:1576575205911", "color": "#262626" }, "geometry": { "type": "Point", "coordinates": [ -91.054688, 30.372875 ] } }
{ "type": "Feature", "tippecanoe": { "layer": "2AFCA0BEE2081583918756752", "minzoom": 2, "maxzoom": 8 }, "properties": { "halo": 0.8, "title": "埃尔欧朋文化", "fontsize": 12, "tyid": "304002", "oid": "103:1576575205596", "color": "#262626" }, "geometry": { "type": "Point", "coordinates": [ -101.865234, 19.642588 ] } }
{ "type": "Feature", "tippecanoe": { "layer": "2AFCA0BEE2081583918756752", "minzoom": 2, "maxzoom": 8 }, "properties": { "halo": 0.8, "title": "梅斯卡拉文化", "fontsize": 12, "tyid": "304002", "oid": "103:1576575205467", "color": "#262626" }, "geometry": { "type": "Point", "coordinates": [ -100.810547, 17.895114 ] } }
{ "type": "Feature", "tippecanoe": { "layer": "2AFCA0BEE2081583918756752", "minzoom": 2, "maxzoom": 8 }, "properties": { "halo": 0.8, "title": "萨波特克文明", "fontsize": 12, "tyid": "304002", "oid": "103:1576575205741", "color": "#262626" }, "geometry": { "type": "Point", "coordinates": [ -96.064453, 16.636192 ] } }
{ "type": "Feature", "tippecanoe": { "layer": "2AFCA0BEE2081583918756752", "minzoom": 2, "maxzoom": 8 }, "properties": { "halo": 0.8, "title": "德普特福德文化", "fontsize": 12, "tyid": "304002", "oid": "103:1576575205525", "color": "#262626" }, "geometry": { "type": "Point", "coordinates": [ -79.628906, 33.358062 ] } }
{ "type": "Feature", "tippecanoe": { "layer": "2AFCA0BEE2081583918756752", "minzoom": 2, "maxzoom": 8 }, "properties": { "halo": 0.8, "title": "切格文特文化", "fontsize": 12, "tyid": "304002", "oid": "103:1576575205913", "color": "#262626" }, "geometry": { "type": "Point", "coordinates": [ -89.208984, 30.600094 ] } }
{ "type": "Feature", "tippecanoe": { "layer": "2AFCA0BEE2081583918756752", "minzoom": 2, "maxzoom": 8 }, "properties": { "halo": 0.8, "title": "玛雅文明[前古典时期]", "fontsize": 12, "tyid": "304002", "oid": "103:1576575205474", "color": "#262626" }, "geometry": { "type": "Point", "coordinates": [ -89.296875, 17.140790 ] } }
{ "type": "Feature", "tippecanoe": { "layer": "2AFCA0BEE2081583918756752", "minzoom": 2, "maxzoom": 8 }, "properties": { "halo": 0.8, "title": "科瑞尔文化", "fontsize": 12, "tyid": "304002", "oid": "103:1576575205508", "color": "#262626" }, "geometry": { "type": "Point", "coordinates": [ -79.013672, 0.351560 ] } }
{ "type": "Feature", "tippecanoe": { "layer": "2AFCA0BEE2081583918756752", "minzoom": 2, "maxzoom": 8 }, "properties": { "halo": 0.8, "title": "拉托利塔文化", "fontsize": 12, "tyid": "304002", "oid": "103:1576575205505", "color": "#262626" }, "geometry": { "type": "Point", "coordinates": [ -78.046875, 1.757537 ] } }
{ "type": "Feature", "tippecanoe": { "layer": "2AFCA0BEE2081583918756752", "minzoom": 2, "maxzoom": 8 }, "properties": { "halo": 0.8, "title": "埃雷拉时期", "fontsize": 12, "tyid": "304002", "oid": "103:1576575205593", "color": "#262626" }, "geometry": { "type": "Point", "coordinates": [ -73.476562, 5.441022 ] } }
{ "type": "Feature", "tippecanoe": { "layer": "2AFCA0BEE2081583918756752", "minzoom": 2, "maxzoom": 8 }, "properties": { "halo": 0.8, "title": "伊奈里人", "fontsize": 12, "tyid": "304001", "oid": "103:1576575205359", "color": "#262626" }, "geometry": { "type": "Point", "coordinates": [ -61.611328, 8.841651 ] } }
{ "type": "Feature", "tippecanoe": { "layer": "2AFCA0BEE2081583918756752", "minzoom": 2, "maxzoom": 8 }, "properties": { "halo": 0.8, "title": "皮克特人", "fontsize": 12, "tyid": "304001", "oid": "103:1576575205759", "color": "#262626" }, "geometry": { "type": "Point", "coordinates": [ -4.042969, 56.704506 ] } }
{ "type": "Feature", "tippecanoe": { "layer": "2AFCA0BEE2081583918756752", "minzoom": 2, "maxzoom": 8 }, "properties": { "halo": 0.8, "title": "盖尔人", "fontsize": 12, "tyid": "304001", "oid": "103:1576575205688", "color": "#262626" }, "geometry": { "type": "Point", "coordinates": [ -7.910156, 53.435719 ] } }
{ "type": "Feature", "tippecanoe": { "layer": "2AFCA0BEE2081583918756752", "minzoom": 2, "maxzoom": 8 }, "properties": { "halo": 0.8, "title": "加利西亚人", "fontsize": 12, "tyid": "304001", "oid": "103:1576575205979", "color": "#262626" }, "geometry": { "type": "Point", "coordinates": [ -7.998047, 42.488302 ] } }
{ "type": "Feature", "tippecanoe": { "layer": "2AFCA0BEE2081583918756752", "minzoom": 2, "maxzoom": 8 }, "properties": { "halo": 0.8, "title": "阿斯图尔人", "fontsize": 12, "tyid": "304001", "oid": "103:1576575205594", "color": "#262626" }, "geometry": { "type": "Point", "coordinates": [ -6.152344, 42.553080 ] } }
{ "type": "Feature", "tippecanoe": { "layer": "2AFCA0BEE2081583918756752", "minzoom": 2, "maxzoom": 8 }, "properties": { "halo": 0.8, "title": "瓦凯伊人", "fontsize": 12, "tyid": "304001", "oid": "103:1576575205402", "color": "#262626" }, "geometry": { "type": "Point", "coordinates": [ -4.658203, 41.640078 ] } }
{ "type": "Feature", "tippecanoe": { "layer": "2AFCA0BEE2081583918756752", "minzoom": 2, "maxzoom": 8 }, "properties": { "halo": 0.8, "title": "阿奎丹人", "fontsize": 12, "tyid": "304001", "oid": "103:1576575205598", "color": "#262626" }, "geometry": { "type": "Point", "coordinates": [ -0.175781, 43.834527 ] } }
{ "type": "Feature", "tippecanoe": { "layer": "2AFCA0BEE2081583918756752", "minzoom": 2, "maxzoom": 8 }, "properties": { "halo": 0.8, "title": "卢西塔利亚人", "fontsize": 12, "tyid": "304001", "oid": "103:1576575205488", "color": "#262626" }, "geometry": { "type": "Point", "coordinates": [ -7.646484, 40.313043 ] } }
{ "type": "Feature", "tippecanoe": { "layer": "2AFCA0BEE2081583918756752", "minzoom": 2, "maxzoom": 8 }, "properties": { "halo": 0.8, "title": "凯蒂奇人", "fontsize": 12, "tyid": "304001", "oid": "103:1576575205975", "color": "#262626" }, "geometry": { "type": "Point", "coordinates": [ -7.646484, 38.959409 ] } }
{ "type": "Feature", "tippecanoe": { "layer": "2AFCA0BEE2081583918756752", "minzoom": 2, "maxzoom": 8 }, "properties": { "halo": 0.8, "title": "维托内人", "fontsize": 12, "tyid": "304001", "oid": "103:1576575205400", "color": "#262626" }, "geometry": { "type": "Point", "coordinates": [ -5.800781, 40.313043 ] } }
{ "type": "Feature", "tippecanoe": { "layer": "2AFCA0BEE2081583918756752", "minzoom": 2, "maxzoom": 8 }, "properties": { "halo": 0.8, "title": "西尼特人", "fontsize": 12, "tyid": "304001", "oid": "103:1576575205971", "color": "#262626" }, "geometry": { "type": "Point", "coordinates": [ -8.261719, 37.649034 ] } }
{ "type": "Feature", "tippecanoe": { "layer": "2AFCA0BEE2081583918756752", "minzoom": 2, "maxzoom": 8 }, "properties": { "halo": 0.8, "title": "图尔杜利人", "fontsize": 12, "tyid": "304001", "oid": "103:1576575205407", "color": "#262626" }, "geometry": { "type": "Point", "coordinates": [ -6.855469, 38.479395 ] } }
{ "type": "Feature", "tippecanoe": { "layer": "2AFCA0BEE2081583918756752", "minzoom": 2, "maxzoom": 8 }, "properties": { "halo": 0.8, "title": "卡佩塔尼人", "fontsize": 12, "tyid": "304001", "oid": "103:1576575205520", "color": "#262626" }, "geometry": { "type": "Point", "coordinates": [ -3.955078, 39.977120 ] } }
{ "type": "Feature", "tippecanoe": { "layer": "2AFCA0BEE2081583918756752", "minzoom": 2, "maxzoom": 8 }, "properties": { "halo": 0.8, "title": "图尔德泰尼人", "fontsize": 12, "tyid": "304001", "oid": "103:1576575205624", "color": "#262626" }, "geometry": { "type": "Point", "coordinates": [ -5.097656, 37.718590 ] } }
{ "type": "Feature", "tippecanoe": { "layer": "2AFCA0BEE2081583918756752", "minzoom": 2, "maxzoom": 8 }, "properties": { "halo": 0.8, "title": "奥雷塔尼人", "fontsize": 12, "tyid": "304001", "oid": "103:1576575205584", "color": "#262626" }, "geometry": { "type": "Point", "coordinates": [ -3.251953, 38.548165 ] } }
{ "type": "Feature", "tippecanoe": { "layer": "2AFCA0BEE2081583918756752", "minzoom": 2, "maxzoom": 8 }, "properties": { "halo": 0.8, "title": "凯尔特伊比利亚人", "fontsize": 12, "tyid": "304001", "oid": "103:1576575205512", "color": "#262626" }, "geometry": { "type": "Point", "coordinates": [ -2.197266, 40.780541 ] } }
{ "type": "Feature", "tippecanoe": { "layer": "2AFCA0BEE2081583918756752", "minzoom": 2, "maxzoom": 8 }, "properties": { "halo": 0.8, "title": "巴斯塔尼人", "fontsize": 12, "tyid": "304001", "oid": "103:1576575205570", "color": "#262626" }, "geometry": { "type": "Point", "coordinates": [ -2.460938, 37.579413 ] } }
{ "type": "Feature", "tippecanoe": { "layer": "2AFCA0BEE2081583918756752", "minzoom": 2, "maxzoom": 8 }, "properties": { "halo": 0.8, "title": "达尔蒂奇特文化", "fontsize": 12, "tyid": "304002", "oid": "103:1576575205848", "color": "#262626" }, "geometry": { "type": "Point", "coordinates": [ -9.404297, 18.812718 ] } }
{ "type": "Feature", "tippecanoe": { "layer": "2AFCA0BEE2081583918756752", "minzoom": 2, "maxzoom": 8 }, "properties": { "halo": 0.8, "title": "楚真文化", "fontsize": 12, "tyid": "304002", "oid": "103:1576575205774", "color": "#262626" }, "geometry": { "type": "Point", "coordinates": [ -70.576172, -16.299051 ] } }
{ "type": "Feature", "tippecanoe": { "layer": "2AFCA0BEE2081583918756752", "minzoom": 2, "maxzoom": 8 }, "properties": { "halo": 0.8, "title": "普卡拉文化", "fontsize": 12, "tyid": "304002", "oid": "103:1576575205447", "color": "#262626" }, "geometry": { "type": "Point", "coordinates": [ -70.048828, -14.434680 ] } }
{ "type": "Feature", "tippecanoe": { "layer": "2AFCA0BEE2081583918756752", "minzoom": 2, "maxzoom": 8 }, "properties": { "halo": 0.8, "title": "艾马拉人", "fontsize": 12, "tyid": "304001", "oid": "103:1576575205854", "color": "#262626" }, "geometry": { "type": "Point", "coordinates": [ -68.378906, -17.056785 ] } }
{ "type": "Feature", "tippecanoe": { "layer": "2AFCA0BEE2081583918756752", "minzoom": 2, "maxzoom": 8 }, "properties": { "halo": 0.8, "title": "阿拉米托文化", "fontsize": 12, "tyid": "304002", "oid": "103:1576575205789", "color": "#262626" }, "geometry": { "type": "Point", "coordinates": [ -67.851562, -26.588527 ] } }
{ "type": "Feature", "tippecanoe": { "layer": "2AFCA0BEE2081583918756752", "minzoom": 2, "maxzoom": 8 }, "properties": { "halo": 0.8, "title": "安西尔塔文化", "fontsize": 12, "tyid": "304002", "oid": "103:1576575205589", "color": "#262626" }, "geometry": { "type": "Point", "coordinates": [ -68.818359, -31.353637 ] } }
{ "type": "Feature", "tippecanoe": { "layer": "2AFCA0BEE2081583918756752", "minzoom": 2, "maxzoom": 8 }, "properties": { "halo": 0.8, "title": "巴托文化", "fontsize": 12, "tyid": "304002", "oid": "103:1576575205846", "color": "#262626" }, "geometry": { "type": "Point", "coordinates": [ -70.839844, -33.431441 ] } }
{ "type": "Feature", "tippecanoe": { "layer": "2AFCA0BEE2081583918756752", "minzoom": 2, "maxzoom": 8 }, "properties": { "halo": 0.8, "title": "马普切人", "fontsize": 12, "tyid": "304001", "oid": "103:1576575205477", "color": "#262626" }, "geometry": { "type": "Point", "coordinates": [ -71.455078, -38.959409 ] } }
{ "type": "Feature", "tippecanoe": { "layer": "2AFCA0BEE2081583918756752", "minzoom": 2, "maxzoom": 8 }, "properties": { "halo": 0.8, "title": "摩克索人", "fontsize": 12, "tyid": "304001", "oid": "103:1576575205459", "color": "#262626" }, "geometry": { "type": "Point", "coordinates": [ -65.830078, -13.923404 ] } }
{ "type": "Feature", "tippecanoe": { "layer": "2AFCA0BEE2081583918756752", "minzoom": 2, "maxzoom": 8 }, "properties": { "halo": 0.8, "title": "瓦卡拉尼文化", "fontsize": 12, "tyid": "304002", "oid": "103:1576575205726", "color": "#262626" }, "geometry": { "type": "Point", "coordinates": [ -64.951172, -17.811456 ] } }
{ "type": "Feature", "tippecanoe": { "layer": "2AFCA0BEE2081583918756752", "minzoom": 2, "maxzoom": 8 }, "properties": { "halo": 0.8, "title": "康多拉瓦西文化", "fontsize": 12, "tyid": "304002", "oid": "103:1576575205817", "color": "#262626" }, "geometry": { "type": "Point", "coordinates": [ -66.708984, -27.293689 ] } }
{ "type": "Feature", "tippecanoe": { "layer": "2AFCA0BEE2081583918756752", "minzoom": 2, "maxzoom": 8 }, "properties": { "halo": 0.8, "title": "拉斯梅塞德斯文化", "fontsize": 12, "tyid": "304002", "oid": "103:1576575205711", "color": "#262626" }, "geometry": { "type": "Point", "coordinates": [ -63.808594, -27.605671 ] } }
{ "type": "Feature", "tippecanoe": { "layer": "2AFCA0BEE2081583918756752", "minzoom": 2, "maxzoom": 8 }, "properties": { "halo": 0.8, "title": "查鲁亚人", "fontsize": 12, "tyid": "304001", "oid": "103:1576575205541", "color": "#262626" }, "geometry": { "type": "Point", "coordinates": [ -57.128906, -32.398516 ] } }
{ "type": "Feature", "tippecanoe": { "layer": "2AFCA0BEE2081583918756752", "minzoom": 2, "maxzoom": 8 }, "properties": { "halo": 0.8, "title": "特胡尔切人", "fontsize": 12, "tyid": "304001", "oid": "103:1576575205730", "color": "#262626" }, "geometry": { "type": "Point", "coordinates": [ -70.751953, -50.176898 ] } }
{ "type": "Feature", "tippecanoe": { "layer": "2AFCA0BEE2081583918756752", "minzoom": 2, "maxzoom": 8 }, "properties": { "halo": 0.8, "title": "塞尔克南人", "fontsize": 12, "tyid": "304001", "oid": "103:1576575205736", "color": "#262626" }, "geometry": { "type": "Point", "coordinates": [ -68.378906, -53.696706 ] } }
{ "type": "Feature", "tippecanoe": { "layer": "2AFCA0BEE2081583918756752", "minzoom": 2, "maxzoom": 8 }, "properties": { "halo": 0.8, "title": "雅干人", "fontsize": 12, "tyid": "304001", "oid": "103:1576575205845", "color": "#262626" }, "geometry": { "type": "Point", "coordinates": [ -68.554688, -54.521081 ] } }
{ "type": "Feature", "tippecanoe": { "layer": "2AFCA0BEE2081583918756752", "minzoom": 2, "maxzoom": 8 }, "properties": { "halo": 0.8, "title": "屋瓮文化", "fontsize": 12, "tyid": "304002", "oid": "103:1576575205388", "color": "#262626" }, "geometry": { "type": "Point", "coordinates": [ 10.898438, 51.399206 ] } }
{ "type": "Feature", "tippecanoe": { "layer": "2AFCA0BEE2081583918756752", "minzoom": 2, "maxzoom": 8 }, "properties": { "halo": 0.8, "title": "伊勒格泰人", "fontsize": 12, "tyid": "304001", "oid": "103:1576575205362", "color": "#262626" }, "geometry": { "type": "Point", "coordinates": [ 0.351562, 42.228517 ] } }
{ "type": "Feature", "tippecanoe": { "layer": "2AFCA0BEE2081583918756752", "minzoom": 2, "maxzoom": 8 }, "properties": { "halo": 0.8, "title": "蕾蒂人", "fontsize": 12, "tyid": "304001", "oid": "103:1576575205501", "color": "#262626" }, "geometry": { "type": "Point", "coordinates": [ 10.546875, 47.100045 ] } }
{ "type": "Feature", "tippecanoe": { "layer": "2AFCA0BEE2081583918756752", "minzoom": 2, "maxzoom": 8 }, "properties": { "halo": 0.8, "title": "利古里亚人", "fontsize": 12, "tyid": "304002", "oid": "103:1576575205497", "color": "#262626" }, "geometry": { "type": "Point", "coordinates": [ 8.173828, 44.527843 ] } }
{ "type": "Feature", "tippecanoe": { "layer": "2AFCA0BEE2081583918756752", "minzoom": 2, "maxzoom": 8 }, "properties": { "halo": 0.8, "title": "亚斯托夫文化", "fontsize": 12, "tyid": "304002", "oid": "103:1576575205610", "color": "#262626" }, "geometry": { "type": "Point", "coordinates": [ 11.337891, 53.173119 ] } }
{ "type": "Feature", "tippecanoe": { "layer": "2AFCA0BEE2081583918756752", "minzoom": 2, "maxzoom": 8 }, "properties": { "halo": 0.8, "title": "波美拉尼亚文化", "fontsize": 12, "tyid": "304002", "oid": "103:1576575205792", "color": "#262626" }, "geometry": { "type": "Point", "coordinates": [ 17.490234, 53.696706 ] } }
{ "type": "Feature", "tippecanoe": { "layer": "2AFCA0BEE2081583918756752", "minzoom": 2, "maxzoom": 8 },