{ "type": "Feature", "tippecanoe": { "layer": "2B0999DB67B81572856868276", "minzoom": 2, "maxzoom": 10 }, "properties": { "color": "#15708D", "tyid": "301001", "oid": "103:1571623903747", "title": "泛大洋", "fontsize": 16, "offset": "[0,1.3]" }, "geometry": { "type": "Point", "coordinates": [ -90.175781, 30.069094 ] } }
{ "type": "Feature", "tippecanoe": { "layer": "2B0999DB67B81572856868276", "minzoom": 2, "maxzoom": 10 }, "properties": { "color": "#15708D", "tyid": "301001", "oid": "103:1571623903745", "title": "瑞亚克洋", "fontsize": 16, "offset": "[0,1.3]" }, "geometry": { "type": "Point", "coordinates": [ -94.921875, -38.616870 ] } }
{ "type": "Feature", "tippecanoe": { "layer": "2B0999DB67B81572856868276", "minzoom": 2, "maxzoom": 10 }, "properties": { "fontsize": 16, "color": "#333333", "tyid": "300001", "oid": "103:1571623896908", "title": "欧美大陆" }, "geometry": { "type": "Point", "coordinates": [ -4.833984, -17.392579 ] } }
{ "type": "Feature", "tippecanoe": { "layer": "2B0999DB67B81572856868276", "minzoom": 2, "maxzoom": 10 }, "properties": { "fontsize": 16, "color": "#333333", "tyid": "300001", "oid": "103:1571623896909", "title": "西伯利亚大陆" }, "geometry": { "type": "Point", "coordinates": [ 4.746094, 31.128199 ] } }
{ "type": "Feature", "tippecanoe": { "layer": "2B0999DB67B81572856868276", "minzoom": 2, "maxzoom": 10 }, "properties": { "color": "#15708D", "tyid": "301001", "oid": "103:1571623903743", "title": "古特提斯洋", "fontsize": 16, "offset": "[0,1.3]" }, "geometry": { "type": "Point", "coordinates": [ 49.042969, -31.203405 ] } }
{ "type": "Feature", "tippecanoe": { "layer": "2B0999DB67B81572856868276", "minzoom": 2, "maxzoom": 10 }, "properties": { "fontsize": 16, "color": "#333333", "tyid": "300001", "oid": "103:1571623896906", "title": "冈瓦那大陆" }, "geometry": { "type": "Point", "coordinates": [ 96.152344, -63.114638 ] } }
