{ "type": "Feature", "tippecanoe": { "layer": "2AFCA05305501583918836348", "minzoom": 2, "maxzoom": 8 }, "properties": { "tyid": "410000", "centroid": "{\"type\":\"Point\",\"coordinates\":[102.890655519,50.32448578]}", "opacity": 1, "oid": "103:1582721307215", "color": "#A11300", "width": 3 }, "geometry": { "type": "MultiLineString", "coordinates": [ [ [ 108.017578, 21.616579 ], [ 106.611328, 22.024546 ], [ 106.523438, 22.512557 ], [ 106.699219, 22.836946 ], [ 105.820312, 22.998852 ], [ 105.205078, 23.402765 ], [ 103.886719, 22.512557 ], [ 103.535156, 22.836946 ], [ 103.183594, 22.105999 ], [ 102.480469, 22.512557 ], [ 101.777344, 21.861499 ], [ 101.689453, 21.207459 ], [ 101.162109, 21.207459 ], [ 100.986328, 21.779905 ], [ 100.195312, 21.534847 ], [ 99.843750, 22.105999 ], [ 99.140625, 22.187405 ], [ 99.228516, 22.917923 ], [ 98.437500, 23.079732 ], [ 98.701172, 23.402765 ], [ 98.349609, 23.966176 ], [ 98.525391, 24.206890 ], [ 97.294922, 23.805450 ], [ 97.470703, 25.324167 ], [ 98.261719, 26.431228 ], [ 98.701172, 26.667096 ], [ 98.613281, 27.605671 ], [ 98.261719, 27.605671 ], [ 98.085938, 28.226970 ], [ 97.558594, 28.536275 ], [ 97.031250, 27.761330 ], [ 96.240234, 28.304381 ], [ 95.625000, 28.304381 ], [ 94.218750, 27.605671 ], [ 93.691406, 27.059126 ], [ 92.988281, 26.902477 ], [ 92.021484, 26.902477 ], [ 92.109375, 27.371767 ], [ 91.494141, 27.605671 ], [ 91.494141, 27.916767 ], [ 90.791016, 28.071980 ] ], [ [ 130.605469, 42.293564 ], [ 130.166016, 42.940339 ], [ 129.814453, 43.004647 ], [ 129.638672, 42.488302 ], [ 129.287109, 42.423457 ], [ 128.847656, 42.032974 ], [ 127.968750, 42.032974 ], [ 128.232422, 41.574361 ], [ 128.056641, 41.442726 ], [ 127.177734, 41.508577 ], [ 126.826172, 41.836828 ], [ 125.947266, 40.913513 ], [ 124.804688, 40.513799 ], [ 124.277344, 40.044438 ] ], [ [ 135.263672, 54.775346 ], [ 132.978516, 54.162434 ], [ 130.517578, 54.110943 ], [ 131.835938, 54.927142 ], [ 131.044922, 55.677584 ], [ 129.462891, 55.776573 ], [ 128.759766, 55.528631 ], [ 127.705078, 55.727110 ], [ 126.123047, 55.627996 ], [ 125.859375, 55.825973 ], [ 124.804688, 55.924586 ], [ 123.134766, 54.775346 ], [ 121.376953, 54.265224 ], [ 121.025391, 54.521081 ], [ 120.234375, 54.162434 ], [ 119.267578, 54.007769 ], [ 119.003906, 53.383328 ], [ 119.179688, 53.120405 ], [ 120.058594, 53.488046 ], [ 121.201172, 53.540307 ], [ 121.376953, 53.383328 ], [ 120.761719, 53.278353 ], [ 119.970703, 52.802761 ], [ 120.058594, 52.589701 ], [ 120.673828, 52.536273 ], [ 120.673828, 51.998410 ], [ 120.058594, 51.672555 ], [ 119.091797, 50.401515 ], [ 119.355469, 50.401515 ], [ 119.267578, 50.120578 ], [ 118.037109, 49.610710 ], [ 116.191406, 50.064192 ], [ 115.312500, 49.951220 ], [ 114.960938, 50.233152 ], [ 114.257812, 50.289339 ], [ 112.675781, 49.496675 ], [ 110.654297, 49.152970 ], [ 108.457031, 49.382373 ], [ 107.929688, 49.724479 ], [ 107.929688, 49.951220 ], [ 107.050781, 50.064192 ], [ 106.523438, 50.345460 ], [ 105.292969, 50.513427 ], [ 103.974609, 50.176898 ], [ 103.271484, 50.233152 ], [ 102.216797, 50.625073 ], [ 102.041016, 51.399206 ], [ 98.964844, 52.106505 ], [ 98.613281, 52.482780 ], [ 98.876953, 52.908902 ], [ 99.140625, 52.961875 ], [ 98.789062, 53.173119 ], [ 98.173828, 53.120405 ], [ 96.767578, 53.800651 ], [ 96.416016, 53.592505 ], [ 94.658203, 53.435719 ], [ 94.394531, 52.961875 ], [ 94.130859, 52.908902 ], [ 93.515625, 52.214339 ], [ 92.812500, 51.890054 ], [ 91.054688, 51.890054 ], [ 90.175781, 52.696361 ], [ 87.802734, 53.383328 ], [ 86.396484, 53.173119 ], [ 86.132812, 52.908902 ], [ 83.056641, 51.618017 ], [ 82.617188, 51.179343 ], [ 83.056641, 50.958427 ], [ 83.232422, 50.513427 ], [ 82.529297, 49.724479 ], [ 82.529297, 49.325122 ], [ 81.298828, 48.690960 ], [ 81.035156, 48.166085 ], [ 79.628906, 47.694974 ], [ 79.453125, 46.800059 ], [ 78.750000, 46.800059 ], [ 78.750000, 46.619261 ], [ 78.574219, 46.800059 ], [ 78.222656, 46.498392 ], [ 77.783203, 46.679594 ], [ 74.531250, 46.800059 ], [ 73.564453, 46.134170 ], [ 73.388672, 45.706179 ], [ 72.070312, 44.964798 ], [ 70.488281, 44.402392 ], [ 69.521484, 43.452919 ], [ 70.927734, 42.293564 ], [ 73.212891, 42.163403 ], [ 73.916016, 41.836828 ], [ 74.003906, 41.574361 ], [ 73.300781, 41.508577 ], [ 73.828125, 41.046217 ], [ 73.212891, 40.847060 ], [ 72.949219, 40.446947 ], [ 73.125000, 40.044438 ], [ 72.773438, 39.842286 ], [ 72.861328, 39.368279 ], [ 72.421875, 39.436193 ], [ 72.070312, 39.095963 ], [ 72.246094, 38.548165 ], [ 71.894531, 38.272689 ], [ 72.158203, 37.649034 ], [ 71.718750, 36.738884 ], [ 73.476562, 37.509726 ], [ 73.740234, 37.439974 ], [ 73.740234, 37.160317 ], [ 74.531250, 37.090240 ], [ 75.673828, 36.385913 ], [ 75.761719, 36.031332 ], [ 74.882812, 35.817813 ], [ 75.322266, 35.173808 ], [ 75.146484, 34.669359 ], [ 76.113281, 33.578015 ], [ 77.080078, 32.990236 ], [ 77.080078, 32.472695 ], [ 77.871094, 31.802893 ], [ 78.662109, 31.728167 ], [ 79.013672, 31.052934 ], [ 79.892578, 30.826781 ], [ 80.683594, 30.145127 ], [ 82.001953, 30.145127 ], [ 83.583984, 29.228890 ], [ 83.935547, 29.305561 ], [ 84.462891, 28.536275 ], [ 85.605469, 28.226970 ], [ 85.869141, 27.916767 ], [ 87.714844, 27.839076 ], [ 88.681641, 28.071980 ], [ 88.945312, 27.215556 ], [ 89.560547, 28.226970 ], [ 90.791016, 28.071980 ] ] ] } }
{ "type": "Feature", "tippecanoe": { "layer": "2AFCA05305501583918836348", "minzoom": 2, "maxzoom": 8 }, "properties": { "tyid": "410000", "centroid": "{\"type\":\"Point\",\"coordinates\":[118.9965612163,11.9748626986]}", "opacity": 1, "oid": "103:1582721307213", "color": "#A11300", "width": 3 }, "geometry": { "type": "MultiLineString", "coordinates": [ [ [ 122.695312, 24.447150 ], [ 122.431641, 23.402765 ] ], [ [ 120.849609, 20.550509 ], [ 121.728516, 21.616579 ] ], [ [ 119.355469, 17.727759 ], [ 119.794922, 18.895893 ] ], [ [ 118.916016, 14.689881 ], [ 118.916016, 16.045813 ] ], [ [ 118.476562, 10.833306 ], [ 119.003906, 12.039321 ] ], [ [ 115.312500, 7.013668 ], [ 116.191406, 8.059230 ] ], [ [ 111.708984, 3.425692 ], [ 112.939453, 3.864255 ] ], [ [ 108.281250, 5.965754 ], [ 108.193359, 7.362467 ] ], [ [ 110.039062, 11.264612 ], [ 110.214844, 12.468760 ] ], [ [ 109.775391, 15.029686 ], [ 109.248047, 16.214675 ] ] ] } }
{ "type": "Feature", "tippecanoe": { "layer": "2AFCA0530D681583918836344", "minzoom": 2, "maxzoom": 8 }, "properties": { "halo": 1.6, "title": "拉霍亚文化", "fontsize": 12, "tyid": "304002", "oid": "103:1576575174818", "color": "#0056E7" }, "geometry": { "type": "Point", "coordinates": [ -118.916016, 34.597042 ] } }
{ "type": "Feature", "tippecanoe": { "layer": "2AFCA0530D681583918836344", "minzoom": 2, "maxzoom": 8 }, "properties": { "halo": 1.6, "title": "古普韦布洛人", "fontsize": 12, "tyid": "304001", "oid": "103:1576575174793", "color": "#0056E7" }, "geometry": { "type": "Point", "coordinates": [ -110.126953, 36.949892 ] } }
{ "type": "Feature", "tippecanoe": { "layer": "2AFCA0530D681583918836344", "minzoom": 2, "maxzoom": 8 }, "properties": { "halo": 1.6, "title": "科奇斯文化", "fontsize": 12, "tyid": "304002", "oid": "103:1576575174635", "color": "#0056E7" }, "geometry": { "type": "Point", "coordinates": [ -110.039062, 32.249974 ] } }
{ "type": "Feature", "tippecanoe": { "layer": "2AFCA0530D681583918836344", "minzoom": 2, "maxzoom": 8 }, "properties": { "halo": 1.6, "title": "奇瓦瓦文化", "fontsize": 12, "tyid": "304002", "oid": "103:1576575174389", "color": "#0056E7" }, "geometry": { "type": "Point", "coordinates": [ -107.226562, 32.768800 ] } }
{ "type": "Feature", "tippecanoe": { "layer": "2AFCA0530D681583918836344", "minzoom": 2, "maxzoom": 8 }, "properties": { "halo": 1.6, "title": "奥沙拉文化", "fontsize": 12, "tyid": "304002", "oid": "103:1576575174511", "color": "#0056E7" }, "geometry": { "type": "Point", "coordinates": [ -106.699219, 37.579413 ] } }
{ "type": "Feature", "tippecanoe": { "layer": "2AFCA0530D681583918836344", "minzoom": 2, "maxzoom": 8 }, "properties": { "halo": 1.6, "title": "瓜伊库拉人", "fontsize": 12, "tyid": "304001", "oid": "103:1576575174687", "color": "#0056E7" }, "geometry": { "type": "Point", "coordinates": [ -111.269531, 24.846565 ] } }
{ "type": "Feature", "tippecanoe": { "layer": "2AFCA0530D681583918836344", "minzoom": 2, "maxzoom": 8 }, "properties": { "halo": 1.6, "title": "楚拉时期", "fontsize": 12, "tyid": "304002", "oid": "103:1576575174682", "color": "#0056E7" }, "geometry": { "type": "Point", "coordinates": [ -92.109375, 32.620870 ] } }
{ "type": "Feature", "tippecanoe": { "layer": "2AFCA0530D681583918836344", "minzoom": 2, "maxzoom": 8 }, "properties": { "halo": 1.6, "title": "华斯塔克文明", "fontsize": 12, "tyid": "304002", "oid": "103:1576575174570", "color": "#0056E7" }, "geometry": { "type": "Point", "coordinates": [ -98.613281, 22.105999 ] } }
{ "type": "Feature", "tippecanoe": { "layer": "2AFCA0530D681583918836344", "minzoom": 2, "maxzoom": 8 }, "properties": { "halo": 1.6, "title": "奇蒂玛察人", "fontsize": 12, "tyid": "304001", "oid": "103:1576575174824", "color": "#0056E7" }, "geometry": { "type": "Point", "coordinates": [ -91.054688, 30.372875 ] } }
{ "type": "Feature", "tippecanoe": { "layer": "2AFCA0530D681583918836344", "minzoom": 2, "maxzoom": 8 }, "properties": { "halo": 1.6, "title": "埃尔欧朋文化", "fontsize": 12, "tyid": "304002", "oid": "103:1576575174526", "color": "#0056E7" }, "geometry": { "type": "Point", "coordinates": [ -101.865234, 19.642588 ] } }
{ "type": "Feature", "tippecanoe": { "layer": "2AFCA0530D681583918836344", "minzoom": 2, "maxzoom": 8 }, "properties": { "halo": 1.6, "title": "梅斯卡拉文化", "fontsize": 12, "tyid": "304002", "oid": "103:1576575174408", "color": "#0056E7" }, "geometry": { "type": "Point", "coordinates": [ -100.810547, 17.895114 ] } }
{ "type": "Feature", "tippecanoe": { "layer": "2AFCA0530D681583918836344", "minzoom": 2, "maxzoom": 8 }, "properties": { "halo": 1.6, "title": "萨波特克文明", "fontsize": 12, "tyid": "304002", "oid": "103:1576575174662", "color": "#0056E7" }, "geometry": { "type": "Point", "coordinates": [ -96.064453, 16.636192 ] } }
{ "type": "Feature", "tippecanoe": { "layer": "2AFCA0530D681583918836344", "minzoom": 2, "maxzoom": 8 }, "properties": { "halo": 1.6, "title": "奥尔梅克文明", "fontsize": 12, "tyid": "304002", "oid": "103:1576575174514", "color": "#0056E7" }, "geometry": { "type": "Point", "coordinates": [ -94.042969, 17.727759 ] } }
{ "type": "Feature", "tippecanoe": { "layer": "2AFCA0530D681583918836344", "minzoom": 2, "maxzoom": 8 }, "properties": { "halo": 1.6, "title": "德普特福德文化", "fontsize": 12, "tyid": "304002", "oid": "103:1576575174458", "color": "#0056E7" }, "geometry": { "type": "Point", "coordinates": [ -79.628906, 33.358062 ] } }
{ "type": "Feature", "tippecanoe": { "layer": "2AFCA0530D681583918836344", "minzoom": 2, "maxzoom": 8 }, "properties": { "halo": 1.6, "title": "切格文特文化", "fontsize": 12, "tyid": "304002", "oid": "103:1576575174826", "color": "#0056E7" }, "geometry": { "type": "Point", "coordinates": [ -89.208984, 30.600094 ] } }
{ "type": "Feature", "tippecanoe": { "layer": "2AFCA0530D681583918836344", "minzoom": 2, "maxzoom": 8 }, "properties": { "halo": 1.6, "title": "玛雅文明[前古典时期]", "fontsize": 12, "tyid": "304002", "oid": "103:1576575174414", "color": "#0056E7" }, "geometry": { "type": "Point", "coordinates": [ -89.296875, 17.140790 ] } }
{ "type": "Feature", "tippecanoe": { "layer": "2AFCA0530D681583918836344", "minzoom": 2, "maxzoom": 8 }, "properties": { "halo": 1.6, "title": "科瑞尔文化", "fontsize": 12, "tyid": "304002", "oid": "103:1576575174442", "color": "#0056E7" }, "geometry": { "type": "Point", "coordinates": [ -79.013672, 0.351560 ] } }
{ "type": "Feature", "tippecanoe": { "layer": "2AFCA0530D681583918836344", "minzoom": 2, "maxzoom": 8 }, "properties": { "halo": 1.6, "title": "拉托利塔文化", "fontsize": 12, "tyid": "304002", "oid": "103:1576575174438", "color": "#0056E7" }, "geometry": { "type": "Point", "coordinates": [ -78.046875, 1.757537 ] } }
{ "type": "Feature", "tippecanoe": { "layer": "2AFCA0530D681583918836344", "minzoom": 2, "maxzoom": 8 }, "properties": { "halo": 1.6, "title": "埃雷拉时期", "fontsize": 12, "tyid": "304002", "oid": "103:1576575174522", "color": "#0056E7" }, "geometry": { "type": "Point", "coordinates": [ -73.476562, 5.441022 ] } }
{ "type": "Feature", "tippecanoe": { "layer": "2AFCA0530D681583918836344", "minzoom": 2, "maxzoom": 8 }, "properties": { "halo": 1.6, "title": "伊奈里人", "fontsize": 12, "tyid": "304001", "oid": "103:1576575174318", "color": "#0056E7" }, "geometry": { "type": "Point", "coordinates": [ -61.611328, 8.841651 ] } }
{ "type": "Feature", "tippecanoe": { "layer": "2AFCA0530D681583918836344", "minzoom": 2, "maxzoom": 8 }, "properties": { "halo": 1.6, "title": "皮克特人", "fontsize": 12, "tyid": "304001", "oid": "103:1576575174677", "color": "#0056E7" }, "geometry": { "type": "Point", "coordinates": [ -4.042969, 56.704506 ] } }
{ "type": "Feature", "tippecanoe": { "layer": "2AFCA0530D681583918836344", "minzoom": 2, "maxzoom": 8 }, "properties": { "halo": 1.6, "title": "盖尔人", "fontsize": 12, "tyid": "304001", "oid": "103:1576575174609", "color": "#0056E7" }, "geometry": { "type": "Point", "coordinates": [ -7.910156, 53.435719 ] } }
{ "type": "Feature", "tippecanoe": { "layer": "2AFCA0530D681583918836344", "minzoom": 2, "maxzoom": 8 }, "properties": { "halo": 1.6, "title": "加利西亚人", "fontsize": 12, "tyid": "304001", "oid": "103:1576575174894", "color": "#0056E7" }, "geometry": { "type": "Point", "coordinates": [ -7.998047, 42.488302 ] } }
{ "type": "Feature", "tippecanoe": { "layer": "2AFCA0530D681583918836344", "minzoom": 2, "maxzoom": 8 }, "properties": { "halo": 1.6, "title": "阿斯图尔人", "fontsize": 12, "tyid": "304001", "oid": "103:1576575174524", "color": "#0056E7" }, "geometry": { "type": "Point", "coordinates": [ -6.152344, 42.553080 ] } }
{ "type": "Feature", "tippecanoe": { "layer": "2AFCA0530D681583918836344", "minzoom": 2, "maxzoom": 8 }, "properties": { "halo": 1.6, "title": "卡斯特罗文化", "fontsize": 12, "tyid": "304002", "oid": "103:1576575174452", "color": "#0056E7" }, "geometry": { "type": "Point", "coordinates": [ -4.394531, 43.068888 ] } }
{ "type": "Feature", "tippecanoe": { "layer": "2AFCA0530D681583918836344", "minzoom": 2, "maxzoom": 8 }, "properties": { "halo": 1.6, "title": "瓦凯伊人", "fontsize": 12, "tyid": "304001", "oid": "103:1576575174356", "color": "#0056E7" }, "geometry": { "type": "Point", "coordinates": [ -4.658203, 41.640078 ] } }
{ "type": "Feature", "tippecanoe": { "layer": "2AFCA0530D681583918836344", "minzoom": 2, "maxzoom": 8 }, "properties": { "halo": 1.6, "title": "阿奎丹人", "fontsize": 12, "tyid": "304001", "oid": "103:1576575174527", "color": "#0056E7" }, "geometry": { "type": "Point", "coordinates": [ -0.175781, 43.834527 ] } }
{ "type": "Feature", "tippecanoe": { "layer": "2AFCA0530D681583918836344", "minzoom": 2, "maxzoom": 8 }, "properties": { "halo": 1.6, "title": "卢西塔利亚人", "fontsize": 12, "tyid": "304001", "oid": "103:1576575174426", "color": "#0056E7" }, "geometry": { "type": "Point", "coordinates": [ -7.646484, 40.313043 ] } }
{ "type": "Feature", "tippecanoe": { "layer": "2AFCA0530D681583918836344", "minzoom": 2, "maxzoom": 8 }, "properties": { "halo": 1.6, "title": "凯蒂奇人", "fontsize": 12, "tyid": "304001", "oid": "103:1576575174893", "color": "#0056E7" }, "geometry": { "type": "Point", "coordinates": [ -7.646484, 38.959409 ] } }
{ "type": "Feature", "tippecanoe": { "layer": "2AFCA0530D681583918836344", "minzoom": 2, "maxzoom": 8 }, "properties": { "halo": 1.6, "title": "维托内人", "fontsize": 12, "tyid": "304001", "oid": "103:1576575174354", "color": "#0056E7" }, "geometry": { "type": "Point", "coordinates": [ -5.800781, 40.313043 ] } }
{ "type": "Feature", "tippecanoe": { "layer": "2AFCA0530D681583918836344", "minzoom": 2, "maxzoom": 8 }, "properties": { "halo": 1.6, "title": "西尼特人", "fontsize": 12, "tyid": "304001", "oid": "103:1576575174889", "color": "#0056E7" }, "geometry": { "type": "Point", "coordinates": [ -8.261719, 37.649034 ] } }
{ "type": "Feature", "tippecanoe": { "layer": "2AFCA0530D681583918836344", "minzoom": 2, "maxzoom": 8 }, "properties": { "halo": 1.6, "title": "图尔杜利人", "fontsize": 12, "tyid": "304001", "oid": "103:1576575174360", "color": "#0056E7" }, "geometry": { "type": "Point", "coordinates": [ -6.855469, 38.479395 ] } }
{ "type": "Feature", "tippecanoe": { "layer": "2AFCA0530D681583918836344", "minzoom": 2, "maxzoom": 8 }, "properties": { "halo": 1.6, "title": "卡佩塔尼人", "fontsize": 12, "tyid": "304001", "oid": "103:1576575174453", "color": "#0056E7" }, "geometry": { "type": "Point", "coordinates": [ -3.955078, 39.977120 ] } }
{ "type": "Feature", "tippecanoe": { "layer": "2AFCA0530D681583918836344", "minzoom": 2, "maxzoom": 8 }, "properties": { "halo": 1.6, "title": "图尔德泰尼人", "fontsize": 12, "tyid": "304001", "oid": "103:1576575174553", "color": "#0056E7" }, "geometry": { "type": "Point", "coordinates": [ -5.097656, 37.718590 ] } }
{ "type": "Feature", "tippecanoe": { "layer": "2AFCA0530D681583918836344", "minzoom": 2, "maxzoom": 8 }, "properties": { "halo": 1.6, "title": "奥雷塔尼人", "fontsize": 12, "tyid": "304001", "oid": "103:1576575174512", "color": "#0056E7" }, "geometry": { "type": "Point", "coordinates": [ -3.251953, 38.548165 ] } }
{ "type": "Feature", "tippecanoe": { "layer": "2AFCA0530D681583918836344", "minzoom": 2, "maxzoom": 8 }, "properties": { "halo": 1.6, "title": "凯尔特伊比利亚人", "fontsize": 12, "tyid": "304001", "oid": "103:1576575174445", "color": "#0056E7" }, "geometry": { "type": "Point", "coordinates": [ -2.197266, 40.780541 ] } }
{ "type": "Feature", "tippecanoe": { "layer": "2AFCA0530D681583918836344", "minzoom": 2, "maxzoom": 8 }, "properties": { "halo": 1.6, "title": "巴斯塔尼人", "fontsize": 12, "tyid": "304001", "oid": "103:1576575174498", "color": "#0056E7" }, "geometry": { "type": "Point", "coordinates": [ -2.460938, 37.579413 ] } }
{ "type": "Feature", "tippecanoe": { "layer": "2AFCA0530D681583918836344", "minzoom": 2, "maxzoom": 8 }, "properties": { "halo": 1.6, "title": "达尔蒂奇特文化", "fontsize": 12, "tyid": "304002", "oid": "103:1576575174760", "color": "#0056E7" }, "geometry": { "type": "Point", "coordinates": [ -9.404297, 18.812718 ] } }
{ "type": "Feature", "tippecanoe": { "layer": "2AFCA0530D681583918836344", "minzoom": 2, "maxzoom": 8 }, "properties": { "halo": 1.6, "title": "楚真文化", "fontsize": 12, "tyid": "304002", "oid": "103:1576575174693", "color": "#0056E7" }, "geometry": { "type": "Point", "coordinates": [ -70.576172, -16.299051 ] } }
{ "type": "Feature", "tippecanoe": { "layer": "2AFCA0530D681583918836344", "minzoom": 2, "maxzoom": 8 }, "properties": { "halo": 1.6, "title": "普卡拉文化", "fontsize": 12, "tyid": "304002", "oid": "103:1576575174391", "color": "#0056E7" }, "geometry": { "type": "Point", "coordinates": [ -70.048828, -14.434680 ] } }
{ "type": "Feature", "tippecanoe": { "layer": "2AFCA0530D681583918836344", "minzoom": 2, "maxzoom": 8 }, "properties": { "halo": 1.6, "title": "艾马拉人", "fontsize": 12, "tyid": "304001", "oid": "103:1576575174768", "color": "#0056E7" }, "geometry": { "type": "Point", "coordinates": [ -68.378906, -17.056785 ] } }
{ "type": "Feature", "tippecanoe": { "layer": "2AFCA0530D681583918836344", "minzoom": 2, "maxzoom": 8 }, "properties": { "halo": 1.6, "title": "安西尔塔文化", "fontsize": 12, "tyid": "304002", "oid": "103:1576575174519", "color": "#0056E7" }, "geometry": { "type": "Point", "coordinates": [ -68.818359, -31.353637 ] } }
{ "type": "Feature", "tippecanoe": { "layer": "2AFCA0530D681583918836344", "minzoom": 2, "maxzoom": 8 }, "properties": { "halo": 1.6, "title": "巴托文化", "fontsize": 12, "tyid": "304002", "oid": "103:1576575174759", "color": "#0056E7" }, "geometry": { "type": "Point", "coordinates": [ -70.839844, -33.431441 ] } }
{ "type": "Feature", "tippecanoe": { "layer": "2AFCA0530D681583918836344", "minzoom": 2, "maxzoom": 8 }, "properties": { "halo": 1.6, "title": "马普切人", "fontsize": 12, "tyid": "304001", "oid": "103:1576575174417", "color": "#0056E7" }, "geometry": { "type": "Point", "coordinates": [ -71.455078, -38.959409 ] } }
{ "type": "Feature", "tippecanoe": { "layer": "2AFCA0530D681583918836344", "minzoom": 2, "maxzoom": 8 }, "properties": { "halo": 1.6, "title": "摩克索人", "fontsize": 12, "tyid": "304001", "oid": "103:1576575174401", "color": "#0056E7" }, "geometry": { "type": "Point", "coordinates": [ -65.830078, -13.923404 ] } }
{ "type": "Feature", "tippecanoe": { "layer": "2AFCA0530D681583918836344", "minzoom": 2, "maxzoom": 8 }, "properties": { "halo": 1.6, "title": "瓦卡拉尼文化", "fontsize": 12, "tyid": "304002", "oid": "103:1576575174647", "color": "#0056E7" }, "geometry": { "type": "Point", "coordinates": [ -64.951172, -17.811456 ] } }
{ "type": "Feature", "tippecanoe": { "layer": "2AFCA0530D681583918836344", "minzoom": 2, "maxzoom": 8 }, "properties": { "halo": 1.6, "title": "查鲁亚人", "fontsize": 12, "tyid": "304001", "oid": "103:1576575174472", "color": "#0056E7" }, "geometry": { "type": "Point", "coordinates": [ -57.128906, -32.398516 ] } }
{ "type": "Feature", "tippecanoe": { "layer": "2AFCA0530D681583918836344", "minzoom": 2, "maxzoom": 8 }, "properties": { "halo": 1.6, "title": "特胡尔切人", "fontsize": 12, "tyid": "304001", "oid": "103:1576575174651", "color": "#0056E7" }, "geometry": { "type": "Point", "coordinates": [ -70.751953, -50.176898 ] } }
{ "type": "Feature", "tippecanoe": { "layer": "2AFCA0530D681583918836344", "minzoom": 2, "maxzoom": 8 }, "properties": { "halo": 1.6, "title": "塞尔克南人", "fontsize": 12, "tyid": "304001", "oid": "103:1576575174657", "color": "#0056E7" }, "geometry": { "type": "Point", "coordinates": [ -68.378906, -53.696706 ] } }
{ "type": "Feature", "tippecanoe": { "layer": "2AFCA0530D681583918836344", "minzoom": 2, "maxzoom": 8 }, "properties": { "halo": 1.6, "title": "雅干人", "fontsize": 12, "tyid": "304001", "oid": "103:1576575174758", "color": "#0056E7" }, "geometry": { "type": "Point", "coordinates": [ -68.554688, -54.521081 ] } }
{ "type": "Feature", "tippecanoe": { "layer": "2AFCA0530D681583918836344", "minzoom": 2, "maxzoom": 8 }, "properties": { "halo": 1.6, "title": "屋瓮文化", "fontsize": 12, "tyid": "304002", "oid": "103:1576575174344", "color": "#0056E7" }, "geometry": { "type": "Point", "coordinates": [ 10.898438, 51.399206 ] } }
{ "type": "Feature", "tippecanoe": { "layer": "2AFCA0530D681583918836344", "minzoom": 2, "maxzoom": 8 }, "properties": { "halo": 1.6, "title": "伊勒格泰人", "fontsize": 12, "tyid": "304001", "oid": "103:1576575174321", "color": "#0056E7" }, "geometry": { "type": "Point", "coordinates": [ 0.351562, 42.228517 ] } }
{ "type": "Feature", "tippecanoe": { "layer": "2AFCA0530D681583918836344", "minzoom": 2, "maxzoom": 8 }, "properties": { "halo": 1.6, "title": "蕾蒂人", "fontsize": 12, "tyid": "304001", "oid": "103:1576575174436", "color": "#0056E7" }, "geometry": { "type": "Point", "coordinates": [ 10.546875, 47.100045 ] } }
{ "type": "Feature", "tippecanoe": { "layer": "2AFCA0530D681583918836344", "minzoom": 2, "maxzoom": 8 }, "properties": { "halo": 1.6, "title": "利古里亚人", "fontsize": 12, "tyid": "304002", "oid": "103:1576575174434", "color": "#0056E7" }, "geometry": { "type": "Point", "coordinates": [ 8.173828, 44.527843 ] } }
{ "type": "Feature", "tippecanoe": { "layer": "2AFCA0530D681583918836344", "minzoom": 2, "maxzoom": 8 }, "properties": { "halo": 1.6, "title": "亚斯托夫文化", "fontsize": 12, "tyid": "304002", "oid": "103:1576575174540", "color": "#0056E7" }, "geometry": { "type": "Point", "coordinates": [ 11.337891, 53.173119 ] } }
{ "type": "Feature", "tippecanoe": { "layer": "2AFCA0530D681583918836344", "minzoom": 2, "maxzoom": 8 }, "properties": { "halo": 1.6, "title": "波美拉尼亚文化", "fontsize": 12, "tyid": "304002", "oid": "103:1576575174709", "color": "#0056E7" }, "geometry": { "type": "Point", "coordinates": [ 17.490234, 53.696706 ] } }
{ "type": "Feature", "tippecanoe": { "layer": "2AFCA0530D681583918836344", "minzoom": 2, "maxzoom": 8 }, "properties": { "halo": 1.6, "title": "西波罗的海坟文化", "fontsize": 12, "tyid": "304002", "oid": "103:1576575174337", "color": "#0056E7" }, "geometry": { "type": "Point", "coordinates": [ 21.708984, 54.213861 ] } }
{ "type": "Feature", "tippecanoe": { "layer": "2AFCA0530D681583918836344", "minzoom": 2, "maxzoom": 8 }, "properties": { "halo": 1.6, "title": "威尼蒂人[亚得里亚海]", "fontsize": 12, "tyid": "304001", "oid": "103:1576575174546", "color": "#0056E7" }, "geometry": { "type": "Point", "coordinates": [ 12.041016, 45.767523 ] } }
{ "type": "Feature", "tippecanoe": { "layer": "2AFCA0530D681583918836344", "minzoom": 2, "maxzoom": 8 }, "properties": { "halo": 1.6, "title": "伊特鲁里亚文明", "fontsize": 12, "tyid": "304002", "oid": "103:1576575174881", "color": "#0056E7" }, "geometry": { "type": "Point", "coordinates": [ 11.250000, 43.834527 ] } }
{ "type": "Feature", "tippecanoe": { "layer": "2AFCA0530D681583918836344", "minzoom": 2, "maxzoom": 8 }, "properties": { "halo": 1.6, "title": "萨莫奈人", "fontsize": 12, "tyid": "304001", "oid": "103:1576575174380", "color": "#0056E7" }, "geometry": { "type": "Point", "coordinates": [ 14.501953, 41.310824 ] } }
{ "type": "Feature", "tippecanoe": { "layer": "2AFCA0530D681583918836344", "minzoom": 2, "maxzoom": 8 }, "properties": { "halo": 1.8, "title": "伊利里亚人", "fontsize": 12, "tyid": "304000", "oid": "103:1576575174319", "color": "#0056E7" }, "geometry": { "type": "Point", "coordinates": [ 17.841797, 43.834527 ] } }
{ "type": "Feature", "tippecanoe": { "layer": "2AFCA0530D681583918836344", "minzoom": 2, "maxzoom": 8 }, "properties": { "halo": 1.6, "title": "达尔达尼亚人", "fontsize": 12, "tyid": "304001", "oid": "103:1576575174462", "color": "#0056E7" }, "geometry": { "type": "Point", "coordinates": [ 21.533203, 43.644026 ] } }
{ "type": "Feature", "tippecanoe": { "layer": "2AFCA0530D681583918836344", "minzoom": 2, "maxzoom": 8 }, "properties": { "halo": 1.6, "title": "古爱沙尼亚人", "fontsize": 12, "tyid": "304001", "oid": "103:1576575174804", "color": "#0056E7" }, "geometry": { "type": "Point", "coordinates": [ 25.576172, 58.995311 ] } }
{ "type": "Feature", "tippecanoe": { "layer": "2AFCA0530D681583918836344", "minzoom": 2, "maxzoom": 8 }, "properties": { "halo": 1.6, "title": "利沃尼亚人", "fontsize": 12, "tyid": "304001", "oid": "103:1576575174431", "color": "#0056E7" }, "geometry": { "type": "Point", "coordinates": [ 26.279297, 57.231503 ] } }
{ "type": "Feature", "tippecanoe": { "layer": "2AFCA0530D681583918836344", "minzoom": 2, "maxzoom": 8 }, "properties": { "halo": 1.6, "title": "沃茨人", "fontsize": 12, "tyid": "304001", "oid": "103:1576575174350", "color": "#0056E7" }, "geometry": { "type": "Point", "coordinates": [ 29.794922, 59.040555 ] } }
{ "type": "Feature", "tippecanoe": { "layer": "2AFCA0530D681583918836344", "minzoom": 2, "maxzoom": 8 }, "properties": { "halo": 1.6, "title": "卡累利阿文化", "fontsize": 12, "tyid": "304002", "oid": "103:1576575174563", "color": "#0056E7" }, "geometry": { "type": "Point", "coordinates": [ 33.925781, 63.074866 ] } }
{ "type": "Feature", "tippecanoe": { "layer": "2AFCA0530D681583918836344", "minzoom": 2, "maxzoom": 8 }, "properties": { "halo": 1.6, "title": "阴影陶文化", "fontsize": 12, "tyid": "304002", "oid": "103:1576575174831", "color": "#0056E7" }, "geometry": { "type": "Point", "coordinates": [ 24.785156, 55.627996 ] } }
{ "type": "Feature", "tippecanoe": { "layer": "2AFCA0530D681583918836344", "minzoom": 2, "maxzoom": 8 }, "properties": { "halo": 1.8, "title": "奥德里西亚王国", "fontsize": 12, "tyid": "304000", "oid": "103:1576575174878", "color": "#0056E7" }, "geometry": { "type": "Point", "coordinates": [ 25.839844, 42.553080 ] } }
{ "type": "Feature", "tippecanoe": { "layer": "2AFCA0530D681583918836344", "minzoom": 2, "maxzoom": 8 }, "properties": { "halo": 1.6, "title": "上奥卡文化", "fontsize": 12, "tyid": "304002", "oid": "103:1576575174668", "color": "#0056E7" }, "geometry": { "type": "Point", "coordinates": [ 37.353516, 53.540307 ] } }
{ "type": "Feature", "tippecanoe": { "layer": "2AFCA0530D681583918836344", "minzoom": 2, "maxzoom": 8 }, "properties": { "halo": 1.6, "title": "梅田人", "fontsize": 12, "tyid": "304001", "oid": "103:1576575174407", "color": "#0056E7" }, "geometry": { "type": "Point", "coordinates": [ 38.056641, 45.644768 ] } }
{ "type": "Feature", "tippecanoe": { "layer": "2AFCA0530D681583918836344", "minzoom": 2, "maxzoom": 8 }, "properties": { "halo": 1.6, "title": "西雷斯人", "fontsize": 12, "tyid": "304001", "oid": "103:1576575174335", "color": "#0056E7" }, "geometry": { "type": "Point", "coordinates": [ 41.308594, 45.460131 ] } }
{ "type": "Feature", "tippecanoe": { "layer": "2AFCA0530D681583918836344", "minzoom": 2, "maxzoom": 8 }, "properties": { "halo": 1.8, "title": "大希腊", "fontsize": 12, "tyid": "304000", "oid": "103:1576575174883", "color": "#0056E7" }, "geometry": { "type": "Point", "coordinates": [ 16.347656, 38.685510 ] } }
{ "type": "Feature", "tippecanoe": { "layer": "2AFCA0530D681583918836344", "minzoom": 2, "maxzoom": 8 }, "properties": { "halo": 1.8, "title": "马其顿王国", "fontsize": 12, "tyid": "304000", "oid": "103:1576575174418", "color": "#0056E7" }, "geometry": { "type": "Point", "coordinates": [ 22.060547, 40.713956 ] } }
{ "type": "Feature", "tippecanoe": { "layer": "2AFCA0530D681583918836344", "minzoom": 2, "maxzoom": 8 }, "properties": { "halo": 1.8, "title": "伯罗奔半岛同盟", "fontsize": 12, "tyid": "304000", "oid": "103:1576575174865", "color": "#0056E7" }, "geometry": { "type": "Point", "coordinates": [ 22.236328, 37.370157 ] } }
{ "type": "Feature", "tippecanoe": { "layer": "2AFCA0530D681583918836344", "minzoom": 2, "maxzoom": 8 }, "properties": { "halo": 1.6, "title": "约鲁巴人", "fontsize": 12, "tyid": "304001", "oid": "103:1576575174863", "color": "#0056E7" }, "geometry": { "type": "Point", "coordinates": [ 3.427734, 7.536764 ] } }
{ "type": "Feature", "tippecanoe": { "layer": "2AFCA0530D681583918836344", "minzoom": 2, "maxzoom": 8 }, "properties": { "halo": 1.6, "title": "伊博人", "fontsize": 12, "tyid": "304001", "oid": "103:1576575174861", "color": "#0056E7" }, "geometry": { "type": "Point", "coordinates": [ 7.998047, 5.965754 ] } }
{ "type": "Feature", "tippecanoe": { "layer": "2AFCA0530D681583918836344", "minzoom": 2, "maxzoom": 8 }, "properties": { "halo": 1.8, "title": "独立希腊诸城邦", "fontsize": 12, "tyid": "304000", "oid": "103:1576575174589", "color": "#0056E7" }, "geometry": { "type": "Point", "coordinates": [ 26.455078, 39.774769 ] } }
{ "type": "Feature", "tippecanoe": { "layer": "2AFCA0530D681583918836344", "minzoom": 2, "maxzoom": 8 }, "properties": { "halo": 1.6, "title": "布雷米耶国", "fontsize": 12, "tyid": "304001", "oid": "103:1576575174474", "color": "#0056E7" }, "geometry": { "type": "Point", "coordinates": [ 34.628906, 22.105999 ] } }
{ "type": "Feature", "tippecanoe": { "layer": "2AFCA0530D681583918836344", "minzoom": 2, "maxzoom": 8 }, "properties": { "halo": 1.8, "title": "利黑延王国", "fontsize": 12, "tyid": "304000", "oid": "103:1576575174435", "color": "#0056E7" }, "geometry": { "type": "Point", "coordinates": [ 39.375000, 24.926295 ] } }
{ "type": "Feature", "tippecanoe": { "layer": "2AFCA0530D681583918836344", "minzoom": 2, "maxzoom": 8 }, "properties": { "halo": 1.6, "title": "贝扎人", "fontsize": 12, "tyid": "304001", "oid": "103:1576575174480", "color": "#0056E7" }, "geometry": { "type": "Point", "coordinates": [ 35.859375, 16.804541 ] } }
{ "type": "Feature", "tippecanoe": { "layer": "2AFCA0530D681583918836344", "minzoom": 2, "maxzoom": 8 }, "properties": { "halo": 1.8, "title": "达姆特王国", "fontsize": 12, "tyid": "304000", "oid": "103:1576575174748", "color": "#0056E7" }, "geometry": { "type": "Point", "coordinates": [ 39.023438, 14.349548 ] } }
{ "type": "Feature", "tippecanoe": { "layer": "2AFCA0530D681583918836344", "minzoom": 2, "maxzoom": 8 }, "properties": { "halo": 1.8, "title": "迈因王国", "fontsize": 12, "tyid": "304000", "oid": "103:1576575174628", "color": "#0056E7" }, "geometry": { "type": "Point", "coordinates": [ 44.824219, 16.299051 ] } }
{ "type": "Feature", "tippecanoe": { "layer": "2AFCA0530D681583918836344", "minzoom": 2, "maxzoom": 8 }, "properties": { "halo": 1.8, "title": "塞巴王国", "fontsize": 12, "tyid": "304000", "oid": "103:1576575174378", "color": "#0056E7" }, "geometry": { "type": "Point", "coordinates": [ 44.208984, 14.604847 ] } }
{ "type": "Feature", "tippecanoe": { "layer": "2AFCA0530D681583918836344", "minzoom": 2, "maxzoom": 8 }, "properties": { "halo": 1.6, "title": "安纳尼诺文化", "fontsize": 12, "tyid": "304002", "oid": "103:1576575174516", "color": "#0056E7" }, "geometry": { "type": "Point", "coordinates": [ 50.537109, 56.413901 ] } }
{ "type": "Feature", "tippecanoe": { "layer": "2AFCA0530D681583918836344", "minzoom": 2, "maxzoom": 8 }, "properties": { "halo": 1.6, "title": "巴泽雷克文化", "fontsize": 12, "tyid": "304002", "oid": "103:1576575174496", "color": "#0056E7" }, "geometry": { "type": "Point", "coordinates": [ 86.923828, 50.513427 ] } }
{ "type": "Feature", "tippecanoe": { "layer": "2AFCA0530D681583918836344", "minzoom": 2, "maxzoom": 8 }, "properties": { "halo": 1.6, "title": "索墩布拉克文化", "fontsize": 12, "tyid": "304002", "oid": "103:1576575174814", "color": "#0056E7" }, "geometry": { "type": "Point", "coordinates": [ 81.738281, 43.325178 ] } }
{ "type": "Feature", "tippecanoe": { "layer": "2AFCA0530D681583918836344", "minzoom": 2, "maxzoom": 8 }, "properties": { "halo": 1.6, "title": "苏贝希文化", "fontsize": 12, "tyid": "304002", "oid": "103:1576575174711", "color": "#0056E7" }, "geometry": { "type": "Point", "coordinates": [ 88.505859, 43.644026 ] } }
{ "type": "Feature", "tippecanoe": { "layer": "2AFCA0530D681583918836344", "minzoom": 2, "maxzoom": 8 }, "properties": { "halo": 1.6, "title": "格拉", "fontsize": 12, "tyid": "304002", "oid": "103:1576575174583", "color": "#0056E7" }, "geometry": { "type": "Point", "coordinates": [ 51.152344, 25.324167 ] } }
{ "type": "Feature", "tippecanoe": { "layer": "2AFCA0530D681583918836344", "minzoom": 2, "maxzoom": 8 }, "properties": { "halo": 1.8, "title": "马干", "fontsize": 12, "tyid": "304000", "oid": "103:1576575174910", "color": "#0056E7" }, "geometry": { "type": "Point", "coordinates": [ 58.535156, 22.917923 ] } }
{ "type": "Feature", "tippecanoe": { "layer": "2AFCA0530D681583918836344", "minzoom": 2, "maxzoom": 8 }, "properties": { "halo": 1.8, "title": "奥桑王国", "fontsize": 12, "tyid": "304000", "oid": "103:1576575174918", "color": "#0056E7" }, "geometry": { "type": "Point", "coordinates": [ 46.142578, 13.923404 ] } }
{ "type": "Feature", "tippecanoe": { "layer": "2AFCA0530D681583918836344", "minzoom": 2, "maxzoom": 8 }, "properties": { "halo": 1.8, "title": "阿德王国", "fontsize": 12, "tyid": "304000", "oid": "103:1576575174575", "color": "#0056E7" }, "geometry": { "type": "Point", "coordinates": [ 52.207031, 18.812718 ] } }
{ "type": "Feature", "tippecanoe": { "layer": "2AFCA0530D681583918836344", "minzoom": 2, "maxzoom": 8 }, "properties": { "halo": 1.8, "title": "哈德拉毛王国", "fontsize": 12, "tyid": "304000", "oid": "103:1576575174909", "color": "#0056E7" }, "geometry": { "type": "Point", "coordinates": [ 50.976562, 16.383391 ] } }
{ "type": "Feature", "tippecanoe": { "layer": "2AFCA0530D681583918836344", "minzoom": 2, "maxzoom": 8 }, "properties": { "halo": 1.6, "title": "粟特人", "fontsize": 12, "tyid": "304001", "oid": "103:1576575174370", "color": "#0056E7" }, "geometry": { "type": "Point", "coordinates": [ 73.037109, 40.979898 ] } }
{ "type": "Feature", "tippecanoe": { "layer": "2AFCA0530D681583918836344", "minzoom": 2, "maxzoom": 8 }, "properties": { "halo": 1.8, "title": "塔克西拉王国", "fontsize": 12, "tyid": "304000", "oid": "103:1576575174652", "color": "#0056E7" }, "geometry": { "type": "Point", "coordinates": [ 72.861328, 33.358062 ] } }
{ "type": "Feature", "tippecanoe": { "layer": "2AFCA0530D681583918836344", "minzoom": 2, "maxzoom": 8 }, "properties": { "halo": 1.8, "title": "波鲁斯王国", "fontsize": 12, "tyid": "304000", "oid": "103:1576575174810", "color": "#0056E7" }, "geometry": { "type": "Point", "coordinates": [ 74.179688, 32.546813 ] } }
{ "type": "Feature", "tippecanoe": { "layer": "2AFCA0530D681583918836344", "minzoom": 2, "maxzoom": 8 }, "properties": { "halo": 1.8, "title": "哥兰迪亚王朝", "fontsize": 12, "tyid": "304000", "oid": "103:1576575174811", "color": "#0056E7" }, "geometry": { "type": "Point", "coordinates": [ 74.619141, 34.307144 ] } }
{ "type": "Feature", "tippecanoe": { "layer": "2AFCA0530D681583918836344", "minzoom": 2, "maxzoom": 8 }, "properties": { "halo": 1.6, "title": "马利安人", "fontsize": 12, "tyid": "304001", "oid": "103:1576575174421", "color": "#0056E7" }, "geometry": { "type": "Point", "coordinates": [ 71.982422, 30.826781 ] } }
{ "type": "Feature", "tippecanoe": { "layer": "2AFCA0530D681583918836344", "minzoom": 2, "maxzoom": 8 }, "properties": { "halo": 1.8, "title": "罗尔王朝", "fontsize": 12, "tyid": "304000", "oid": "103:1576575174725", "color": "#0056E7" }, "geometry": { "type": "Point", "coordinates": [ 68.466797, 26.588527 ] } }
{ "type": "Feature", "tippecanoe": { "layer": "2AFCA0530D681583918836344", "minzoom": 2, "maxzoom": 8 }, "properties": { "halo": 1.8, "title": "俱卢国", "fontsize": 12, "tyid": "304000", "oid": "103:1576575174733", "color": "#0056E7" }, "geometry": { "type": "Point", "coordinates": [ 76.904297, 29.688053 ] } }
{ "type": "Feature", "tippecanoe": { "layer": "2AFCA0530D681583918836344", "minzoom": 2, "maxzoom": 8 }, "properties": { "halo": 1.8, "title": "摩差国", "fontsize": 12, "tyid": "304000", "oid": "103:1576575174560", "color": "#0056E7" }, "geometry": { "type": "Point", "coordinates": [ 75.410156, 26.745610 ] } }
{ "type": "Feature", "tippecanoe": { "layer": "2AFCA0530D681583918836344", "minzoom": 2, "maxzoom": 8 }, "properties": { "halo": 1.8, "title": "苏罗娑国", "fontsize": 12, "tyid": "304000", "oid": "103:1576575174795", "color": "#0056E7" }, "geometry": { "type": "Point", "coordinates": [ 77.783203, 26.509905 ] } }
{ "type": "Feature", "tippecanoe": { "layer": "2AFCA0530D681583918836344", "minzoom": 2, "maxzoom": 8 }, "properties": { "halo": 1.8, "title": "般遮罗国", "fontsize": 12, "tyid": "304000", "oid": "103:1576575174694", "color": "#0056E7" }, "geometry": { "type": "Point", "coordinates": [ 79.277344, 27.761330 ] } }
{ "type": "Feature", "tippecanoe": { "layer": "2AFCA0530D681583918836344", "minzoom": 2, "maxzoom": 8 }, "properties": { "halo": 1.8, "title": "拘萨罗国", "fontsize": 12, "tyid": "304000", "oid": "103:1576575174734", "color": "#0056E7" }, "geometry": { "type": "Point", "coordinates": [ 82.001953, 27.293689 ] } }
{ "type": "Feature", "tippecanoe": { "layer": "2AFCA0530D681583918836344", "minzoom": 2, "maxzoom": 8 }, "properties": { "halo": 1.8, "title": "克拉底王国", "fontsize": 12, "tyid": "304000", "oid": "103:1576575174599", "color": "#0056E7" }, "geometry": { "type": "Point", "coordinates": [ 84.199219, 28.071980 ] } }
{ "type": "Feature", "tippecanoe": { "layer": "2AFCA0530D681583918836344", "minzoom": 2, "maxzoom": 8 }, "properties": { "halo": 1.8, "title": "蓬德拉王国", "fontsize": 12, "tyid": "304000", "oid": "103:1576575174619", "color": "#0056E7" }, "geometry": { "type": "Point", "coordinates": [ 89.648438, 24.287027 ] } }
{ "type": "Feature", "tippecanoe": { "layer": "2AFCA0530D681583918836344", "minzoom": 2, "maxzoom": 8 }, "properties": { "halo": 1.8, "title": "阿湿波国", "fontsize": 12, "tyid": "304000", "oid": "103:1576575174755", "color": "#0056E7" }, "geometry": { "type": "Point", "coordinates": [ 79.716797, 19.228177 ] } }
{ "type": "Feature", "tippecanoe": { "layer": "2AFCA0530D681583918836344", "minzoom": 2, "maxzoom": 8 }, "properties": { "halo": 1.8, "title": "安度罗国", "fontsize": 12, "tyid": "304000", "oid": "103:1576575174853", "color": "#0056E7" }, "geometry": { "type": "Point", "coordinates": [ 80.771484, 16.636192 ] } }
{ "type": "Feature", "tippecanoe": { "layer": "2AFCA0530D681583918836344", "minzoom": 2, "maxzoom": 8 }, "properties": { "halo": 1.8, "title": "羯陵伽国", "fontsize": 12, "tyid": "304000", "oid": "103:1576575174566", "color": "#0056E7" }, "geometry": { "type": "Point", "coordinates": [ 84.638672, 20.220966 ] } }
{ "type": "Feature", "tippecanoe": { "layer": "2AFCA0530D681583918836344", "minzoom": 2, "maxzoom": 8 }, "properties": { "halo": 1.8, "title": "优婆提舍努沃勒王国", "fontsize": 12, "tyid": "304000", "oid": "103:1576575174904", "color": "#0056E7" }, "geometry": { "type": "Point", "coordinates": [ 80.683594, 7.623887 ] } }
{ "type": "Feature", "tippecanoe": { "layer": "2AFCA0530D681583918836344", "minzoom": 2, "maxzoom": 8 }, "properties": { "halo": 1.6, "title": "阿迪贝尔文化", "fontsize": 12, "tyid": "304002", "oid": "103:1576575174753", "color": "#0056E7" }, "geometry": { "type": "Point", "coordinates": [ 96.503906, 52.643063 ] } }
{ "type": "Feature", "tippecanoe": { "layer": "2AFCA0530D681583918836344", "minzoom": 2, "maxzoom": 8 }, "properties": { "halo": 1.8, "title": "狄戎", "fontsize": 12, "tyid": "304000", "oid": "103:1576575174744", "color": "#0056E7" }, "geometry": { "type": "Point", "coordinates": [ 103.798828, 35.532226 ] } }
{ "type": "Feature", "tippecanoe": { "layer": "2AFCA0530D681583918836344", "minzoom": 2, "maxzoom": 8 }, "properties": { "halo": 1.8, "title": "乌氏", "fontsize": 12, "tyid": "304000", "oid": "103:1576575174347", "color": "#0056E7" }, "geometry": { "type": "Point", "coordinates": [ 105.732422, 36.456636 ] } }
{ "type": "Feature", "tippecanoe": { "layer": "2AFCA0530D681583918836344", "minzoom": 2, "maxzoom": 8 }, "properties": { "halo": 1.6, "title": "氐人", "fontsize": 12, "tyid": "304001", "oid": "103:1576575174745", "color": "#0056E7" }, "geometry": { "type": "Point", "coordinates": [ 104.589844, 33.358062 ] } }
{ "type": "Feature", "tippecanoe": { "layer": "2AFCA0530D681583918836344", "minzoom": 2, "maxzoom": 8 }, "properties": { "halo": 1.6, "title": "鄂尔多斯文化", "fontsize": 12, "tyid": "304002", "oid": "103:1576575174803", "color": "#0056E7" }, "geometry": { "type": "Point", "coordinates": [ 108.193359, 39.707187 ] } }
{ "type": "Feature", "tippecanoe": { "layer": "2AFCA0530D681583918836344", "minzoom": 2, "maxzoom": 8 }, "properties": { "halo": 1.8, "title": "朐衍", "fontsize": 12, "tyid": "304000", "oid": "103:1576575174665", "color": "#0056E7" }, "geometry": { "type": "Point", "coordinates": [ 107.138672, 37.718590 ] } }
{ "type": "Feature", "tippecanoe": { "layer": "2AFCA0530D681583918836344", "minzoom": 2, "maxzoom": 8 }, "properties": { "halo": 1.8, "title": "楼烦", "fontsize": 12, "tyid": "304000", "oid": "103:1576575174726", "color": "#0056E7" }, "geometry": { "type": "Point", "coordinates": [ 111.972656, 39.977120 ] } }
{ "type": "Feature", "tippecanoe": { "layer": "2AFCA0530D681583918836344", "minzoom": 2, "maxzoom": 8 }, "properties": { "halo": 1.8, "title": "林胡", "fontsize": 12, "tyid": "304000", "oid": "103:1576575174430", "color": "#0056E7" }, "geometry": { "type": "Point", "coordinates": [ 109.951172, 38.616870 ] } }
{ "type": "Feature", "tippecanoe": { "layer": "2AFCA0530D681583918836344", "minzoom": 2, "maxzoom": 8 }, "properties": { "halo": 1.8, "title": "义渠", "fontsize": 12, "tyid": "304000", "oid": "103:1576575174311", "color": "#0056E7" }, "geometry": { "type": "Point", "coordinates": [ 107.578125, 36.031332 ] } }
{ "type": "Feature", "tippecanoe": { "layer": "2AFCA0530D681583918836344", "minzoom": 2, "maxzoom": 8 }, "properties": { "halo": 1.8, "title": "秦", "fontsize": 12, "tyid": "304000", "oid": "103:1576575174386", "color": "#0056E7" }, "geometry": { "type": "Point", "coordinates": [ 107.753906, 34.524661 ] } }
{ "type": "Feature", "tippecanoe": { "layer": "2AFCA0530D681583918836344", "minzoom": 2, "maxzoom": 8 }, "properties": { "halo": 1.8, "title": "魏", "fontsize": 12, "tyid": "304000", "oid": "103:1576575174349", "color": "#0056E7" }, "geometry": { "type": "Point", "coordinates": [ 109.951172, 36.244273 ] } }
{ "type": "Feature", "tippecanoe": { "layer": "2AFCA0530D681583918836344", "minzoom": 2, "maxzoom": 8 }, "properties": { "halo": 1.8, "title": "韩", "fontsize": 12, "tyid": "304000", "oid": "103:1576575174568", "color": "#0056E7" }, "geometry": { "type": "Point", "coordinates": [ 112.148438, 34.234512 ] } }
{ "type": "Feature", "tippecanoe": { "layer": "2AFCA0530D681583918836344", "minzoom": 2, "maxzoom": 8 }, "properties": { "halo": 1.8, "title": "古蜀", "fontsize": 12, "tyid": "304000", "oid": "103:1576575174576", "color": "#0056E7" }, "geometry": { "type": "Point", "coordinates": [ 105.029297, 31.278551 ] } }
{ "type": "Feature", "tippecanoe": { "layer": "2AFCA0530D681583918836344", "minzoom": 2, "maxzoom": 8 }, "properties": { "halo": 1.8, "title": "巴", "fontsize": 12, "tyid": "304000", "oid": "103:1576575174504", "color": "#0056E7" }, "geometry": { "type": "Point", "coordinates": [ 107.578125, 31.203405 ] } }
{ "type": "Feature", "tippecanoe": { "layer": "2AFCA0530D681583918836344", "minzoom": 2, "maxzoom": 8 }, "properties": { "halo": 1.6, "title": "苍梧", "fontsize": 12, "tyid": "304001", "oid": "103:1576575174798", "color": "#0056E7" }, "geometry": { "type": "Point", "coordinates": [ 112.148438, 26.352498 ] } }
{ "type": "Feature", "tippecanoe": { "layer": "2AFCA0530D681583918836344", "minzoom": 2, "maxzoom": 8 }, "properties": { "halo": 1.8, "title": "达雅瓦底王国", "fontsize": 12, "tyid": "304000", "oid": "103:1576575174691", "color": "#0056E7" }, "geometry": { "type": "Point", "coordinates": [ 93.339844, 20.550509 ] } }
{ "type": "Feature", "tippecanoe": { "layer": "2AFCA0530D681583918836344", "minzoom": 2, "maxzoom": 8 }, "properties": { "halo": 1.8, "title": "室利差呾罗王国", "fontsize": 12, "tyid": "304000", "oid": "103:1576575174304", "color": "#0056E7" }, "geometry": { "type": "Point", "coordinates": [ 95.625000, 19.145168 ] } }
{ "type": "Feature", "tippecanoe": { "layer": "2AFCA0530D681583918836344", "minzoom": 2, "maxzoom": 8 }, "properties": { "halo": 1.8, "title": "直通王国", "fontsize": 12, "tyid": "304000", "oid": "103:1576575174920", "color": "#0056E7" }, "geometry": { "type": "Point", "coordinates": [ 96.152344, 17.392579 ] } }
{ "type": "Feature", "tippecanoe": { "layer": "2AFCA0530D681583918836344", "minzoom": 2, "maxzoom": 8 }, "properties": { "halo": 1.6, "title": "班清文化", "fontsize": 12, "tyid": "304002", "oid": "103:1576575174701", "color": "#0056E7" }, "geometry": { "type": "Point", "coordinates": [ 103.271484, 17.560247 ] } }
{ "type": "Feature", "tippecanoe": { "layer": "2AFCA0530D681583918836344", "minzoom": 2, "maxzoom": 8 }, "properties": { "halo": 1.6, "title": "蓬斯尼文化", "fontsize": 12, "tyid": "304002", "oid": "103:1576575174780", "color": "#0056E7" }, "geometry": { "type": "Point", "coordinates": [ 103.535156, 13.410994 ] } }
{ "type": "Feature", "tippecanoe": { "layer": "2AFCA0530D681583918836344", "minzoom": 2, "maxzoom": 8 }, "properties": { "halo": 1.8, "title": "文郎国", "fontsize": 12, "tyid": "304000", "oid": "103:1576575174852", "color": "#0056E7" }, "geometry": { "type": "Point", "coordinates": [ 106.875000, 21.616579 ] } }
{ "type": "Feature", "tippecanoe": { "layer": "2AFCA0530D681583918836344", "minzoom": 2, "maxzoom": 8 }, "properties": { "halo": 1.6, "title": "沙黄文化", "fontsize": 12, "tyid": "304002", "oid": "103:1576575174672", "color": "#0056E7" }, "geometry": { "type": "Point", "coordinates": [ 109.072266, 13.068777 ] } }
{ "type": "Feature", "tippecanoe": { "layer": "2AFCA0530D681583918836344", "minzoom": 2, "maxzoom": 8 }, "properties": { "halo": 1.6, "title": "同奈文化", "fontsize": 12, "tyid": "304002", "oid": "103:1576575174552", "color": "#0056E7" }, "geometry": { "type": "Point", "coordinates": [ 105.468750, 10.055403 ] } }
{ "type": "Feature", "tippecanoe": { "layer": "2AFCA0530D681583918836344", "minzoom": 2, "maxzoom": 8 }, "properties": { "halo": 1.6, "title": "尼格利陀人", "fontsize": 12, "tyid": "304001", "oid": "103:1576575174627", "color": "#0056E7" }, "geometry": { "type": "Point", "coordinates": [ 101.953125, 4.740675 ] } }
{ "type": "Feature", "tippecanoe": { "layer": "2AFCA0530D681583918836344", "minzoom": 2, "maxzoom": 8 }, "properties": { "halo": 1.8, "title": "赵", "fontsize": 12, "tyid": "304000", "oid": "103:1576575174305", "color": "#0056E7" }, "geometry": { "type": "Point", "coordinates": [ 113.818359, 37.439974 ] } }
{ "type": "Feature", "tippecanoe": { "layer": "2AFCA0530D681583918836344", "minzoom": 2, "maxzoom": 8 }, "properties": { "halo": 1.8, "title": "燕", "fontsize": 12, "tyid": "304000", "oid": "103:1576575174846", "color": "#0056E7" }, "geometry": { "type": "Point", "coordinates": [ 116.894531, 39.909736 ] } }
{ "type": "Feature", "tippecanoe": { "layer": "2AFCA0530D681583918836344", "minzoom": 2, "maxzoom": 8 }, "properties": { "halo": 1.8, "title": "宋", "fontsize": 12, "tyid": "304000", "oid": "103:1576575174372", "color": "#0056E7" }, "geometry": { "type": "Point", "coordinates": [ 116.367188, 34.307144 ] } }
{ "type": "Feature", "tippecanoe": { "layer": "2AFCA0530D681583918836344", "minzoom": 2, "maxzoom": 8 }, "properties": { "halo": 1.8, "title": "箕子朝鲜", "fontsize": 12, "tyid": "304000", "oid": "103:1576575174845", "color": "#0056E7" }, "geometry": { "type": "Point", "coordinates": [ 122.783203, 40.913513 ] } }
{ "type": "Feature", "tippecanoe": { "layer": "2AFCA0530D681583918836344", "minzoom": 2, "maxzoom": 8 }, "properties": { "halo": 1.8, "title": "齐[吕氏]", "fontsize": 12, "tyid": "304000", "oid": "103:1576575174390", "color": "#0056E7" }, "geometry": { "type": "Point", "coordinates": [ 118.212891, 36.597889 ] } }
{ "type": "Feature", "tippecanoe": { "layer": "2AFCA0530D681583918836344", "minzoom": 2, "maxzoom": 8 }, "properties": { "halo": 1.6, "title": "扬越", "fontsize": 12, "tyid": "304001", "oid": "103:1576575174324", "color": "#0056E7" }, "geometry": { "type": "Point", "coordinates": [ 115.224609, 26.588527 ] } }
{ "type": "Feature", "tippecanoe": { "layer": "2AFCA0530D681583918836344", "minzoom": 2, "maxzoom": 8 }, "properties": { "halo": 1.6, "title": "闽越", "fontsize": 12, "tyid": "304001", "oid": "103:1576575174403", "color": "#0056E7" }, "geometry": { "type": "Point", "coordinates": [ 117.861328, 26.115986 ] } }
{ "type": "Feature", "tippecanoe": { "layer": "2AFCA0530D681583918836344", "minzoom": 2, "maxzoom": 8 }, "properties": { "halo": 1.6, "title": "南粤", "fontsize": 12, "tyid": "304001", "oid": "103:1576575174850", "color": "#0056E7" }, "geometry": { "type": "Point", "coordinates": [ 115.664062, 23.966176 ] } }
{ "type": "Feature", "tippecanoe": { "layer": "2AFCA0530D681583918836344", "minzoom": 2, "maxzoom": 8 }, "properties": { "halo": 1.6, "title": "瓯越", "fontsize": 12, "tyid": "304001", "oid": "103:1576575174848", "color": "#0056E7" }, "geometry": { "type": "Point", "coordinates": [ 120.058594, 28.304381 ] } }
{ "type": "Feature", "tippecanoe": { "layer": "2AFCA0530D681583918836344", "minzoom": 2, "maxzoom": 8 }, "properties": { "halo": 1.6, "title": "无文土器时代晚期", "fontsize": 12, "tyid": "304002", "oid": "103:1576575174843", "color": "#0056E7" }, "geometry": { "type": "Point", "coordinates": [ 126.123047, 38.616870 ] } }
{ "type": "Feature", "tippecanoe": { "layer": "2AFCA0530D681583918836344", "minzoom": 2, "maxzoom": 8 }, "properties": { "halo": 1.6, "title": "弥生人", "fontsize": 12, "tyid": "304001", "oid": "103:1576575174720", "color": "#0056E7" }, "geometry": { "type": "Point", "coordinates": [ 130.869141, 32.694866 ] } }
{ "type": "Feature", "tippecanoe": { "layer": "2AFCA0530D681583918836344", "minzoom": 2, "maxzoom": 8 }, "properties": { "halo": 1.6, "title": "乌莱维文明", "fontsize": 12, "tyid": "304002", "oid": "103:1576575174716", "color": "#0056E7" }, "geometry": { "type": "Point", "coordinates": [ 29.882812, -2.547988 ] } }
{ "type": "Feature", "tippecanoe": { "layer": "2AFCA0530D681583918836344", "minzoom": 2, "maxzoom": 8 }, "properties": { "halo": 1.6, "title": "艾布兰文化五期", "fontsize": 12, "tyid": "304002", "oid": "103:1576575174704", "color": "#0056E7" }, "geometry": { "type": "Point", "coordinates": [ 36.474609, -0.175781 ] } }
{ "type": "Feature", "tippecanoe": { "layer": "2AFCA0530D681583918836344", "minzoom": 2, "maxzoom": 8 }, "properties": { "halo": 1.6, "title": "巴拉瓦人", "fontsize": 12, "tyid": "304001", "oid": "103:1576575174703", "color": "#0056E7" }, "geometry": { "type": "Point", "coordinates": [ 146.513672, -41.967659 ] } }
{ "type": "Feature", "tippecanoe": { "layer": "2AFCA0530FD01583918836342", "minzoom": 2, "maxzoom": 8 }, "properties": { "halo": 1.6, "title": "诺顿文化", "fontsize": 12, "tyid": "304002", "oid": "103:1576575174625", "color": "#0056E7" }, "geometry": { "type": "Point", "coordinates": [ -161.894531, 65.476508 ] } }
{ "type": "Feature", "tippecanoe": { "layer": "2AFCA0530FD01583918836342", "minzoom": 2, "maxzoom": 8 }, "properties": { "halo": 1.6, "title": "因纽皮雅特人", "fontsize": 12, "tyid": "304001", "oid": "103:1576575174313", "color": "#0056E7" }, "geometry": { "type": "Point", "coordinates": [ -149.501953, 65.219894 ] } }
{ "type": "Feature", "tippecanoe": { "layer": "2AFCA0530FD01583918836342", "minzoom": 2, "maxzoom": 8 }, "properties": { "halo": 1.6, "title": "尤皮克人", "fontsize": 12, "tyid": "304001", "oid": "103:1576575174905", "color": "#0056E7" }, "geometry": { "type": "Point", "coordinates": [ -156.884766, 61.606396 ] } }
{ "type": "Feature", "tippecanoe": { "layer": "2AFCA0530FD01583918836342", "minzoom": 2, "maxzoom": 8 }, "properties": { "halo": 1.6, "title": "阿留申人", "fontsize": 12, "tyid": "304001", "oid": "103:1576575174834", "color": "#0056E7" }, "geometry": { "type": "Point", "coordinates": [ -152.226562, 61.312452 ] } }
{ "type": "Feature", "tippecanoe": { "layer": "2AFCA0530FD01583918836342", "minzoom": 2, "maxzoom": 8 }, "properties": { "halo": 1.6, "title": "因纽特人", "fontsize": 12, "tyid": "304001", "oid": "103:1576575174310", "color": "#0056E7" }, "geometry": { "type": "Point", "coordinates": [ -96.855469, 64.129784 ] } }
{ "type": "Feature", "tippecanoe": { "layer": "2AFCA0530FD01583918836342", "minzoom": 2, "maxzoom": 8 }, "properties": { "halo": 1.6, "title": "泰萨勒页岩文化", "fontsize": 12, "tyid": "304002", "oid": "103:1576575174649", "color": "#0056E7" }, "geometry": { "type": "Point", "coordinates": [ -100.986328, 56.365250 ] } }
{ "type": "Feature", "tippecanoe": { "layer": "2AFCA0530FD01583918836342", "minzoom": 2, "maxzoom": 8 }, "properties": { "halo": 1.6, "title": "坎贝尔文化", "fontsize": 12, "tyid": "304002", "oid": "103:1576575174604", "color": "#0056E7" }, "geometry": { "type": "Point", "coordinates": [ -121.289062, 38.685510 ] } }
{ "type": "Feature", "tippecanoe": { "layer": "2AFCA0530FD01583918836342", "minzoom": 2, "maxzoom": 8 }, "properties": { "halo": 1.6, "title": "圣迪基图文化", "fontsize": 12, "tyid": "304002", "oid": "103:1576575174373", "color": "#0056E7" }, "geometry": { "type": "Point", "coordinates": [ -115.224609, 33.211116 ] } }
{ "type": "Feature", "tippecanoe": { "layer": "2AFCA0530FD01583918836342", "minzoom": 2, "maxzoom": 8 }, "properties": { "halo": 1.6, "title": "独立二期文化", "fontsize": 12, "tyid": "304002", "oid": "103:1576575174591", "color": "#0056E7" }, "geometry": { "type": "Point", "coordinates": [ -41.220703, 81.960148 ] } }
{ "type": "Feature", "tippecanoe": { "layer": "2AFCA0530FD01583918836342", "minzoom": 2, "maxzoom": 8 }, "properties": { "halo": 1.6, "title": "波茵特半岛文化", "fontsize": 12, "tyid": "304002", "oid": "103:1576575174475", "color": "#0056E7" }, "geometry": { "type": "Point", "coordinates": [ -76.816406, 45.336702 ] } }
{ "type": "Feature", "tippecanoe": { "layer": "2AFCA0530FD01583918836342", "minzoom": 2, "maxzoom": 8 }, "properties": { "halo": 1.6, "title": "古海洋文化", "fontsize": 12, "tyid": "304002", "oid": "103:1576575174907", "color": "#0056E7" }, "geometry": { "type": "Point", "coordinates": [ -66.972656, 46.920255 ] } }
{ "type": "Feature", "tippecanoe": { "layer": "2AFCA0530FD01583918836342", "minzoom": 2, "maxzoom": 8 }, "properties": { "halo": 1.6, "title": "红赭人", "fontsize": 12, "tyid": "304001", "oid": "103:1576575174571", "color": "#0056E7" }, "geometry": { "type": "Point", "coordinates": [ -87.451172, 40.380028 ] } }
{ "type": "Feature", "tippecanoe": { "layer": "2AFCA0530FD01583918836342", "minzoom": 2, "maxzoom": 8 }, "properties": { "halo": 1.6, "title": "阿登纳文化", "fontsize": 12, "tyid": "304002", "oid": "103:1576575174534", "color": "#0056E7" }, "geometry": { "type": "Point", "coordinates": [ -81.826172, 40.513799 ] } }
{ "type": "Feature", "tippecanoe": { "layer": "2AFCA0530FD01583918836342", "minzoom": 2, "maxzoom": 8 }, "properties": { "halo": 1.6, "title": "凯尔特布立吞人", "fontsize": 12, "tyid": "304001", "oid": "103:1576575174782", "color": "#0056E7" }, "geometry": { "type": "Point", "coordinates": [ -1.845703, 52.589701 ] } }
{ "type": "Feature", "tippecanoe": { "layer": "2AFCA0530FD01583918836342", "minzoom": 2, "maxzoom": 8 }, "properties": { "halo": 1.6, "title": "巴富尔人", "fontsize": 12, "tyid": "304001", "oid": "103:1576575174797", "color": "#0056E7" }, "geometry": { "type": "Point", "coordinates": [ -8.261719, 22.917923 ] } }
{ "type": "Feature", "tippecanoe": { "layer": "2AFCA0530FD01583918836342", "minzoom": 2, "maxzoom": 8 }, "properties": { "halo": 1.6, "title": "索宁克人", "fontsize": 12, "tyid": "304001", "oid": "103:1576575174369", "color": "#0056E7" }, "geometry": { "type": "Point", "coordinates": [ -8.964844, 14.944785 ] } }
{ "type": "Feature", "tippecanoe": { "layer": "2AFCA0530FD01583918836342", "minzoom": 2, "maxzoom": 8 }, "properties": { "halo": 1.6, "title": "曼德人", "fontsize": 12, "tyid": "304001", "oid": "103:1576575174410", "color": "#0056E7" }, "geometry": { "type": "Point", "coordinates": [ -7.558594, 8.146243 ] } }
{ "type": "Feature", "tippecanoe": { "layer": "2AFCA0530FD01583918836342", "minzoom": 2, "maxzoom": 8 }, "properties": { "halo": 1.6, "title": "昌戈人", "fontsize": 12, "tyid": "304001", "oid": "103:1576575174468", "color": "#0056E7" }, "geometry": { "type": "Point", "coordinates": [ -69.785156, -24.926295 ] } }
{ "type": "Feature", "tippecanoe": { "layer": "2AFCA0530FD01583918836342", "minzoom": 2, "maxzoom": 8 }, "properties": { "halo": 1.6, "title": "图皮人", "fontsize": 12, "tyid": "304001", "oid": "103:1576575174666", "color": "#0056E7" }, "geometry": { "type": "Point", "coordinates": [ -37.968750, -9.449062 ] } }
{ "type": "Feature", "tippecanoe": { "layer": "2AFCA0530FD01583918836342", "minzoom": 2, "maxzoom": 8 }, "properties": { "halo": 1.6, "title": "萨米人", "fontsize": 12, "tyid": "304001", "oid": "103:1576575174902", "color": "#0056E7" }, "geometry": { "type": "Point", "coordinates": [ 25.400391, 68.171555 ] } }
{ "type": "Feature", "tippecanoe": { "layer": "2AFCA0530FD01583918836342", "minzoom": 2, "maxzoom": 8 }, "properties": { "halo": 1.6, "title": "原始日耳曼人", "fontsize": 12, "tyid": "304001", "oid": "103:1576575174900", "color": "#0056E7" }, "geometry": { "type": "Point", "coordinates": [ 12.480469, 60.326948 ] } }
{ "type": "Feature", "tippecanoe": { "layer": "2AFCA0530FD01583918836342", "minzoom": 2, "maxzoom": 8 }, "properties": { "halo": 1.6, "title": "山外高卢人", "fontsize": 12, "tyid": "304001", "oid": "103:1576575174898", "color": "#0056E7" }, "geometry": { "type": "Point", "coordinates": [ 2.636719, 47.754098 ] } }
{ "type": "Feature", "tippecanoe": { "layer": "2AFCA0530FD01583918836342", "minzoom": 2, "maxzoom": 8 }, "properties": { "halo": 1.6, "title": "波德洛什维耶墓葬文化", "fontsize": 12, "tyid": "304002", "oid": "103:1576575174477", "color": "#0056E7" }, "geometry": { "type": "Point", "coordinates": [ 20.214844, 51.289406 ] } }
{ "type": "Feature", "tippecanoe": { "layer": "2AFCA0530FD01583918836342", "minzoom": 2, "maxzoom": 8 }, "properties": { "halo": 1.6, "title": "凯尔特人", "fontsize": 12, "tyid": "304001", "oid": "103:1576575174449", "color": "#0056E7" }, "geometry": { "type": "Point", "coordinates": [ 16.523438, 48.048710 ] } }
{ "type": "Feature", "tippecanoe": { "layer": "2AFCA0530FD01583918836342", "minzoom": 2, "maxzoom": 8 }, "properties": { "halo": 1.6, "title": "迪亚科夫文化", "fontsize": 12, "tyid": "304002", "oid": "103:1576575174455", "color": "#0056E7" }, "geometry": { "type": "Point", "coordinates": [ 37.968750, 56.800878 ] } }
{ "type": "Feature", "tippecanoe": { "layer": "2AFCA0530FD01583918836342", "minzoom": 2, "maxzoom": 8 }, "properties": { "halo": 1.6, "title": "米洛格勒文化", "fontsize": 12, "tyid": "304002", "oid": "103:1576575174404", "color": "#0056E7" }, "geometry": { "type": "Point", "coordinates": [ 27.597656, 51.890054 ] } }
{ "type": "Feature", "tippecanoe": { "layer": "2AFCA0530FD01583918836342", "minzoom": 2, "maxzoom": 8 }, "properties": { "halo": 1.6, "title": "第聂伯河与德维纳河文化", "fontsize": 12, "tyid": "304001", "oid": "103:1576575174595", "color": "#0056E7" }, "geometry": { "type": "Point", "coordinates": [ 31.728516, 55.578345 ] } }
{ "type": "Feature", "tippecanoe": { "layer": "2AFCA0530FD01583918836342", "minzoom": 2, "maxzoom": 8 }, "properties": { "halo": 1.6, "title": "达契亚人", "fontsize": 12, "tyid": "304001", "oid": "103:1576575174460", "color": "#0056E7" }, "geometry": { "type": "Point", "coordinates": [ 25.400391, 46.195042 ] } }
{ "type": "Feature", "tippecanoe": { "layer": "2AFCA0530FD01583918836342", "minzoom": 2, "maxzoom": 8 }, "properties": { "halo": 1.6, "title": "尤赫诺夫文化", "fontsize": 12, "tyid": "304002", "oid": "103:1576575174308", "color": "#0056E7" }, "geometry": { "type": "Point", "coordinates": [ 34.101562, 51.618017 ] } }
{ "type": "Feature", "tippecanoe": { "layer": "2AFCA0530FD01583918836342", "minzoom": 2, "maxzoom": 8 }, "properties": { "halo": 1.6, "title": "戈罗杰茨文化", "fontsize": 12, "tyid": "304002", "oid": "103:1576575174586", "color": "#0056E7" }, "geometry": { "type": "Point", "coordinates": [ 44.033203, 53.956086 ] } }
{ "type": "Feature", "tippecanoe": { "layer": "2AFCA0530FD01583918836342", "minzoom": 2, "maxzoom": 8 }, "properties": { "halo": 1.8, "title": "迦太基帝国", "fontsize": 12, "tyid": "304000", "oid": "103:1576575174891", "color": "#0056E7" }, "geometry": { "type": "Point", "coordinates": [ 9.667969, 36.173357 ] } }
{ "type": "Feature", "tippecanoe": { "layer": "2AFCA0530FD01583918836342", "minzoom": 2, "maxzoom": 8 }, "properties": { "halo": 1.6, "title": "柏柏尔人诸部", "fontsize": 12, "tyid": "304001", "oid": "103:1576575174492", "color": "#0056E7" }, "geometry": { "type": "Point", "coordinates": [ 2.636719, 26.352498 ] } }
{ "type": "Feature", "tippecanoe": { "layer": "2AFCA0530FD01583918836342", "minzoom": 2, "maxzoom": 8 }, "properties": { "halo": 1.6, "title": "加拉曼特人", "fontsize": 12, "tyid": "304001", "oid": "103:1576575174805", "color": "#0056E7" }, "geometry": { "type": "Point", "coordinates": [ 15.908203, 27.916767 ] } }
{ "type": "Feature", "tippecanoe": { "layer": "2AFCA0530FD01583918836342", "minzoom": 2, "maxzoom": 8 }, "properties": { "halo": 1.6, "title": "诺克文化", "fontsize": 12, "tyid": "304002", "oid": "103:1576575174623", "color": "#0056E7" }, "geometry": { "type": "Point", "coordinates": [ 7.119141, 10.574222 ] } }
{ "type": "Feature", "tippecanoe": { "layer": "2AFCA0530FD01583918836342", "minzoom": 2, "maxzoom": 8 }, "properties": { "halo": 1.6, "title": "萨奥文明", "fontsize": 12, "tyid": "304002", "oid": "103:1576575174812", "color": "#0056E7" }, "geometry": { "type": "Point", "coordinates": [ 14.941406, 13.239945 ] } }
{ "type": "Feature", "tippecanoe": { "layer": "2AFCA0530FD01583918836342", "minzoom": 2, "maxzoom": 8 }, "properties": { "halo": 1.6, "title": "巴卡人", "fontsize": 12, "tyid": "304001", "oid": "103:1576575174502", "color": "#0056E7" }, "geometry": { "type": "Point", "coordinates": [ 18.105469, 5.441022 ] } }
{ "type": "Feature", "tippecanoe": { "layer": "2AFCA0530FD01583918836342", "minzoom": 2, "maxzoom": 8 }, "properties": { "halo": 1.8, "title": "古埃及第二十八王朝", "fontsize": 12, "tyid": "304000", "oid": "103:1576575174580", "color": "#0056E7" }, "geometry": { "type": "Point", "coordinates": [ 28.476562, 30.145127 ] } }
{ "type": "Feature", "tippecanoe": { "layer": "2AFCA0530FD01583918836342", "minzoom": 2, "maxzoom": 8 }, "properties": { "halo": 1.6, "title": "凯达尔联盟", "fontsize": 12, "tyid": "304001", "oid": "103:1576575174451", "color": "#0056E7" }, "geometry": { "type": "Point", "coordinates": [ 41.748047, 29.688053 ] } }
{ "type": "Feature", "tippecanoe": { "layer": "2AFCA0530FD01583918836342", "minzoom": 2, "maxzoom": 8 }, "properties": { "halo": 1.6, "title": "北非贝都因人", "fontsize": 12, "tyid": "304001", "oid": "103:1576575174490", "color": "#0056E7" }, "geometry": { "type": "Point", "coordinates": [ 23.027344, 21.043491 ] } }
{ "type": "Feature", "tippecanoe": { "layer": "2AFCA0530FD01583918836342", "minzoom": 2, "maxzoom": 8 }, "properties": { "halo": 1.6, "title": "富尔人", "fontsize": 12, "tyid": "304001", "oid": "103:1576575174690", "color": "#0056E7" }, "geometry": { "type": "Point", "coordinates": [ 26.015625, 12.983148 ] } }
{ "type": "Feature", "tippecanoe": { "layer": "2AFCA0530FD01583918836342", "minzoom": 2, "maxzoom": 8 }, "properties": { "halo": 1.8, "title": "库施王国", "fontsize": 12, "tyid": "304000", "oid": "103:1576575174441", "color": "#0056E7" }, "geometry": { "type": "Point", "coordinates": [ 32.167969, 18.479609 ] } }
{ "type": "Feature", "tippecanoe": { "layer": "2AFCA0530FD01583918836342", "minzoom": 2, "maxzoom": 8 }, "properties": { "halo": 1.6, "title": "卢欧诸部", "fontsize": 12, "tyid": "304001", "oid": "103:1576575174422", "color": "#0056E7" }, "geometry": { "type": "Point", "coordinates": [ 33.574219, 10.141932 ] } }
{ "type": "Feature", "tippecanoe": { "layer": "2AFCA0530FD01583918836342", "minzoom": 2, "maxzoom": 8 }, "properties": { "halo": 1.6, "title": "尼罗特人", "fontsize": 12, "tyid": "304001", "oid": "103:1576575174822", "color": "#0056E7" }, "geometry": { "type": "Point", "coordinates": [ 33.310547, 1.318243 ] } }
{ "type": "Feature", "tippecanoe": { "layer": "2AFCA0530FD01583918836342", "minzoom": 2, "maxzoom": 8 }, "properties": { "halo": 1.6, "title": "赛莫德人", "fontsize": 12, "tyid": "304001", "oid": "103:1576575174377", "color": "#0056E7" }, "geometry": { "type": "Point", "coordinates": [ 42.626953, 21.698265 ] } }
{ "type": "Feature", "tippecanoe": { "layer": "2AFCA0530FD01583918836342", "minzoom": 2, "maxzoom": 8 }, "properties": { "halo": 1.6, "title": "库希特人", "fontsize": 12, "tyid": "304001", "oid": "103:1576575174729", "color": "#0056E7" }, "geometry": { "type": "Point", "coordinates": [ 44.121094, 4.477856 ] } }
{ "type": "Feature", "tippecanoe": { "layer": "2AFCA0530FD01583918836342", "minzoom": 2, "maxzoom": 8 }, "properties": { "halo": 1.6, "title": "彼尔姆人", "fontsize": 12, "tyid": "304001", "oid": "103:1576575174618", "color": "#0056E7" }, "geometry": { "type": "Point", "coordinates": [ 55.371094, 57.844751 ] } }
{ "type": "Feature", "tippecanoe": { "layer": "2AFCA0530FD01583918836342", "minzoom": 2, "maxzoom": 8 }, "properties": { "halo": 1.6, "title": "东马扎尔人", "fontsize": 12, "tyid": "304001", "oid": "103:1576575174742", "color": "#0056E7" }, "geometry": { "type": "Point", "coordinates": [ 59.238281, 61.396719 ] } }
{ "type": "Feature", "tippecanoe": { "layer": "2AFCA0530FD01583918836342", "minzoom": 2, "maxzoom": 8 }, "properties": { "halo": 1.6, "title": "萨尔马提亚人", "fontsize": 12, "tyid": "304001", "oid": "103:1576575174383", "color": "#0056E7" }, "geometry": { "type": "Point", "coordinates": [ 50.800781, 51.508742 ] } }
{ "type": "Feature", "tippecanoe": { "layer": "2AFCA0530FD01583918836342", "minzoom": 2, "maxzoom": 8 }, "properties": { "halo": 1.6, "title": "奥苏伊人", "fontsize": 12, "tyid": "304001", "oid": "103:1576575174506", "color": "#0056E7" }, "geometry": { "type": "Point", "coordinates": [ 47.285156, 46.800059 ] } }
{ "type": "Feature", "tippecanoe": { "layer": "2AFCA0530FD01583918836342", "minzoom": 2, "maxzoom": 8 }, "properties": { "halo": 1.6, "title": "萨迦蒂安文化", "fontsize": 12, "tyid": "304002", "oid": "103:1576575174828", "color": "#0056E7" }, "geometry": { "type": "Point", "coordinates": [ 63.105469, 54.367759 ] } }
{ "type": "Feature", "tippecanoe": { "layer": "2AFCA0530FD01583918836342", "minzoom": 2, "maxzoom": 8 }, "properties": { "halo": 1.6, "title": "斯基泰人", "fontsize": 12, "tyid": "304001", "oid": "103:1576575174371", "color": "#0056E7" }, "geometry": { "type": "Point", "coordinates": [ 63.281250, 49.382373 ] } }
{ "type": "Feature", "tippecanoe": { "layer": "2AFCA0530FD01583918836342", "minzoom": 2, "maxzoom": 8 }, "properties": { "halo": 1.6, "title": "马萨格泰人", "fontsize": 12, "tyid": "304001", "oid": "103:1576575174820", "color": "#0056E7" }, "geometry": { "type": "Point", "coordinates": [ 63.984375, 46.619261 ] } }
{ "type": "Feature", "tippecanoe": { "layer": "2AFCA0530FD01583918836342", "minzoom": 2, "maxzoom": 8 }, "properties": { "halo": 1.6, "title": "乌戈尔人", "fontsize": 12, "tyid": "304001", "oid": "103:1576575174544", "color": "#0056E7" }, "geometry": { "type": "Point", "coordinates": [ 77.080078, 57.088515 ] } }
{ "type": "Feature", "tippecanoe": { "layer": "2AFCA0530FD01583918836342", "minzoom": 2, "maxzoom": 8 }, "properties": { "halo": 1.6, "title": "库莱文化", "fontsize": 12, "tyid": "304002", "oid": "103:1576575174815", "color": "#0056E7" }, "geometry": { "type": "Point", "coordinates": [ 84.023438, 59.130863 ] } }
{ "type": "Feature", "tippecanoe": { "layer": "2AFCA0530FD01583918836342", "minzoom": 2, "maxzoom": 8 }, "properties": { "halo": 1.6, "title": "塔斯莫拉文化", "fontsize": 12, "tyid": "304002", "oid": "103:1576575174367", "color": "#0056E7" }, "geometry": { "type": "Point", "coordinates": [ 74.970703, 48.690960 ] } }
{ "type": "Feature", "tippecanoe": { "layer": "2AFCA0530FD01583918836342", "minzoom": 2, "maxzoom": 8 }, "properties": { "halo": 1.6, "title": "塔加尔文化", "fontsize": 12, "tyid": "304002", "oid": "103:1576575174654", "color": "#0056E7" }, "geometry": { "type": "Point", "coordinates": [ 88.505859, 54.265224 ] } }
{ "type": "Feature", "tippecanoe": { "layer": "2AFCA0530FD01583918836342", "minzoom": 2, "maxzoom": 8 }, "properties": { "halo": 1.6, "title": "切木尔切克文化", "fontsize": 12, "tyid": "304002", "oid": "103:1576575174555", "color": "#0056E7" }, "geometry": { "type": "Point", "coordinates": [ 87.011719, 48.166085 ] } }
{ "type": "Feature", "tippecanoe": { "layer": "2AFCA0530FD01583918836342", "minzoom": 2, "maxzoom": 8 }, "properties": { "halo": 1.8, "title": "阿契美尼德帝国", "fontsize": 12, "tyid": "304000", "oid": "103:1576575174855", "color": "#0056E7" }, "geometry": { "type": "Point", "coordinates": [ 62.841797, 35.389050 ] } }
{ "type": "Feature", "tippecanoe": { "layer": "2AFCA0530FD01583918836342", "minzoom": 2, "maxzoom": 8 }, "properties": { "halo": 1.6, "title": "贝都因人", "fontsize": 12, "tyid": "304001", "oid": "103:1576575174486", "color": "#0056E7" }, "geometry": { "type": "Point", "coordinates": [ 49.218750, 21.861499 ] } }
{ "type": "Feature", "tippecanoe": { "layer": "2AFCA0530FD01583918836342", "minzoom": 2, "maxzoom": 8 }, "properties": { "halo": 1.8, "title": "马克鲁比亚王国", "fontsize": 12, "tyid": "304000", "oid": "103:1576575174859", "color": "#0056E7" }, "geometry": { "type": "Point", "coordinates": [ 49.130859, 9.102097 ] } }
{ "type": "Feature", "tippecanoe": { "layer": "2AFCA0530FD01583918836342", "minzoom": 2, "maxzoom": 8 }, "properties": { "halo": 1.8, "title": "摩揭陀幼龙王朝", "fontsize": 12, "tyid": "304000", "oid": "103:1576575174399", "color": "#0056E7" }, "geometry": { "type": "Point", "coordinates": [ 77.080078, 23.160563 ] } }
{ "type": "Feature", "tippecanoe": { "layer": "2AFCA0530FD01583918836342", "minzoom": 2, "maxzoom": 8 }, "properties": { "halo": 1.6, "title": "吐火罗人", "fontsize": 12, "tyid": "304001", "oid": "103:1576575174358", "color": "#0056E7" }, "geometry": { "type": "Point", "coordinates": [ 80.068359, 39.095963 ] } }
{ "type": "Feature", "tippecanoe": { "layer": "2AFCA0530FD01583918836342", "minzoom": 2, "maxzoom": 8 }, "properties": { "halo": 1.8, "title": "象雄王国", "fontsize": 12, "tyid": "304000", "oid": "103:1576575174332", "color": "#0056E7" }, "geometry": { "type": "Point", "coordinates": [ 79.804688, 32.694866 ] } }
{ "type": "Feature", "tippecanoe": { "layer": "2AFCA0530FD01583918836342", "minzoom": 2, "maxzoom": 8 }, "properties": { "halo": 1.6, "title": "北方打磨黑陶文化", "fontsize": 12, "tyid": "304002", "oid": "103:1576575174488", "color": "#0056E7" }, "geometry": { "type": "Point", "coordinates": [ 82.529297, 22.431340 ] } }
{ "type": "Feature", "tippecanoe": { "layer": "2AFCA0530FD01583918836342", "minzoom": 2, "maxzoom": 8 }, "properties": { "halo": 1.6, "title": "乌斯季米尔文化", "fontsize": 12, "tyid": "304002", "oid": "103:1576575174345", "color": "#0056E7" }, "geometry": { "type": "Point", "coordinates": [ 133.066406, 68.301905 ] } }
{ "type": "Feature", "tippecanoe": { "layer": "2AFCA0530FD01583918836342", "minzoom": 2, "maxzoom": 8 }, "properties": { "halo": 1.8, "title": "乌尤克文化", "fontsize": 12, "tyid": "304000", "oid": "103:1576575174646", "color": "#0056E7" }, "geometry": { "type": "Point", "coordinates": [ 93.076172, 49.553726 ] } }
{ "type": "Feature", "tippecanoe": { "layer": "2AFCA0530FD01583918836342", "minzoom": 2, "maxzoom": 8 }, "properties": { "halo": 1.6, "title": "石板墓文化", "fontsize": 12, "tyid": "304002", "oid": "103:1576575174771", "color": "#0056E7" }, "geometry": { "type": "Point", "coordinates": [ 108.017578, 48.806863 ] } }
{ "type": "Feature", "tippecanoe": { "layer": "2AFCA0530FD01583918836342", "minzoom": 2, "maxzoom": 8 }, "properties": { "halo": 1.6, "title": "通古斯人", "fontsize": 12, "tyid": "304001", "oid": "103:1576575174363", "color": "#0056E7" }, "geometry": { "type": "Point", "coordinates": [ 116.718750, 60.152442 ] } }
{ "type": "Feature", "tippecanoe": { "layer": "2AFCA0530FD01583918836342", "minzoom": 2, "maxzoom": 8 }, "properties": { "halo": 1.6, "title": "东胡", "fontsize": 12, "tyid": "304001", "oid": "103:1576575174594", "color": "#0056E7" }, "geometry": { "type": "Point", "coordinates": [ 117.949219, 43.325178 ] } }
{ "type": "Feature", "tippecanoe": { "layer": "2AFCA0530FD01583918836342", "minzoom": 2, "maxzoom": 8 }, "properties": { "halo": 1.6, "title": "濊貊", "fontsize": 12, "tyid": "304001", "oid": "103:1576575174842", "color": "#0056E7" }, "geometry": { "type": "Point", "coordinates": [ 123.925781, 45.274886 ] } }
{ "type": "Feature", "tippecanoe": { "layer": "2AFCA0530FD01583918836342", "minzoom": 2, "maxzoom": 8 }, "properties": { "halo": 1.6, "title": "肃慎", "fontsize": 12, "tyid": "304001", "oid": "103:1576575174841", "color": "#0056E7" }, "geometry": { "type": "Point", "coordinates": [ 132.275391, 47.040182 ] } }
{ "type": "Feature", "tippecanoe": { "layer": "2AFCA0530FD01583918836342", "minzoom": 2, "maxzoom": 8 }, "properties": { "halo": 1.6, "title": "古羌人", "fontsize": 12, "tyid": "304001", "oid": "103:1576575174578", "color": "#0056E7" }, "geometry": { "type": "Point", "coordinates": [ 91.757812, 33.358062 ] } }
{ "type": "Feature", "tippecanoe": { "layer": "2AFCA0530FD01583918836342", "minzoom": 2, "maxzoom": 8 }, "properties": { "halo": 1.6, "title": "月氏", "fontsize": 12, "tyid": "304001", "oid": "103:1576575174307", "color": "#0056E7" }, "geometry": { "type": "Point", "coordinates": [ 99.755859, 39.232253 ] } }
{ "type": "Feature", "tippecanoe": { "layer": "2AFCA0530FD01583918836342", "minzoom": 2, "maxzoom": 8 }, "properties": { "halo": 1.6, "title": "百濮", "fontsize": 12, "tyid": "304001", "oid": "103:1576575174494", "color": "#0056E7" }, "geometry": { "type": "Point", "coordinates": [ 104.238281, 26.824071 ] } }
{ "type": "Feature", "tippecanoe": { "layer": "2AFCA0530FD01583918836342", "minzoom": 2, "maxzoom": 8 }, "properties": { "halo": 1.6, "title": "西瓯", "fontsize": 12, "tyid": "304001", "oid": "103:1576575174776", "color": "#0056E7" }, "geometry": { "type": "Point", "coordinates": [ 108.984375, 23.644524 ] } }
{ "type": "Feature", "tippecanoe": { "layer": "2AFCA0530FD01583918836342", "minzoom": 2, "maxzoom": 8 }, "properties": { "halo": 1.8, "title": "楚", "fontsize": 12, "tyid": "304000", "oid": "103:1576575174464", "color": "#0056E7" }, "geometry": { "type": "Point", "coordinates": [ 113.906250, 31.428663 ] } }
{ "type": "Feature", "tippecanoe": { "layer": "2AFCA0530FD01583918836342", "minzoom": 2, "maxzoom": 8 }, "properties": { "halo": 1.8, "title": "越", "fontsize": 12, "tyid": "304000", "oid": "103:1576575174858", "color": "#0056E7" }, "geometry": { "type": "Point", "coordinates": [ 118.828125, 30.902225 ] } }
{ "type": "Feature", "tippecanoe": { "layer": "2AFCA0530FD01583918836342", "minzoom": 2, "maxzoom": 8 }, "properties": { "halo": 1.6, "title": "南岛人", "fontsize": 12, "tyid": "304001", "oid": "103:1576575174903", "color": "#0056E7" }, "geometry": { "type": "Point", "coordinates": [ 114.169922, 0.878872 ] } }
{ "type": "Feature", "tippecanoe": { "layer": "2AFCA0530FD01583918836342", "minzoom": 2, "maxzoom": 8 }, "properties": { "halo": 1.6, "title": "尤卡吉尔人", "fontsize": 12, "tyid": "304001", "oid": "103:1576575174538", "color": "#0056E7" }, "geometry": { "type": "Point", "coordinates": [ 155.214844, 64.886265 ] } }
{ "type": "Feature", "tippecanoe": { "layer": "2AFCA0530FD01583918836342", "minzoom": 2, "maxzoom": 8 }, "properties": { "halo": 1.6, "title": "尼夫赫人", "fontsize": 12, "tyid": "304001", "oid": "103:1576575174839", "color": "#0056E7" }, "geometry": { "type": "Point", "coordinates": [ 138.779297, 51.890054 ] } }
{ "type": "Feature", "tippecanoe": { "layer": "2AFCA0530FD01583918836342", "minzoom": 2, "maxzoom": 8 }, "properties": { "halo": 1.6, "title": "科里亚克族", "fontsize": 12, "tyid": "304001", "oid": "103:1576575174731", "color": "#0056E7" }, "geometry": { "type": "Point", "coordinates": [ 164.882812, 61.814664 ] } }
{ "type": "Feature", "tippecanoe": { "layer": "2AFCA0530FD01583918836342", "minzoom": 2, "maxzoom": 8 }, "properties": { "halo": 1.6, "title": "楚科奇人", "fontsize": 12, "tyid": "304001", "oid": "103:1576575174613", "color": "#0056E7" }, "geometry": { "type": "Point", "coordinates": [ 171.035156, 66.443107 ] } }
{ "type": "Feature", "tippecanoe": { "layer": "2AFCA0530FD01583918836342", "minzoom": 2, "maxzoom": 8 }, "properties": { "halo": 1.6, "title": "绳文人", "fontsize": 12, "tyid": "304001", "oid": "103:1576575174670", "color": "#0056E7" }, "geometry": { "type": "Point", "coordinates": [ 139.218750, 36.668419 ] } }
{ "type": "Feature", "tippecanoe": { "layer": "2AFCA0530FD01583918836342", "minzoom": 2, "maxzoom": 8 }, "properties": { "halo": 1.6, "title": "西北班图人诸部", "fontsize": 12, "tyid": "304001", "oid": "103:1576575174342", "color": "#0056E7" }, "geometry": { "type": "Point", "coordinates": [ 20.742188, -0.527336 ] } }
{ "type": "Feature", "tippecanoe": { "layer": "2AFCA0530FD01583918836342", "minzoom": 2, "maxzoom": 8 }, "properties": { "halo": 1.6, "title": "西班图人诸部", "fontsize": 12, "tyid": "304001", "oid": "103:1576575174340", "color": "#0056E7" }, "geometry": { "type": "Point", "coordinates": [ 21.093750, -7.275292 ] } }
{ "type": "Feature", "tippecanoe": { "layer": "2AFCA0530FD01583918836342", "minzoom": 2, "maxzoom": 8 }, "properties": { "halo": 1.6, "title": "科伊桑人", "fontsize": 12, "tyid": "304001", "oid": "103:1576575174601", "color": "#0056E7" }, "geometry": { "type": "Point", "coordinates": [ 24.433594, -20.879343 ] } }
{ "type": "Feature", "tippecanoe": { "layer": "2AFCA0530FD01583918836342", "minzoom": 2, "maxzoom": 8 }, "properties": { "halo": 1.6, "title": "东班图人诸部", "fontsize": 12, "tyid": "304001", "oid": "103:1576575174592", "color": "#0056E7" }, "geometry": { "type": "Point", "coordinates": [ 34.453125, -6.839170 ] } }
{ "type": "Feature", "tippecanoe": { "layer": "2AFCA0530FD01583918836342", "minzoom": 2, "maxzoom": 8 }, "properties": { "halo": 1.6, "title": "澳洲原住民", "fontsize": 12, "tyid": "304001", "oid": "103:1576575174699", "color": "#0056E7" }, "geometry": { "type": "Point", "coordinates": [ 134.296875, -25.562265 ] } }
{ "type": "Feature", "tippecanoe": { "layer": "2AFCA0530FD01583918836342", "minzoom": 2, "maxzoom": 8 }, "properties": { "halo": 1.6, "title": "巴布亚人", "fontsize": 12, "tyid": "304001", "oid": "103:1576575174809", "color": "#0056E7" }, "geometry": { "type": "Point", "coordinates": [ 140.888672, -5.266008 ] } }
{ "type": "Feature", "tippecanoe": { "layer": "2AFCA06D6C181583918836316", "minzoom": 2, "maxzoom": 8 }, "properties": { "halo": 0.8, "title": "拉霍亚文化", "fontsize": 12, "tyid": "304002", "oid": "103:1576575174818", "color": "#262626" }, "geometry": { "type": "Point", "coordinates": [ -118.916016, 34.597042 ] } }
{ "type": "Feature", "tippecanoe": { "layer": "2AFCA06D6C181583918836316", "minzoom": 2, "maxzoom": 8 }, "properties": { "halo": 0.8, "title": "古普韦布洛人", "fontsize": 12, "tyid": "304001", "oid": "103:1576575174793", "color": "#262626" }, "geometry": { "type": "Point", "coordinates": [ -110.126953, 36.949892 ] } }
{ "type": "Feature", "tippecanoe": { "layer": "2AFCA06D6C181583918836316", "minzoom": 2, "maxzoom": 8 }, "properties": { "halo": 0.8, "title": "科奇斯文化", "fontsize": 12, "tyid": "304002", "oid": "103:1576575174635", "color": "#262626" }, "geometry": { "type": "Point", "coordinates": [ -110.039062, 32.249974 ] } }
{ "type": "Feature", "tippecanoe": { "layer": "2AFCA06D6C181583918836316", "minzoom": 2, "maxzoom": 8 }, "properties": { "halo": 0.8, "title": "奇瓦瓦文化", "fontsize": 12, "tyid": "304002", "oid": "103:1576575174389", "color": "#262626" }, "geometry": { "type": "Point", "coordinates": [ -107.226562, 32.768800 ] } }
{ "type": "Feature", "tippecanoe": { "layer": "2AFCA06D6C181583918836316", "minzoom": 2, "maxzoom": 8 }, "properties": { "halo": 0.8, "title": "奥沙拉文化", "fontsize": 12, "tyid": "304002", "oid": "103:1576575174511", "color": "#262626" }, "geometry": { "type": "Point", "coordinates": [ -106.699219, 37.579413 ] } }
{ "type": "Feature", "tippecanoe": { "layer": "2AFCA06D6C181583918836316", "minzoom": 2, "maxzoom": 8 }, "properties": { "halo": 0.8, "title": "瓜伊库拉人", "fontsize": 12, "tyid": "304001", "oid": "103:1576575174687", "color": "#262626" }, "geometry": { "type": "Point", "coordinates": [ -111.269531, 24.846565 ] } }
{ "type": "Feature", "tippecanoe": { "layer": "2AFCA06D6C181583918836316", "minzoom": 2, "maxzoom": 8 }, "properties": { "halo": 0.8, "title": "楚拉时期", "fontsize": 12, "tyid": "304002", "oid": "103:1576575174682", "color": "#262626" }, "geometry": { "type": "Point", "coordinates": [ -92.109375, 32.620870 ] } }
{ "type": "Feature", "tippecanoe": { "layer": "2AFCA06D6C181583918836316", "minzoom": 2, "maxzoom": 8 }, "properties": { "halo": 0.8, "title": "华斯塔克文明", "fontsize": 12, "tyid": "304002", "oid": "103:1576575174570", "color": "#262626" }, "geometry": { "type": "Point", "coordinates": [ -98.613281, 22.105999 ] } }
{ "type": "Feature", "tippecanoe": { "layer": "2AFCA06D6C181583918836316", "minzoom": 2, "maxzoom": 8 }, "properties": { "halo": 0.8, "title": "奇蒂玛察人", "fontsize": 12, "tyid": "304001", "oid": "103:1576575174824", "color": "#262626" }, "geometry": { "type": "Point", "coordinates": [ -91.054688, 30.372875 ] } }
{ "type": "Feature", "tippecanoe": { "layer": "2AFCA06D6C181583918836316", "minzoom": 2, "maxzoom": 8 }, "properties": { "halo": 0.8, "title": "埃尔欧朋文化", "fontsize": 12, "tyid": "304002", "oid": "103:1576575174526", "color": "#262626" }, "geometry": { "type": "Point", "coordinates": [ -101.865234, 19.642588 ] } }
{ "type": "Feature", "tippecanoe": { "layer": "2AFCA06D6C181583918836316", "minzoom": 2, "maxzoom": 8 }, "properties": { "halo": 0.8, "title": "梅斯卡拉文化", "fontsize": 12, "tyid": "304002", "oid": "103:1576575174408", "color": "#262626" }, "geometry": { "type": "Point", "coordinates": [ -100.810547, 17.895114 ] } }
{ "type": "Feature", "tippecanoe": { "layer": "2AFCA06D6C181583918836316", "minzoom": 2, "maxzoom": 8 }, "properties": { "halo": 0.8, "title": "萨波特克文明", "fontsize": 12, "tyid": "304002", "oid": "103:1576575174662", "color": "#262626" }, "geometry": { "type": "Point", "coordinates": [ -96.064453, 16.636192 ] } }
{ "type": "Feature", "tippecanoe": { "layer": "2AFCA06D6C181583918836316", "minzoom": 2, "maxzoom": 8 }, "properties": { "halo": 0.8, "title": "奥尔梅克文明", "fontsize": 12, "tyid": "304002", "oid": "103:1576575174514", "color": "#262626" }, "geometry": { "type": "Point", "coordinates": [ -94.042969, 17.727759 ] } }
{ "type": "Feature", "tippecanoe": { "layer": "2AFCA06D6C181583918836316", "minzoom": 2, "maxzoom": 8 }, "properties": { "halo": 0.8, "title": "德普特福德文化", "fontsize": 12, "tyid": "304002", "oid": "103:1576575174458", "color": "#262626" }, "geometry": { "type": "Point", "coordinates": [ -79.628906, 33.358062 ] } }
{ "type": "Feature", "tippecanoe": { "layer": "2AFCA06D6C181583918836316", "minzoom": 2, "maxzoom": 8 }, "properties": { "halo": 0.8, "title": "切格文特文化", "fontsize": 12, "tyid": "304002", "oid": "103:1576575174826", "color": "#262626" }, "geometry": { "type": "Point", "coordinates": [ -89.208984, 30.600094 ] } }
{ "type": "Feature", "tippecanoe": { "layer": "2AFCA06D6C181583918836316", "minzoom": 2, "maxzoom": 8 }, "properties": { "halo": 0.8, "title": "玛雅文明[前古典时期]", "fontsize": 12, "tyid": "304002", "oid": "103:1576575174414", "color": "#262626" }, "geometry": { "type": "Point", "coordinates": [ -89.296875, 17.140790 ] } }
{ "type": "Feature", "tippecanoe": { "layer": "2AFCA06D6C181583918836316", "minzoom": 2, "maxzoom": 8 }, "properties": { "halo": 0.8, "title": "科瑞尔文化", "fontsize": 12, "tyid": "304002", "oid": "103:1576575174442", "color": "#262626" }, "geometry": { "type": "Point", "coordinates": [ -79.013672, 0.351560 ] } }
{ "type": "Feature", "tippecanoe": { "layer": "2AFCA06D6C181583918836316", "minzoom": 2, "maxzoom": 8 }, "properties": { "halo": 0.8, "title": "拉托利塔文化", "fontsize": 12, "tyid": "304002", "oid": "103:1576575174438", "color": "#262626" }, "geometry": { "type": "Point", "coordinates": [ -78.046875, 1.757537 ] } }
{ "type": "Feature", "tippecanoe": { "layer": "2AFCA06D6C181583918836316", "minzoom": 2, "maxzoom": 8 }, "properties": { "halo": 0.8, "title": "埃雷拉时期", "fontsize": 12, "tyid": "304002", "oid": "103:1576575174522", "color": "#262626" }, "geometry": { "type": "Point", "coordinates": [ -73.476562, 5.441022 ] } }
{ "type": "Feature", "tippecanoe": { "layer": "2AFCA06D6C181583918836316", "minzoom": 2, "maxzoom": 8 }, "properties": { "halo": 0.8, "title": "伊奈里人", "fontsize": 12, "tyid": "304001", "oid": "103:1576575174318", "color": "#262626" }, "geometry": { "type": "Point", "coordinates": [ -61.611328, 8.841651 ] } }
{ "type": "Feature", "tippecanoe": { "layer": "2AFCA06D6C181583918836316", "minzoom": 2, "maxzoom": 8 }, "properties": { "halo": 0.8, "title": "皮克特人", "fontsize": 12, "tyid": "304001", "oid": "103:1576575174677", "color": "#262626" }, "geometry": { "type": "Point", "coordinates": [ -4.042969, 56.704506 ] } }
{ "type": "Feature", "tippecanoe": { "layer": "2AFCA06D6C181583918836316", "minzoom": 2, "maxzoom": 8 }, "properties": { "halo": 0.8, "title": "盖尔人", "fontsize": 12, "tyid": "304001", "oid": "103:1576575174609", "color": "#262626" }, "geometry": { "type": "Point", "coordinates": [ -7.910156, 53.435719 ] } }
{ "type": "Feature", "tippecanoe": { "layer": "2AFCA06D6C181583918836316", "minzoom": 2, "maxzoom": 8 }, "properties": { "halo": 0.8, "title": "加利西亚人", "fontsize": 12, "tyid": "304001", "oid": "103:1576575174894", "color": "#262626" }, "geometry": { "type": "Point", "coordinates": [ -7.998047, 42.488302 ] } }
{ "type": "Feature", "tippecanoe": { "layer": "2AFCA06D6C181583918836316", "minzoom": 2, "maxzoom": 8 }, "properties": { "halo": 0.8, "title": "阿斯图尔人", "fontsize": 12, "tyid": "304001", "oid": "103:1576575174524", "color": "#262626" }, "geometry": { "type": "Point", "coordinates": [ -6.152344, 42.553080 ] } }
{ "type": "Feature", "tippecanoe": { "layer": "2AFCA06D6C181583918836316", "minzoom": 2, "maxzoom": 8 }, "properties": { "halo": 0.8, "title": "卡斯特罗文化", "fontsize": 12, "tyid": "304002", "oid": "103:1576575174452", "color": "#262626" }, "geometry": { "type": "Point", "coordinates": [ -4.394531, 43.068888 ] } }
{ "type": "Feature", "tippecanoe": { "layer": "2AFCA06D6C181583918836316", "minzoom": 2, "maxzoom": 8 }, "properties": { "halo": 0.8, "title": "瓦凯伊人", "fontsize": 12, "tyid": "304001", "oid": "103:1576575174356", "color": "#262626" }, "geometry": { "type": "Point", "coordinates": [ -4.658203, 41.640078 ] } }
{ "type": "Feature", "tippecanoe": { "layer": "2AFCA06D6C181583918836316", "minzoom": 2, "maxzoom": 8 }, "properties": { "halo": 0.8, "title": "阿奎丹人", "fontsize": 12, "tyid": "304001", "oid": "103:1576575174527", "color": "#262626" }, "geometry": { "type": "Point", "coordinates": [ -0.175781, 43.834527 ] } }
{ "type": "Feature", "tippecanoe": { "layer": "2AFCA06D6C181583918836316", "minzoom": 2, "maxzoom": 8 }, "properties": { "halo": 0.8, "title": "卢西塔利亚人", "fontsize": 12, "tyid": "304001", "oid": "103:1576575174426", "color": "#262626" }, "geometry": { "type": "Point", "coordinates": [ -7.646484, 40.313043 ] } }
{ "type": "Feature", "tippecanoe": { "layer": "2AFCA06D6C181583918836316", "minzoom": 2, "maxzoom": 8 }, "properties": { "halo": 0.8, "title": "凯蒂奇人", "fontsize": 12, "tyid": "304001", "oid": "103:1576575174893", "color": "#262626" }, "geometry": { "type": "Point", "coordinates": [ -7.646484, 38.959409 ] } }
{ "type": "Feature", "tippecanoe": { "layer": "2AFCA06D6C181583918836316", "minzoom": 2, "maxzoom": 8 }, "properties": { "halo": 0.8, "title": "维托内人", "fontsize": 12, "tyid": "304001", "oid": "103:1576575174354", "color": "#262626" }, "geometry": { "type": "Point", "coordinates": [ -5.800781, 40.313043 ] } }
{ "type": "Feature", "tippecanoe": { "layer": "2AFCA06D6C181583918836316", "minzoom": 2, "maxzoom": 8 }, "properties": { "halo": 0.8, "title": "西尼特人", "fontsize": 12, "tyid": "304001", "oid": "103:1576575174889", "color": "#262626" }, "geometry": { "type": "Point", "coordinates": [ -8.261719, 37.649034 ] } }
{ "type": "Feature", "tippecanoe": { "layer": "2AFCA06D6C181583918836316", "minzoom": 2, "maxzoom": 8 }, "properties": { "halo": 0.8, "title": "图尔杜利人", "fontsize": 12, "tyid": "304001", "oid": "103:1576575174360", "color": "#262626" }, "geometry": { "type": "Point", "coordinates": [ -6.855469, 38.479395 ] } }
{ "type": "Feature", "tippecanoe": { "layer": "2AFCA06D6C181583918836316", "minzoom": 2, "maxzoom": 8 }, "properties": { "halo": 0.8, "title": "卡佩塔尼人", "fontsize": 12, "tyid": "304001", "oid": "103:1576575174453", "color": "#262626" }, "geometry": { "type": "Point", "coordinates": [ -3.955078, 39.977120 ] } }
{ "type": "Feature", "tippecanoe": { "layer": "2AFCA06D6C181583918836316", "minzoom": 2, "maxzoom": 8 }, "properties": { "halo": 0.8, "title": "图尔德泰尼人", "fontsize": 12, "tyid": "304001", "oid": "103:1576575174553", "color": "#262626" }, "geometry": { "type": "Point", "coordinates": [ -5.097656, 37.718590 ] } }
{ "type": "Feature", "tippecanoe": { "layer": "2AFCA06D6C181583918836316", "minzoom": 2, "maxzoom": 8 }, "properties": { "halo": 0.8, "title": "奥雷塔尼人", "fontsize": 12, "tyid": "304001", "oid": "103:1576575174512", "color": "#262626" }, "geometry": { "type": "Point", "coordinates": [ -3.251953, 38.548165 ] } }
{ "type": "Feature", "tippecanoe": { "layer": "2AFCA06D6C181583918836316", "minzoom": 2, "maxzoom": 8 }, "properties": { "halo": 0.8, "title": "凯尔特伊比利亚人", "fontsize": 12, "tyid": "304001", "oid": "103:1576575174445", "color": "#262626" }, "geometry": { "type": "Point", "coordinates": [ -2.197266, 40.780541 ] } }
{ "type": "Feature", "tippecanoe": { "layer": "2AFCA06D6C181583918836316", "minzoom": 2, "maxzoom": 8 }, "properties": { "halo": 0.8, "title": "巴斯塔尼人", "fontsize": 12, "tyid": "304001", "oid": "103:1576575174498", "color": "#262626" }, "geometry": { "type": "Point", "coordinates": [ -2.460938, 37.579413 ] } }
{ "type": "Feature", "tippecanoe": { "layer": "2AFCA06D6C181583918836316", "minzoom": 2, "maxzoom": 8 }, "properties": { "halo": 0.8, "title": "达尔蒂奇特文化", "fontsize": 12, "tyid": "304002", "oid": "103:1576575174760", "color": "#262626" }, "geometry": { "type": "Point", "coordinates": [ -9.404297, 18.812718 ] } }
{ "type": "Feature", "tippecanoe": { "layer": "2AFCA06D6C181583918836316", "minzoom": 2, "maxzoom": 8 }, "properties": { "halo": 0.8, "title": "楚真文化", "fontsize": 12, "tyid": "304002", "oid": "103:1576575174693", "color": "#262626" }, "geometry": { "type": "Point", "coordinates": [ -70.576172, -16.299051 ] } }
{ "type": "Feature", "tippecanoe": { "layer": "2AFCA06D6C181583918836316", "minzoom": 2, "maxzoom": 8 }, "properties": { "halo": 0.8, "title": "普卡拉文化", "fontsize": 12, "tyid": "304002", "oid": "103:1576575174391", "color": "#262626" }, "geometry": { "type": "Point", "coordinates": [ -70.048828, -14.434680 ] } }
{ "type": "Feature", "tippecanoe": { "layer": "2AFCA06D6C181583918836316", "minzoom": 2, "maxzoom": 8 }, "properties": { "halo": 0.8, "title": "艾马拉人", "fontsize": 12, "tyid": "304001", "oid": "103:1576575174768", "color": "#262626" }, "geometry": { "type": "Point", "coordinates": [ -68.378906, -17.056785 ] } }
{ "type": "Feature", "tippecanoe": { "layer": "2AFCA06D6C181583918836316", "minzoom": 2, "maxzoom": 8 }, "properties": { "halo": 0.8, "title": "安西尔塔文化", "fontsize": 12, "tyid": "304002", "oid": "103:1576575174519", "color": "#262626" }, "geometry": { "type": "Point", "coordinates": [ -68.818359, -31.353637 ] } }
{ "type": "Feature", "tippecanoe": { "layer": "2AFCA06D6C181583918836316", "minzoom": 2, "maxzoom": 8 }, "properties": { "halo": 0.8, "title": "巴托文化", "fontsize": 12, "tyid": "304002", "oid": "103:1576575174759", "color": "#262626" }, "geometry": { "type": "Point", "coordinates": [ -70.839844, -33.431441 ] } }
{ "type": "Feature", "tippecanoe": { "layer": "2AFCA06D6C181583918836316", "minzoom": 2, "maxzoom": 8 }, "properties": { "halo": 0.8, "title": "马普切人", "fontsize": 12, "tyid": "304001", "oid": "103:1576575174417", "color": "#262626" }, "geometry": { "type": "Point", "coordinates": [ -71.455078, -38.959409 ] } }
{ "type": "Feature", "tippecanoe": { "layer": "2AFCA06D6C181583918836316", "minzoom": 2, "maxzoom": 8 }, "properties": { "halo": 0.8, "title": "摩克索人", "fontsize": 12, "tyid": "304001", "oid": "103:1576575174401", "color": "#262626" }, "geometry": { "type": "Point", "coordinates": [ -65.830078, -13.923404 ] } }
{ "type": "Feature", "tippecanoe": { "layer": "2AFCA06D6C181583918836316", "minzoom": 2, "maxzoom": 8 }, "properties": { "halo": 0.8, "title": "瓦卡拉尼文化", "fontsize": 12, "tyid": "304002", "oid": "103:1576575174647", "color": "#262626" }, "geometry": { "type": "Point", "coordinates": [ -64.951172, -17.811456 ] } }
{ "type": "Feature", "tippecanoe": { "layer": "2AFCA06D6C181583918836316", "minzoom": 2, "maxzoom": 8 }, "properties": { "halo": 0.8, "title": "查鲁亚人", "fontsize": 12, "tyid": "304001", "oid": "103:1576575174472", "color": "#262626" }, "geometry": { "type": "Point", "coordinates": [ -57.128906, -32.398516 ] } }
{ "type": "Feature", "tippecanoe": { "layer": "2AFCA06D6C181583918836316", "minzoom": 2, "maxzoom": 8 }, "properties": { "halo": 0.8, "title": "特胡尔切人", "fontsize": 12, "tyid": "304001", "oid": "103:1576575174651", "color": "#262626" }, "geometry": { "type": "Point", "coordinates": [ -70.751953, -50.176898 ] } }
{ "type": "Feature", "tippecanoe": { "layer": "2AFCA06D6C181583918836316", "minzoom": 2, "maxzoom": 8 }, "properties": { "halo": 0.8, "title": "塞尔克南人", "fontsize": 12, "tyid": "304001", "oid": "103:1576575174657", "color": "#262626" }, "geometry": { "type": "Point", "coordinates": [ -68.378906, -53.696706 ] } }
{ "type": "Feature", "tippecanoe": { "layer": "2AFCA06D6C181583918836316", "minzoom": 2, "maxzoom": 8 }, "properties": { "halo": 0.8, "title": "雅干人", "fontsize": 12, "tyid": "304001", "oid": "103:1576575174758", "color": "#262626" }, "geometry": { "type": "Point", "coordinates": [ -68.554688, -54.521081 ] } }
{ "type": "Feature", "tippecanoe": { "layer": "2AFCA06D6C181583918836316", "minzoom": 2, "maxzoom": 8 }, "properties": { "halo": 0.8, "title": "屋瓮文化", "fontsize": 12, "tyid": "304002", "oid": "103:1576575174344", "color": "#262626" }, "geometry": { "type": "Point", "coordinates": [ 10.898438, 51.399206 ] } }
{ "type": "Feature", "tippecanoe": { "layer": "2AFCA06D6C181583918836316", "minzoom": 2, "maxzoom": 8 }, "properties": { "halo": 0.8, "title": "伊勒格泰人", "fontsize": 12, "tyid": "304001", "oid": "103:1576575174321", "color": "#262626" }, "geometry": { "type": "Point", "coordinates": [ 0.351562, 42.228517 ] } }
{ "type": "Feature", "tippecanoe": { "layer": "2AFCA06D6C181583918836316", "minzoom": 2, "maxzoom": 8 }, "properties": { "halo": 0.8, "title": "蕾蒂人", "fontsize": 12, "tyid": "304001", "oid": "103:1576575174436", "color": "#262626" }, "geometry": { "type": "Point", "coordinates": [ 10.546875, 47.100045 ] } }
{ "type": "Feature", "tippecanoe": { "layer": "2AFCA06D6C181583918836316", "minzoom": 2, "maxzoom": 8 }, "properties": { "halo": 0.8, "title": "利古里亚人", "fontsize": 12, "tyid": "304002", "oid": "103:1576575174434", "color": "#262626" }, "geometry": { "type": "Point", "coordinates": [ 8.173828, 44.527843 ] } }
{ "type": "Feature", "tippecanoe": { "layer": "2AFCA06D6C181583918836316", "minzoom": 2, "maxzoom": 8 }, "properties": { "halo": 0.8, "title": "亚斯托夫文化", "fontsize": 12, "tyid": "304002", "oid": "103:1576575174540", "color": "#262626" }, "geometry": { "type": "Point", "coordinates": [ 11.337891, 53.173119 ] } }
{ "type": "Feature", "tippecanoe": { "layer": "2AFCA06D6C181583918836316", "minzoom": 2, "maxzoom": 8 }, "properties": { "halo": 0.8, "title": "波美拉尼亚文化", "fontsize": 12, "tyid": "304002", "oid": "103:1576575174709", "color": "#262626" }, "geometry": { "type": "Point", "coordinates": [ 17.490234, 53.696706 ] } }
{ "type": "Feature", "tippecanoe": { "layer": "2AFCA06D6C181583918836316", "minzoom": 2, "maxzoom": 8 }, "properties": { "halo": 0.8, "title": "西波罗的海坟文化", "fontsize": 12, "tyid": "304002", "oid": "103:1576575174337", "color": "#262626" }, "geometry": { "type": "Point", "coordinates": [ 21.708984, 54.213861 ] } }
{ "type": "Feature", "tippecanoe": { "layer": "2AFCA06D6C181583918836316", "minzoom": 2, "maxzoom": 8 }, "properties": { "halo": 0.8, "title": "威尼蒂人[亚得里亚海]", "fontsize": 12, "tyid": "304001", "oid": "103:1576575174546", "color": "#262626" }, "geometry": { "type": "Point", "coordinates": [ 12.041016, 45.767523 ] } }
{ "type": "Feature", "tippecanoe": { "layer": "2AFCA06D6C181583918836316", "minzoom": 2, "maxzoom": 8 }, "properties": { "halo": 0.8, "title": "伊特鲁里亚文明", "fontsize": 12, "tyid": "304002", "oid": "103:1576575174881", "color": "#262626" }, "geometry": { "type": "Point", "coordinates": [ 11.250000, 43.834527 ] } }
{ "type": "Feature", "tippecanoe": { "layer": "2AFCA06D6C181583918836316", "minzoom": 2, "maxzoom": 8 }, "properties": { "halo": 0.8, "title": "萨莫奈人", "fontsize": 12, "tyid": "304001", "oid": "103:1576575174380", "color": "#262626" }, "geometry": { "type": "Point", "coordinates": [ 14.501953, 41.310824 ] } }
{ "type": "Feature", "tippecanoe": { "layer": "2AFCA06D6C181583918836316", "minzoom": 2, "maxzoom": 8 }, "properties": { "halo": 0.8, "title": "伊利里亚人", "fontsize": 12, "tyid": "304000", "oid": "103:1576575174319", "color": "#202020" }, "geometry": { "type": "Point", "coordinates": [ 17.841797, 43.834527 ] } }
{ "type": "Feature", "tippecanoe": { "layer": "2AFCA06D6C181583918836316", "minzoom": 2, "maxzoom": 8 }, "properties": { "halo": 0.8, "title": "达尔达尼亚人", "fontsize": 12, "tyid": "304001", "oid": "103:1576575174462", "color": "#262626" }, "geometry": { "type": "Point", "coordinates": [ 21.533203, 43.644026 ] } }
{ "type": "Feature", "tippecanoe": { "layer": "2AFCA06D6C181583918836316", "minzoom": 2, "maxzoom": 8 }, "properties": { "halo": 0.8, "title": "古爱沙尼亚人", "fontsize": 12, "tyid": "304001", "oid": "103:1576575174804", "color": "#262626" }, "geometry": { "type": "Point", "coordinates": [ 25.576172, 58.995311 ] } }
{ "type": "Feature", "tippecanoe": { "layer": "2AFCA06D6C181583918836316", "minzoom": 2, "maxzoom": 8 }, "properties": { "halo": 0.8, "title": "利沃尼亚人", "fontsize": 12, "tyid": "304001", "oid": "103:1576575174431", "color": "#262626" }, "geometry": { "type": "Point", "coordinates": [ 26.279297, 57.231503 ] } }
{ "type": "Feature", "tippecanoe": { "layer": "2AFCA06D6C181583918836316", "minzoom": 2, "maxzoom": 8 }, "properties": { "halo": 0.8, "title": "沃茨人", "fontsize": 12, "tyid": "304001", "oid": "103:1576575174350", "color": "#262626" },