{"year": "BC450000000",  "type": "Feature", "tippecanoe": { "layer": "2B0947D18B701572856868776", "minzoom": 2, "maxzoom": 10 }, "properties": { "color": "#15708D", "tyid": "301001", "oid": "103:1571623899008", "title": "泛大洋", "fontsize": 16, "offset": "[0,1.3]" }, "geometry": { "type": "Point", "coordinates": [ -90.175781, 30.069094 ] } }
{"year": "BC450000000",  "type": "Feature", "tippecanoe": { "layer": "2B0947D18B701572856868776", "minzoom": 2, "maxzoom": 10 }, "properties": { "color": "#15708D", "tyid": "301001", "oid": "103:1571623899006", "title": "巨神海", "fontsize": 16, "offset": "[0,1.3]" }, "geometry": { "type": "Point", "coordinates": [ -70.136719, -37.370157 ] } }
{"year": "BC450000000",  "type": "Feature", "tippecanoe": { "layer": "2B0947D18B701572856868776", "minzoom": 2, "maxzoom": 10 }, "properties": { "fontsize": 16, "color": "#333333", "tyid": "300001", "oid": "103:1571623899013", "title": "劳伦大陆" }, "geometry": { "type": "Point", "coordinates": [ -30.410156, -5.878332 ] } }
{"year": "BC450000000",  "type": "Feature", "tippecanoe": { "layer": "2B0947D18B701572856868776", "minzoom": 2, "maxzoom": 10 }, "properties": { "fontsize": 16, "color": "#333333", "tyid": "300001", "oid": "103:1571623899017", "title": "波罗地大陆" }, "geometry": { "type": "Point", "coordinates": [ -1.142578, -20.303418 ] } }
{"year": "BC450000000",  "type": "Feature", "tippecanoe": { "layer": "2B0947D18B701572856868776", "minzoom": 2, "maxzoom": 10 }, "properties": { "fontsize": 16, "color": "#333333", "tyid": "300001", "oid": "103:1571623899015", "title": "西伯利亚大陆" }, "geometry": { "type": "Point", "coordinates": [ 15.732422, 23.160563 ] } }
{"year": "BC450000000",  "type": "Feature", "tippecanoe": { "layer": "2B0947D18B701572856868776", "minzoom": 2, "maxzoom": 10 }, "properties": { "color": "#15708D", "tyid": "301001", "oid": "103:1571623899010", "title": "古特提斯洋", "fontsize": 16, "offset": "[0,1.3]" }, "geometry": { "type": "Point", "coordinates": [ 45.000000, -18.479609 ] } }
{"year": "BC450000000",  "type": "Feature", "tippecanoe": { "layer": "2B0947D18B701572856868776", "minzoom": 2, "maxzoom": 10 }, "properties": { "fontsize": 16, "color": "#333333", "tyid": "300001", "oid": "103:1571623899012", "title": "冈瓦那大陆" }, "geometry": { "type": "Point", "coordinates": [ 148.447266, -58.263287 ] } }
