{"year": "BC470000000",  "type": "Feature", "tippecanoe": { "layer": "2B099874B8281572856869010", "minzoom": 2, "maxzoom": 10 }, "properties": { "color": "#15708D", "tyid": "301001", "oid": "103:1571623894121", "title": "泛大洋", "fontsize": 16, "offset": "[0,1.3]" }, "geometry": { "type": "Point", "coordinates": [ -90.175781, 30.069094 ] } }
{"year": "BC470000000",  "type": "Feature", "tippecanoe": { "layer": "2B099874B8281572856869010", "minzoom": 2, "maxzoom": 10 }, "properties": { "color": "#15708D", "tyid": "301001", "oid": "103:1571623894117", "title": "巨神海", "fontsize": 16, "offset": "[0,1.3]" }, "geometry": { "type": "Point", "coordinates": [ -53.173828, -47.989922 ] } }
{"year": "BC470000000",  "type": "Feature", "tippecanoe": { "layer": "2B099874B8281572856869010", "minzoom": 2, "maxzoom": 10 }, "properties": { "fontsize": 16, "color": "#333333", "tyid": "300001", "oid": "103:1571623896917", "title": "劳伦大陆" }, "geometry": { "type": "Point", "coordinates": [ -43.330078, -15.453680 ] } }
{"year": "BC470000000",  "type": "Feature", "tippecanoe": { "layer": "2B099874B8281572856869010", "minzoom": 2, "maxzoom": 10 }, "properties": { "fontsize": 16, "color": "#333333", "tyid": "300001", "oid": "103:1571623896919", "title": "波罗地大陆" }, "geometry": { "type": "Point", "coordinates": [ -2.285156, -32.398516 ] } }
{"year": "BC470000000",  "type": "Feature", "tippecanoe": { "layer": "2B099874B8281572856869010", "minzoom": 2, "maxzoom": 10 }, "properties": { "fontsize": 16, "color": "#333333", "tyid": "300001", "oid": "103:1571623896921", "title": "西伯利亚大陆" }, "geometry": { "type": "Point", "coordinates": [ 17.666016, 12.554564 ] } }
{"year": "BC470000000",  "type": "Feature", "tippecanoe": { "layer": "2B099874B8281572856869010", "minzoom": 2, "maxzoom": 10 }, "properties": { "color": "#15708D", "tyid": "301001", "oid": "103:1571623894119", "title": "古特提斯洋", "fontsize": 16, "offset": "[0,1.3]" }, "geometry": { "type": "Point", "coordinates": [ 45.000000, -18.479609 ] } }
{"year": "BC470000000",  "type": "Feature", "tippecanoe": { "layer": "2B099874B8281572856869010", "minzoom": 2, "maxzoom": 10 }, "properties": { "fontsize": 16, "color": "#333333", "tyid": "300001", "oid": "103:1571623896916", "title": "冈瓦那大陆" }, "geometry": { "type": "Point", "coordinates": [ 153.369141, -55.379110 ] } }
