{ "type": "Feature", "tippecanoe": { "layer": "2AFCA0B957801583918915443", "minzoom": 2, "maxzoom": 8 }, "properties": { "halo": 1.6, "title": "拉霍亚文化", "fontsize": 12, "tyid": "304002", "oid": "103:1576575163751", "color": "#0056E7" }, "geometry": { "type": "Point", "coordinates": [ -118.740234, 34.597042 ] } }
{ "type": "Feature", "tippecanoe": { "layer": "2AFCA0B957801583918915443", "minzoom": 2, "maxzoom": 8 }, "properties": { "halo": 1.6, "title": "古普韦布洛人", "fontsize": 12, "tyid": "304001", "oid": "103:1576575163924", "color": "#0056E7" }, "geometry": { "type": "Point", "coordinates": [ -110.126953, 36.949892 ] } }
{ "type": "Feature", "tippecanoe": { "layer": "2AFCA0B957801583918915443", "minzoom": 2, "maxzoom": 8 }, "properties": { "halo": 1.6, "title": "科奇斯文化", "fontsize": 12, "tyid": "304002", "oid": "103:1576575163778", "color": "#0056E7" }, "geometry": { "type": "Point", "coordinates": [ -110.039062, 32.249974 ] } }
{ "type": "Feature", "tippecanoe": { "layer": "2AFCA0B957801583918915443", "minzoom": 2, "maxzoom": 8 }, "properties": { "halo": 1.6, "title": "奇瓦瓦文化", "fontsize": 12, "tyid": "304002", "oid": "103:1576575163960", "color": "#0056E7" }, "geometry": { "type": "Point", "coordinates": [ -107.226562, 32.768800 ] } }
{ "type": "Feature", "tippecanoe": { "layer": "2AFCA0B957801583918915443", "minzoom": 2, "maxzoom": 8 }, "properties": { "halo": 1.6, "title": "奥沙拉文化", "fontsize": 12, "tyid": "304002", "oid": "103:1576575163681", "color": "#0056E7" }, "geometry": { "type": "Point", "coordinates": [ -106.875000, 37.090240 ] } }
{ "type": "Feature", "tippecanoe": { "layer": "2AFCA0B957801583918915443", "minzoom": 2, "maxzoom": 8 }, "properties": { "halo": 1.6, "title": "瓜伊库拉人", "fontsize": 12, "tyid": "304001", "oid": "103:1576575163858", "color": "#0056E7" }, "geometry": { "type": "Point", "coordinates": [ -111.269531, 24.846565 ] } }
{ "type": "Feature", "tippecanoe": { "layer": "2AFCA0B957801583918915443", "minzoom": 2, "maxzoom": 8 }, "properties": { "halo": 1.6, "title": "楚拉时期", "fontsize": 12, "tyid": "304002", "oid": "103:1576575163722", "color": "#0056E7" }, "geometry": { "type": "Point", "coordinates": [ -92.109375, 32.620870 ] } }
{ "type": "Feature", "tippecanoe": { "layer": "2AFCA0B957801583918915443", "minzoom": 2, "maxzoom": 8 }, "properties": { "halo": 1.6, "title": "华斯塔克文明", "fontsize": 12, "tyid": "304002", "oid": "103:1576575163770", "color": "#0056E7" }, "geometry": { "type": "Point", "coordinates": [ -98.613281, 22.105999 ] } }
{ "type": "Feature", "tippecanoe": { "layer": "2AFCA0B957801583918915443", "minzoom": 2, "maxzoom": 8 }, "properties": { "halo": 1.6, "title": "奇蒂玛察人", "fontsize": 12, "tyid": "304001", "oid": "103:1576575163914", "color": "#0056E7" }, "geometry": { "type": "Point", "coordinates": [ -91.054688, 30.372875 ] } }
{ "type": "Feature", "tippecanoe": { "layer": "2AFCA0B957801583918915443", "minzoom": 2, "maxzoom": 8 }, "properties": { "halo": 1.6, "title": "埃尔欧朋文化", "fontsize": 12, "tyid": "304002", "oid": "103:1576575163689", "color": "#0056E7" }, "geometry": { "type": "Point", "coordinates": [ -101.689453, 19.476950 ] } }
{ "type": "Feature", "tippecanoe": { "layer": "2AFCA0B957801583918915443", "minzoom": 2, "maxzoom": 8 }, "properties": { "halo": 1.6, "title": "梅斯卡拉文化", "fontsize": 12, "tyid": "304002", "oid": "103:1576575163610", "color": "#0056E7" }, "geometry": { "type": "Point", "coordinates": [ -100.810547, 17.895114 ] } }
{ "type": "Feature", "tippecanoe": { "layer": "2AFCA0B957801583918915443", "minzoom": 2, "maxzoom": 8 }, "properties": { "halo": 1.6, "title": "萨波特克文明", "fontsize": 12, "tyid": "304002", "oid": "103:1576575164138", "color": "#0056E7" }, "geometry": { "type": "Point", "coordinates": [ -96.064453, 16.636192 ] } }
{ "type": "Feature", "tippecanoe": { "layer": "2AFCA0B957801583918915443", "minzoom": 2, "maxzoom": 8 }, "properties": { "halo": 1.6, "title": "奥尔梅克文明", "fontsize": 12, "tyid": "304002", "oid": "103:1576575163683", "color": "#0056E7" }, "geometry": { "type": "Point", "coordinates": [ -94.042969, 17.727759 ] } }
{ "type": "Feature", "tippecanoe": { "layer": "2AFCA0B957801583918915443", "minzoom": 2, "maxzoom": 8 }, "properties": { "halo": 1.6, "title": "德普特福德文化", "fontsize": 12, "tyid": "304002", "oid": "103:1576575164065", "color": "#0056E7" }, "geometry": { "type": "Point", "coordinates": [ -79.716797, 33.284620 ] } }
{ "type": "Feature", "tippecanoe": { "layer": "2AFCA0B957801583918915443", "minzoom": 2, "maxzoom": 8 }, "properties": { "halo": 1.6, "title": "切格文特文化", "fontsize": 12, "tyid": "304002", "oid": "103:1576575163795", "color": "#0056E7" }, "geometry": { "type": "Point", "coordinates": [ -89.208984, 30.600094 ] } }
{ "type": "Feature", "tippecanoe": { "layer": "2AFCA0B957801583918915443", "minzoom": 2, "maxzoom": 8 }, "properties": { "halo": 1.6, "title": "诺伍德文化", "fontsize": 12, "tyid": "304002", "oid": "103:1576575163896", "color": "#0056E7" }, "geometry": { "type": "Point", "coordinates": [ -84.638672, 30.297018 ] } }
{ "type": "Feature", "tippecanoe": { "layer": "2AFCA0B957801583918915443", "minzoom": 2, "maxzoom": 8 }, "properties": { "halo": 1.6, "title": "卡卢萨人", "fontsize": 12, "tyid": "304001", "oid": "103:1576575163642", "color": "#0056E7" }, "geometry": { "type": "Point", "coordinates": [ -81.650391, 26.902477 ] } }
{ "type": "Feature", "tippecanoe": { "layer": "2AFCA0B957801583918915443", "minzoom": 2, "maxzoom": 8 }, "properties": { "halo": 1.6, "title": "玛雅文明[前古典时期]", "fontsize": 12, "tyid": "304002", "oid": "103:1576575164153", "color": "#0056E7" }, "geometry": { "type": "Point", "coordinates": [ -89.296875, 17.140790 ] } }
{ "type": "Feature", "tippecanoe": { "layer": "2AFCA0B957801583918915443", "minzoom": 2, "maxzoom": 8 }, "properties": { "halo": 1.6, "title": "拉托利塔文化", "fontsize": 12, "tyid": "304002", "oid": "103:1576575163902", "color": "#0056E7" }, "geometry": { "type": "Point", "coordinates": [ -78.046875, 1.757537 ] } }
{ "type": "Feature", "tippecanoe": { "layer": "2AFCA0B957801583918915443", "minzoom": 2, "maxzoom": 8 }, "properties": { "halo": 1.6, "title": "埃雷拉时期", "fontsize": 12, "tyid": "304002", "oid": "103:1576575164077", "color": "#0056E7" }, "geometry": { "type": "Point", "coordinates": [ -73.476562, 5.441022 ] } }
{ "type": "Feature", "tippecanoe": { "layer": "2AFCA0B957801583918915443", "minzoom": 2, "maxzoom": 8 }, "properties": { "halo": 1.6, "title": "伊奈里人", "fontsize": 12, "tyid": "304001", "oid": "103:1576575163556", "color": "#0056E7" }, "geometry": { "type": "Point", "coordinates": [ -63.281250, 8.494105 ] } }
{ "type": "Feature", "tippecanoe": { "layer": "2AFCA0B957801583918915443", "minzoom": 2, "maxzoom": 8 }, "properties": { "halo": 1.6, "title": "皮克特人", "fontsize": 12, "tyid": "304001", "oid": "103:1576575163822", "color": "#0056E7" }, "geometry": { "type": "Point", "coordinates": [ -4.042969, 56.704506 ] } }
{ "type": "Feature", "tippecanoe": { "layer": "2AFCA0B957801583918915443", "minzoom": 2, "maxzoom": 8 }, "properties": { "halo": 1.6, "title": "盖尔人", "fontsize": 12, "tyid": "304001", "oid": "103:1576575163861", "color": "#0056E7" }, "geometry": { "type": "Point", "coordinates": [ -7.910156, 53.435719 ] } }
{ "type": "Feature", "tippecanoe": { "layer": "2AFCA0B957801583918915443", "minzoom": 2, "maxzoom": 8 }, "properties": { "halo": 1.6, "title": "加利西亚人", "fontsize": 12, "tyid": "304001", "oid": "103:1576575164177", "color": "#0056E7" }, "geometry": { "type": "Point", "coordinates": [ -7.998047, 42.488302 ] } }
{ "type": "Feature", "tippecanoe": { "layer": "2AFCA0B957801583918915443", "minzoom": 2, "maxzoom": 8 }, "properties": { "halo": 1.6, "title": "阿斯图尔人", "fontsize": 12, "tyid": "304001", "oid": "103:1576575163688", "color": "#0056E7" }, "geometry": { "type": "Point", "coordinates": [ -6.152344, 42.553080 ] } }
{ "type": "Feature", "tippecanoe": { "layer": "2AFCA0B957801583918915443", "minzoom": 2, "maxzoom": 8 }, "properties": { "halo": 1.6, "title": "瓦凯伊人", "fontsize": 12, "tyid": "304001", "oid": "103:1576575163572", "color": "#0056E7" }, "geometry": { "type": "Point", "coordinates": [ -4.658203, 41.640078 ] } }
{ "type": "Feature", "tippecanoe": { "layer": "2AFCA0B957801583918915443", "minzoom": 2, "maxzoom": 8 }, "properties": { "halo": 1.6, "title": "卡斯特罗文化", "fontsize": 12, "tyid": "304002", "oid": "103:1576575163641", "color": "#0056E7" }, "geometry": { "type": "Point", "coordinates": [ -3.515625, 42.811522 ] } }
{ "type": "Feature", "tippecanoe": { "layer": "2AFCA0B957801583918915443", "minzoom": 2, "maxzoom": 8 }, "properties": { "halo": 1.6, "title": "阿奎丹人", "fontsize": 12, "tyid": "304001", "oid": "103:1576575163691", "color": "#0056E7" }, "geometry": { "type": "Point", "coordinates": [ -0.175781, 43.834527 ] } }
{ "type": "Feature", "tippecanoe": { "layer": "2AFCA0B957801583918915443", "minzoom": 2, "maxzoom": 8 }, "properties": { "halo": 1.6, "title": "卢西塔利亚人", "fontsize": 12, "tyid": "304001", "oid": "103:1576575164175", "color": "#0056E7" }, "geometry": { "type": "Point", "coordinates": [ -8.085938, 40.313043 ] } }
{ "type": "Feature", "tippecanoe": { "layer": "2AFCA0B957801583918915443", "minzoom": 2, "maxzoom": 8 }, "properties": { "halo": 1.6, "title": "凯蒂奇人", "fontsize": 12, "tyid": "304001", "oid": "103:1576575164173", "color": "#0056E7" }, "geometry": { "type": "Point", "coordinates": [ -7.646484, 38.959409 ] } }
{ "type": "Feature", "tippecanoe": { "layer": "2AFCA0B957801583918915443", "minzoom": 2, "maxzoom": 8 }, "properties": { "halo": 1.6, "title": "维托内人", "fontsize": 12, "tyid": "304001", "oid": "103:1576575163570", "color": "#0056E7" }, "geometry": { "type": "Point", "coordinates": [ -5.800781, 40.313043 ] } }
{ "type": "Feature", "tippecanoe": { "layer": "2AFCA0B957801583918915443", "minzoom": 2, "maxzoom": 8 }, "properties": { "halo": 1.6, "title": "西尼特人", "fontsize": 12, "tyid": "304001", "oid": "103:1576575164171", "color": "#0056E7" }, "geometry": { "type": "Point", "coordinates": [ -8.261719, 37.649034 ] } }
{ "type": "Feature", "tippecanoe": { "layer": "2AFCA0B957801583918915443", "minzoom": 2, "maxzoom": 8 }, "properties": { "halo": 1.6, "title": "图尔杜利人", "fontsize": 12, "tyid": "304001", "oid": "103:1576575163574", "color": "#0056E7" }, "geometry": { "type": "Point", "coordinates": [ -5.976562, 38.685510 ] } }
{ "type": "Feature", "tippecanoe": { "layer": "2AFCA0B957801583918915443", "minzoom": 2, "maxzoom": 8 }, "properties": { "halo": 1.6, "title": "卡佩塔尼人", "fontsize": 12, "tyid": "304001", "oid": "103:1576575163705", "color": "#0056E7" }, "geometry": { "type": "Point", "coordinates": [ -3.955078, 39.977120 ] } }
{ "type": "Feature", "tippecanoe": { "layer": "2AFCA0B957801583918915443", "minzoom": 2, "maxzoom": 8 }, "properties": { "halo": 1.6, "title": "图尔德泰尼人", "fontsize": 12, "tyid": "304001", "oid": "103:1576575163952", "color": "#0056E7" }, "geometry": { "type": "Point", "coordinates": [ -5.097656, 37.718590 ] } }
{ "type": "Feature", "tippecanoe": { "layer": "2AFCA0B957801583918915443", "minzoom": 2, "maxzoom": 8 }, "properties": { "halo": 1.6, "title": "奥雷塔尼人", "fontsize": 12, "tyid": "304001", "oid": "103:1576575163939", "color": "#0056E7" }, "geometry": { "type": "Point", "coordinates": [ -3.251953, 38.548165 ] } }
{ "type": "Feature", "tippecanoe": { "layer": "2AFCA0B957801583918915443", "minzoom": 2, "maxzoom": 8 }, "properties": { "halo": 1.6, "title": "凯尔特伊比利亚人", "fontsize": 12, "tyid": "304001", "oid": "103:1576575163637", "color": "#0056E7" }, "geometry": { "type": "Point", "coordinates": [ -2.197266, 40.780541 ] } }
{ "type": "Feature", "tippecanoe": { "layer": "2AFCA0B957801583918915443", "minzoom": 2, "maxzoom": 8 }, "properties": { "halo": 1.6, "title": "巴斯塔尼人", "fontsize": 12, "tyid": "304001", "oid": "103:1576575163677", "color": "#0056E7" }, "geometry": { "type": "Point", "coordinates": [ -2.109375, 37.857507 ] } }
{ "type": "Feature", "tippecanoe": { "layer": "2AFCA0B957801583918915443", "minzoom": 2, "maxzoom": 8 }, "properties": { "halo": 1.6, "title": "达尔蒂奇特文化", "fontsize": 12, "tyid": "304002", "oid": "103:1576575163807", "color": "#0056E7" }, "geometry": { "type": "Point", "coordinates": [ -9.404297, 18.812718 ] } }
{ "type": "Feature", "tippecanoe": { "layer": "2AFCA0B957801583918915443", "minzoom": 2, "maxzoom": 8 }, "properties": { "halo": 1.6, "title": "科瑞尔文化", "fontsize": 12, "tyid": "304002", "oid": "103:1576575164150", "color": "#0056E7" }, "geometry": { "type": "Point", "coordinates": [ -79.716797, -0.351560 ] } }
{ "type": "Feature", "tippecanoe": { "layer": "2AFCA0B957801583918915443", "minzoom": 2, "maxzoom": 8 }, "properties": { "halo": 1.6, "title": "库皮尼克文化", "fontsize": 12, "tyid": "304002", "oid": "103:1576575164148", "color": "#0056E7" }, "geometry": { "type": "Point", "coordinates": [ -80.068359, -6.053161 ] } }
{ "type": "Feature", "tippecanoe": { "layer": "2AFCA0B957801583918915443", "minzoom": 2, "maxzoom": 8 }, "properties": { "halo": 1.6, "title": "楚真文化", "fontsize": 12, "tyid": "304002", "oid": "103:1576575163772", "color": "#0056E7" }, "geometry": { "type": "Point", "coordinates": [ -70.576172, -16.299051 ] } }
{ "type": "Feature", "tippecanoe": { "layer": "2AFCA0B957801583918915443", "minzoom": 2, "maxzoom": 8 }, "properties": { "halo": 1.6, "title": "普卡拉文化", "fontsize": 12, "tyid": "304002", "oid": "103:1576575163821", "color": "#0056E7" }, "geometry": { "type": "Point", "coordinates": [ -69.960938, -14.179186 ] } }
{ "type": "Feature", "tippecanoe": { "layer": "2AFCA0B957801583918915443", "minzoom": 2, "maxzoom": 8 }, "properties": { "halo": 1.6, "title": "艾马拉人", "fontsize": 12, "tyid": "304001", "oid": "103:1576575163684", "color": "#0056E7" }, "geometry": { "type": "Point", "coordinates": [ -68.378906, -17.056785 ] } }
{ "type": "Feature", "tippecanoe": { "layer": "2AFCA0B957801583918915443", "minzoom": 2, "maxzoom": 8 }, "properties": { "halo": 1.6, "title": "安西尔塔文化", "fontsize": 12, "tyid": "304002", "oid": "103:1576575164046", "color": "#0056E7" }, "geometry": { "type": "Point", "coordinates": [ -68.818359, -31.353637 ] } }
{ "type": "Feature", "tippecanoe": { "layer": "2AFCA0B957801583918915443", "minzoom": 2, "maxzoom": 8 }, "properties": { "halo": 1.6, "title": "巴托文化", "fontsize": 12, "tyid": "304002", "oid": "103:1576575163727", "color": "#0056E7" }, "geometry": { "type": "Point", "coordinates": [ -70.839844, -33.431441 ] } }
{ "type": "Feature", "tippecanoe": { "layer": "2AFCA0B957801583918915443", "minzoom": 2, "maxzoom": 8 }, "properties": { "halo": 1.6, "title": "马普切人", "fontsize": 12, "tyid": "304001", "oid": "103:1576575163631", "color": "#0056E7" }, "geometry": { "type": "Point", "coordinates": [ -71.455078, -38.959409 ] } }
{ "type": "Feature", "tippecanoe": { "layer": "2AFCA0B957801583918915443", "minzoom": 2, "maxzoom": 8 }, "properties": { "halo": 1.6, "title": "摩克索人", "fontsize": 12, "tyid": "304001", "oid": "103:1576575163835", "color": "#0056E7" }, "geometry": { "type": "Point", "coordinates": [ -65.830078, -13.923404 ] } }
{ "type": "Feature", "tippecanoe": { "layer": "2AFCA0B957801583918915443", "minzoom": 2, "maxzoom": 8 }, "properties": { "halo": 1.6, "title": "瓦卡拉尼文化", "fontsize": 12, "tyid": "304002", "oid": "103:1576575163907", "color": "#0056E7" }, "geometry": { "type": "Point", "coordinates": [ -64.951172, -17.811456 ] } }
{ "type": "Feature", "tippecanoe": { "layer": "2AFCA0B957801583918915443", "minzoom": 2, "maxzoom": 8 }, "properties": { "halo": 1.6, "title": "查鲁亚人", "fontsize": 12, "tyid": "304001", "oid": "103:1576575164151", "color": "#0056E7" }, "geometry": { "type": "Point", "coordinates": [ -57.128906, -32.398516 ] } }
{ "type": "Feature", "tippecanoe": { "layer": "2AFCA0B957801583918915443", "minzoom": 2, "maxzoom": 8 }, "properties": { "halo": 1.6, "title": "特胡尔切人", "fontsize": 12, "tyid": "304001", "oid": "103:1576575164093", "color": "#0056E7" }, "geometry": { "type": "Point", "coordinates": [ -70.751953, -50.176898 ] } }
{ "type": "Feature", "tippecanoe": { "layer": "2AFCA0B957801583918915443", "minzoom": 2, "maxzoom": 8 }, "properties": { "halo": 1.6, "title": "塞尔克南人", "fontsize": 12, "tyid": "304001", "oid": "103:1576575163584", "color": "#0056E7" }, "geometry": { "type": "Point", "coordinates": [ -68.378906, -53.696706 ] } }
{ "type": "Feature", "tippecanoe": { "layer": "2AFCA0B957801583918915443", "minzoom": 2, "maxzoom": 8 }, "properties": { "halo": 1.6, "title": "雅干人", "fontsize": 12, "tyid": "304001", "oid": "103:1576575164082", "color": "#0056E7" }, "geometry": { "type": "Point", "coordinates": [ -68.994141, -54.622978 ] } }
{ "type": "Feature", "tippecanoe": { "layer": "2AFCA0B957801583918915443", "minzoom": 2, "maxzoom": 8 }, "properties": { "halo": 1.6, "title": "亚斯托夫文化", "fontsize": 12, "tyid": "304002", "oid": "103:1576575164242", "color": "#0056E7" }, "geometry": { "type": "Point", "coordinates": [ 10.371094, 53.956086 ] } }
{ "type": "Feature", "tippecanoe": { "layer": "2AFCA0B957801583918915443", "minzoom": 2, "maxzoom": 8 }, "properties": { "halo": 1.6, "title": "洪斯吕克-埃菲尔文化", "fontsize": 12, "tyid": "304002", "oid": "103:1576575163754", "color": "#0056E7" }, "geometry": { "type": "Point", "coordinates": [ 7.031250, 49.951220 ] } }
{ "type": "Feature", "tippecanoe": { "layer": "2AFCA0B957801583918915443", "minzoom": 2, "maxzoom": 8 }, "properties": { "halo": 1.6, "title": "屋瓮文化", "fontsize": 12, "tyid": "304002", "oid": "103:1576575163567", "color": "#0056E7" }, "geometry": { "type": "Point", "coordinates": [ 10.898438, 51.399206 ] } }
{ "type": "Feature", "tippecanoe": { "layer": "2AFCA0B957801583918915443", "minzoom": 2, "maxzoom": 8 }, "properties": { "halo": 1.6, "title": "伊勒格泰人", "fontsize": 12, "tyid": "304001", "oid": "103:1576575163563", "color": "#0056E7" }, "geometry": { "type": "Point", "coordinates": [ 0.351562, 42.228517 ] } }
{ "type": "Feature", "tippecanoe": { "layer": "2AFCA0B957801583918915443", "minzoom": 2, "maxzoom": 8 }, "properties": { "halo": 1.6, "title": "蕾蒂人", "fontsize": 12, "tyid": "304001", "oid": "103:1576575164009", "color": "#0056E7" }, "geometry": { "type": "Point", "coordinates": [ 10.546875, 47.100045 ] } }
{ "type": "Feature", "tippecanoe": { "layer": "2AFCA0B957801583918915443", "minzoom": 2, "maxzoom": 8 }, "properties": { "halo": 1.6, "title": "利古里亚人", "fontsize": 12, "tyid": "304002", "oid": "103:1576575163732", "color": "#0056E7" }, "geometry": { "type": "Point", "coordinates": [ 8.173828, 44.527843 ] } }
{ "type": "Feature", "tippecanoe": { "layer": "2AFCA0B957801583918915443", "minzoom": 2, "maxzoom": 8 }, "properties": { "halo": 1.6, "title": "骨壶墓地文化", "fontsize": 12, "tyid": "304002", "oid": "103:1576575164244", "color": "#0056E7" }, "geometry": { "type": "Point", "coordinates": [ 13.710938, 51.672555 ] } }
{ "type": "Feature", "tippecanoe": { "layer": "2AFCA0B957801583918915443", "minzoom": 2, "maxzoom": 8 }, "properties": { "halo": 1.6, "title": "西波罗的海坟文化", "fontsize": 12, "tyid": "304002", "oid": "103:1576575163784", "color": "#0056E7" }, "geometry": { "type": "Point", "coordinates": [ 21.708984, 54.213861 ] } }
{ "type": "Feature", "tippecanoe": { "layer": "2AFCA0B957801583918915443", "minzoom": 2, "maxzoom": 8 }, "properties": { "halo": 1.6, "title": "威尼蒂人[亚得里亚海]", "fontsize": 12, "tyid": "304001", "oid": "103:1576575163967", "color": "#0056E7" }, "geometry": { "type": "Point", "coordinates": [ 12.041016, 45.767523 ] } }
{ "type": "Feature", "tippecanoe": { "layer": "2AFCA0B957801583918915443", "minzoom": 2, "maxzoom": 8 }, "properties": { "halo": 1.6, "title": "伊特鲁里亚文明", "fontsize": 12, "tyid": "304002", "oid": "103:1576575164200", "color": "#0056E7" }, "geometry": { "type": "Point", "coordinates": [ 11.250000, 43.771094 ] } }
{ "type": "Feature", "tippecanoe": { "layer": "2AFCA0B957801583918915443", "minzoom": 2, "maxzoom": 8 }, "properties": { "halo": 1.6, "title": "萨莫奈人", "fontsize": 12, "tyid": "304001", "oid": "103:1576575163586", "color": "#0056E7" }, "geometry": { "type": "Point", "coordinates": [ 14.501953, 41.310824 ] } }
{ "type": "Feature", "tippecanoe": { "layer": "2AFCA0B957801583918915443", "minzoom": 2, "maxzoom": 8 }, "properties": { "halo": 1.6, "title": "伊利里亚人", "fontsize": 12, "tyid": "304001", "oid": "103:1576575163558", "color": "#0056E7" }, "geometry": { "type": "Point", "coordinates": [ 17.841797, 43.834527 ] } }
{ "type": "Feature", "tippecanoe": { "layer": "2AFCA0B957801583918915443", "minzoom": 2, "maxzoom": 8 }, "properties": { "halo": 1.6, "title": "达尔达尼亚人", "fontsize": 12, "tyid": "304001", "oid": "103:1576575163664", "color": "#0056E7" }, "geometry": { "type": "Point", "coordinates": [ 21.533203, 43.644026 ] } }
{ "type": "Feature", "tippecanoe": { "layer": "2AFCA0B957801583918915443", "minzoom": 2, "maxzoom": 8 }, "properties": { "halo": 1.6, "title": "古爱沙尼亚人", "fontsize": 12, "tyid": "304001", "oid": "103:1576575163860", "color": "#0056E7" }, "geometry": { "type": "Point", "coordinates": [ 25.576172, 58.995311 ] } }
{ "type": "Feature", "tippecanoe": { "layer": "2AFCA0B957801583918915443", "minzoom": 2, "maxzoom": 8 }, "properties": { "halo": 1.6, "title": "利沃尼亚人", "fontsize": 12, "tyid": "304001", "oid": "103:1576575164246", "color": "#0056E7" }, "geometry": { "type": "Point", "coordinates": [ 26.279297, 57.231503 ] } }
{ "type": "Feature", "tippecanoe": { "layer": "2AFCA0B957801583918915443", "minzoom": 2, "maxzoom": 8 }, "properties": { "halo": 1.6, "title": "沃茨人", "fontsize": 12, "tyid": "304001", "oid": "103:1576575164236", "color": "#0056E7" }, "geometry": { "type": "Point", "coordinates": [ 29.794922, 59.040555 ] } }
{ "type": "Feature", "tippecanoe": { "layer": "2AFCA0B957801583918915443", "minzoom": 2, "maxzoom": 8 }, "properties": { "halo": 1.6, "title": "卡累利阿文化", "fontsize": 12, "tyid": "304002", "oid": "103:1576575163719", "color": "#0056E7" }, "geometry": { "type": "Point", "coordinates": [ 34.365234, 63.194018 ] } }
{ "type": "Feature", "tippecanoe": { "layer": "2AFCA0B957801583918915443", "minzoom": 2, "maxzoom": 8 }, "properties": { "halo": 1.6, "title": "阴影陶文化", "fontsize": 12, "tyid": "304002", "oid": "103:1576575163756", "color": "#0056E7" }, "geometry": { "type": "Point", "coordinates": [ 24.785156, 55.627996 ] } }
{ "type": "Feature", "tippecanoe": { "layer": "2AFCA0B957801583918915443", "minzoom": 2, "maxzoom": 8 }, "properties": { "halo": 1.6, "title": "盖塔人", "fontsize": 12, "tyid": "304001", "oid": "103:1576575164248", "color": "#0056E7" }, "geometry": { "type": "Point", "coordinates": [ 27.158203, 44.213710 ] } }
{ "type": "Feature", "tippecanoe": { "layer": "2AFCA0B957801583918915443", "minzoom": 2, "maxzoom": 8 }, "properties": { "halo": 1.6, "title": "色雷斯人", "fontsize": 12, "tyid": "304001", "oid": "103:1576575163828", "color": "#0056E7" }, "geometry": { "type": "Point", "coordinates": [ 25.664062, 42.293564 ] } }
{ "type": "Feature", "tippecanoe": { "layer": "2AFCA0B957801583918915443", "minzoom": 2, "maxzoom": 8 }, "properties": { "halo": 1.6, "title": "上奥卡文化", "fontsize": 12, "tyid": "304002", "oid": "103:1576575163578", "color": "#0056E7" }, "geometry": { "type": "Point", "coordinates": [ 37.353516, 53.540307 ] } }
{ "type": "Feature", "tippecanoe": { "layer": "2AFCA0B957801583918915443", "minzoom": 2, "maxzoom": 8 }, "properties": { "halo": 1.6, "title": "梅田人", "fontsize": 12, "tyid": "304001", "oid": "103:1576575163776", "color": "#0056E7" }, "geometry": { "type": "Point", "coordinates": [ 39.023438, 46.073231 ] } }
{ "type": "Feature", "tippecanoe": { "layer": "2AFCA0B957801583918915443", "minzoom": 2, "maxzoom": 8 }, "properties": { "halo": 1.8, "title": "辛迪卡", "fontsize": 12, "tyid": "304000", "oid": "103:1576575163781", "color": "#0056E7" }, "geometry": { "type": "Point", "coordinates": [ 38.408203, 44.777936 ] } }
{ "type": "Feature", "tippecanoe": { "layer": "2AFCA0B957801583918915443", "minzoom": 2, "maxzoom": 8 }, "properties": { "halo": 1.6, "title": "庞蒂克希腊人", "fontsize": 12, "tyid": "304001", "oid": "103:1576575163883", "color": "#0056E7" }, "geometry": { "type": "Point", "coordinates": [ 36.562500, 41.046217 ] } }
{ "type": "Feature", "tippecanoe": { "layer": "2AFCA0B957801583918915443", "minzoom": 2, "maxzoom": 8 }, "properties": { "halo": 1.8, "title": "科尔基斯王国", "fontsize": 12, "tyid": "304000", "oid": "103:1576575164259", "color": "#0056E7" }, "geometry": { "type": "Point", "coordinates": [ 42.451172, 42.617791 ] } }
{ "type": "Feature", "tippecanoe": { "layer": "2AFCA0B957801583918915443", "minzoom": 2, "maxzoom": 8 }, "properties": { "halo": 1.8, "title": "迦太基帝国", "fontsize": 12, "tyid": "304000", "oid": "103:1576575164169", "color": "#0056E7" }, "geometry": { "type": "Point", "coordinates": [ 9.316406, 36.244273 ] } }
{ "type": "Feature", "tippecanoe": { "layer": "2AFCA0B957801583918915443", "minzoom": 2, "maxzoom": 8 }, "properties": { "halo": 1.6, "title": "奥尼诺特里人", "fontsize": 12, "tyid": "304001", "oid": "103:1576575163759", "color": "#0056E7" }, "geometry": { "type": "Point", "coordinates": [ 16.083984, 39.707187 ] } }
{ "type": "Feature", "tippecanoe": { "layer": "2AFCA0B957801583918915443", "minzoom": 2, "maxzoom": 8 }, "properties": { "halo": 1.8, "title": "马其顿王国", "fontsize": 12, "tyid": "304000", "oid": "103:1576575163629", "color": "#0056E7" }, "geometry": { "type": "Point", "coordinates": [ 22.148438, 40.713956 ] } }
{ "type": "Feature", "tippecanoe": { "layer": "2AFCA0B957801583918915443", "minzoom": 2, "maxzoom": 8 }, "properties": { "halo": 1.6, "title": "爱奥尼亚人", "fontsize": 12, "tyid": "304001", "oid": "103:1576575164192", "color": "#0056E7" }, "geometry": { "type": "Point", "coordinates": [ 22.060547, 39.095963 ] } }
{ "type": "Feature", "tippecanoe": { "layer": "2AFCA0B957801583918915443", "minzoom": 2, "maxzoom": 8 }, "properties": { "halo": 1.6, "title": "约鲁巴人", "fontsize": 12, "tyid": "304001", "oid": "103:1576575164205", "color": "#0056E7" }, "geometry": { "type": "Point", "coordinates": [ 3.427734, 7.536764 ] } }
{ "type": "Feature", "tippecanoe": { "layer": "2AFCA0B957801583918915443", "minzoom": 2, "maxzoom": 8 }, "properties": { "halo": 1.6, "title": "伊博人", "fontsize": 12, "tyid": "304001", "oid": "103:1576575164204", "color": "#0056E7" }, "geometry": { "type": "Point", "coordinates": [ 7.998047, 5.965754 ] } }
{ "type": "Feature", "tippecanoe": { "layer": "2AFCA0B957801583918915443", "minzoom": 2, "maxzoom": 8 }, "properties": { "halo": 1.6, "title": "布雷米耶国", "fontsize": 12, "tyid": "304001", "oid": "103:1576575164029", "color": "#0056E7" }, "geometry": { "type": "Point", "coordinates": [ 34.628906, 22.105999 ] } }
{ "type": "Feature", "tippecanoe": { "layer": "2AFCA0B957801583918915443", "minzoom": 2, "maxzoom": 8 }, "properties": { "halo": 1.8, "title": "达姆特王国", "fontsize": 12, "tyid": "304000", "oid": "103:1576575164210", "color": "#0056E7" }, "geometry": { "type": "Point", "coordinates": [ 38.759766, 15.368950 ] } }
{ "type": "Feature", "tippecanoe": { "layer": "2AFCA0B957801583918915443", "minzoom": 2, "maxzoom": 8 }, "properties": { "halo": 1.8, "title": "迈因王国", "fontsize": 12, "tyid": "304000", "oid": "103:1576575163919", "color": "#0056E7" }, "geometry": { "type": "Point", "coordinates": [ 44.824219, 16.299051 ] } }
{ "type": "Feature", "tippecanoe": { "layer": "2AFCA0B957801583918915443", "minzoom": 2, "maxzoom": 8 }, "properties": { "halo": 1.8, "title": "塞巴王国", "fontsize": 12, "tyid": "304000", "oid": "103:1576575164208", "color": "#0056E7" }, "geometry": { "type": "Point", "coordinates": [ 44.208984, 14.604847 ] } }
{ "type": "Feature", "tippecanoe": { "layer": "2AFCA0B957801583918915443", "minzoom": 2, "maxzoom": 8 }, "properties": { "halo": 1.6, "title": "安纳尼诺文化", "fontsize": 12, "tyid": "304002", "oid": "103:1576575164048", "color": "#0056E7" }, "geometry": { "type": "Point", "coordinates": [ 50.537109, 56.413901 ] } }
{ "type": "Feature", "tippecanoe": { "layer": "2AFCA0B957801583918915443", "minzoom": 2, "maxzoom": 8 }, "properties": { "halo": 1.6, "title": "巴泽雷克文化", "fontsize": 12, "tyid": "304002", "oid": "103:1576575164039", "color": "#0056E7" }, "geometry": { "type": "Point", "coordinates": [ 86.923828, 50.513427 ] } }
{ "type": "Feature", "tippecanoe": { "layer": "2AFCA0B957801583918915443", "minzoom": 2, "maxzoom": 8 }, "properties": { "halo": 1.6, "title": "索墩布拉克文化", "fontsize": 12, "tyid": "304002", "oid": "103:1576575163986", "color": "#0056E7" }, "geometry": { "type": "Point", "coordinates": [ 81.738281, 43.325178 ] } }
{ "type": "Feature", "tippecanoe": { "layer": "2AFCA0B957801583918915443", "minzoom": 2, "maxzoom": 8 }, "properties": { "halo": 1.6, "title": "大益人", "fontsize": 12, "tyid": "304001", "oid": "103:1576575163864", "color": "#0056E7" }, "geometry": { "type": "Point", "coordinates": [ 55.019531, 40.580585 ] } }
{ "type": "Feature", "tippecanoe": { "layer": "2AFCA0B957801583918915443", "minzoom": 2, "maxzoom": 8 }, "properties": { "halo": 1.6, "title": "格拉", "fontsize": 12, "tyid": "304002", "oid": "103:1576575163805", "color": "#0056E7" }, "geometry": { "type": "Point", "coordinates": [ 51.152344, 25.244696 ] } }
{ "type": "Feature", "tippecanoe": { "layer": "2AFCA0B957801583918915443", "minzoom": 2, "maxzoom": 8 }, "properties": { "halo": 1.6, "title": "马干", "fontsize": 12, "tyid": "304002", "oid": "103:1576575164260", "color": "#0056E7" }, "geometry": { "type": "Point", "coordinates": [ 58.798828, 22.512557 ] } }
{ "type": "Feature", "tippecanoe": { "layer": "2AFCA0B957801583918915443", "minzoom": 2, "maxzoom": 8 }, "properties": { "halo": 1.8, "title": "奥桑王国", "fontsize": 12, "tyid": "304000", "oid": "103:1576575164269", "color": "#0056E7" }, "geometry": { "type": "Point", "coordinates": [ 46.142578, 13.923404 ] } }
{ "type": "Feature", "tippecanoe": { "layer": "2AFCA0B957801583918915443", "minzoom": 2, "maxzoom": 8 }, "properties": { "halo": 1.8, "title": "阿德王国", "fontsize": 12, "tyid": "304000", "oid": "103:1576575164261", "color": "#0056E7" }, "geometry": { "type": "Point", "coordinates": [ 52.382812, 18.729502 ] } }
{ "type": "Feature", "tippecanoe": { "layer": "2AFCA0B957801583918915443", "minzoom": 2, "maxzoom": 8 }, "properties": { "halo": 1.8, "title": "哈德拉毛王国", "fontsize": 12, "tyid": "304000", "oid": "103:1576575163803", "color": "#0056E7" }, "geometry": { "type": "Point", "coordinates": [ 50.976562, 16.299051 ] } }
{ "type": "Feature", "tippecanoe": { "layer": "2AFCA0B957801583918915443", "minzoom": 2, "maxzoom": 8 }, "properties": { "halo": 1.6, "title": "阿比萨雷斯人", "fontsize": 12, "tyid": "304001", "oid": "103:1576575163879", "color": "#0056E7" }, "geometry": { "type": "Point", "coordinates": [ 73.564453, 32.546813 ] } }
{ "type": "Feature", "tippecanoe": { "layer": "2AFCA0B957801583918915443", "minzoom": 2, "maxzoom": 8 }, "properties": { "halo": 1.8, "title": "哥兰迪亚王朝", "fontsize": 12, "tyid": "304000", "oid": "103:1576575164016", "color": "#0056E7" }, "geometry": { "type": "Point", "coordinates": [ 74.970703, 34.016242 ] } }
{ "type": "Feature", "tippecanoe": { "layer": "2AFCA0B957801583918915443", "minzoom": 2, "maxzoom": 8 }, "properties": { "halo": 1.8, "title": "俱卢国", "fontsize": 12, "tyid": "304000", "oid": "103:1576575163617", "color": "#0056E7" }, "geometry": { "type": "Point", "coordinates": [ 76.904297, 29.688053 ] } }
{ "type": "Feature", "tippecanoe": { "layer": "2AFCA0B957801583918915443", "minzoom": 2, "maxzoom": 8 }, "properties": { "halo": 1.8, "title": "摩差国", "fontsize": 12, "tyid": "304000", "oid": "103:1576575163729", "color": "#0056E7" }, "geometry": { "type": "Point", "coordinates": [ 75.410156, 26.745610 ] } }
{ "type": "Feature", "tippecanoe": { "layer": "2AFCA0B957801583918915443", "minzoom": 2, "maxzoom": 8 }, "properties": { "halo": 1.8, "title": "苏罗娑国", "fontsize": 12, "tyid": "304000", "oid": "103:1576575163698", "color": "#0056E7" }, "geometry": { "type": "Point", "coordinates": [ 77.783203, 26.509905 ] } }
{ "type": "Feature", "tippecanoe": { "layer": "2AFCA0B957801583918915443", "minzoom": 2, "maxzoom": 8 }, "properties": { "halo": 1.8, "title": "般遮罗国", "fontsize": 12, "tyid": "304000", "oid": "103:1576575164063", "color": "#0056E7" }, "geometry": { "type": "Point", "coordinates": [ 79.189453, 27.839076 ] } }
{ "type": "Feature", "tippecanoe": { "layer": "2AFCA0B957801583918915443", "minzoom": 2, "maxzoom": 8 }, "properties": { "halo": 1.8, "title": "克拉底王国", "fontsize": 12, "tyid": "304000", "oid": "103:1576575164083", "color": "#0056E7" }, "geometry": { "type": "Point", "coordinates": [ 84.199219, 28.071980 ] } }
{ "type": "Feature", "tippecanoe": { "layer": "2AFCA0B957801583918915443", "minzoom": 2, "maxzoom": 8 }, "properties": { "halo": 1.8, "title": "车底国", "fontsize": 12, "tyid": "304000", "oid": "103:1576575163622", "color": "#0056E7" }, "geometry": { "type": "Point", "coordinates": [ 79.716797, 24.766785 ] } }
{ "type": "Feature", "tippecanoe": { "layer": "2AFCA0B957801583918915443", "minzoom": 2, "maxzoom": 8 }, "properties": { "halo": 1.8, "title": "拘萨罗国", "fontsize": 12, "tyid": "304000", "oid": "103:1576575163707", "color": "#0056E7" }, "geometry": { "type": "Point", "coordinates": [ 82.089844, 26.745610 ] } }
{ "type": "Feature", "tippecanoe": { "layer": "2AFCA0B957801583918915443", "minzoom": 2, "maxzoom": 8 }, "properties": { "halo": 1.8, "title": "末罗国", "fontsize": 12, "tyid": "304000", "oid": "103:1576575163716", "color": "#0056E7" }, "geometry": { "type": "Point", "coordinates": [ 83.847656, 26.431228 ] } }
{ "type": "Feature", "tippecanoe": { "layer": "2AFCA0B957801583918915443", "minzoom": 2, "maxzoom": 8 }, "properties": { "halo": 1.8, "title": "跋阇国", "fontsize": 12, "tyid": "304000", "oid": "103:1576575163975", "color": "#0056E7" }, "geometry": { "type": "Point", "coordinates": [ 85.341797, 26.588527 ] } }
{ "type": "Feature", "tippecanoe": { "layer": "2AFCA0B957801583918915443", "minzoom": 2, "maxzoom": 8 }, "properties": { "halo": 1.8, "title": "摩揭陀诃黎王朝", "fontsize": 12, "tyid": "304000", "oid": "103:1576575163887", "color": "#0056E7" }, "geometry": { "type": "Point", "coordinates": [ 86.220703, 25.005973 ] } }
{ "type": "Feature", "tippecanoe": { "layer": "2AFCA0B957801583918915443", "minzoom": 2, "maxzoom": 8 }, "properties": { "halo": 1.8, "title": "蓬德拉王国", "fontsize": 12, "tyid": "304000", "oid": "103:1576575163798", "color": "#0056E7" }, "geometry": { "type": "Point", "coordinates": [ 89.648438, 24.287027 ] } }
{ "type": "Feature", "tippecanoe": { "layer": "2AFCA0B957801583918915443", "minzoom": 2, "maxzoom": 8 }, "properties": { "halo": 1.8, "title": "韦达巴王国", "fontsize": 12, "tyid": "304000", "oid": "103:1576575163695", "color": "#0056E7" }, "geometry": { "type": "Point", "coordinates": [ 78.222656, 21.125498 ] } }
{ "type": "Feature", "tippecanoe": { "layer": "2AFCA0B957801583918915443", "minzoom": 2, "maxzoom": 8 }, "properties": { "halo": 1.6, "title": "泰米尔人", "fontsize": 12, "tyid": "304001", "oid": "103:1576575163697", "color": "#0056E7" }, "geometry": { "type": "Point", "coordinates": [ 78.398438, 11.264612 ] } }
{ "type": "Feature", "tippecanoe": { "layer": "2AFCA0B957801583918915443", "minzoom": 2, "maxzoom": 8 }, "properties": { "halo": 1.8, "title": "阿湿波国", "fontsize": 12, "tyid": "304000", "oid": "103:1576575163870", "color": "#0056E7" }, "geometry": { "type": "Point", "coordinates": [ 79.716797, 19.228177 ] } }
{ "type": "Feature", "tippecanoe": { "layer": "2AFCA0B957801583918915443", "minzoom": 2, "maxzoom": 8 }, "properties": { "halo": 1.8, "title": "安度罗国", "fontsize": 12, "tyid": "304000", "oid": "103:1576575163980", "color": "#0056E7" }, "geometry": { "type": "Point", "coordinates": [ 80.771484, 16.636192 ] } }
{ "type": "Feature", "tippecanoe": { "layer": "2AFCA0B957801583918915443", "minzoom": 2, "maxzoom": 8 }, "properties": { "halo": 1.8, "title": "羯陵伽国", "fontsize": 12, "tyid": "304000", "oid": "103:1576575164017", "color": "#0056E7" }, "geometry": { "type": "Point", "coordinates": [ 84.638672, 20.220966 ] } }
{ "type": "Feature", "tippecanoe": { "layer": "2AFCA0B957801583918915443", "minzoom": 2, "maxzoom": 8 }, "properties": { "halo": 1.8, "title": "维阇耶王国", "fontsize": 12, "tyid": "304000", "oid": "103:1576575164215", "color": "#0056E7" }, "geometry": { "type": "Point", "coordinates": [ 80.683594, 7.623887 ] } }
{ "type": "Feature", "tippecanoe": { "layer": "2AFCA0B957801583918915443", "minzoom": 2, "maxzoom": 8 }, "properties": { "halo": 1.6, "title": "阿迪贝尔文化", "fontsize": 12, "tyid": "304002", "oid": "103:1576575163878", "color": "#0056E7" }, "geometry": { "type": "Point", "coordinates": [ 95.097656, 53.014783 ] } }
{ "type": "Feature", "tippecanoe": { "layer": "2AFCA0B957801583918915443", "minzoom": 2, "maxzoom": 8 }, "properties": { "halo": 1.6, "title": "犬戎", "fontsize": 12, "tyid": "304001", "oid": "103:1576575163959", "color": "#0056E7" }, "geometry": { "type": "Point", "coordinates": [ 105.029297, 36.527295 ] } }
{ "type": "Feature", "tippecanoe": { "layer": "2AFCA0B957801583918915443", "minzoom": 2, "maxzoom": 8 }, "properties": { "halo": 1.8, "title": "乌氏", "fontsize": 12, "tyid": "304000", "oid": "103:1576575164111", "color": "#0056E7" }, "geometry": { "type": "Point", "coordinates": [ 106.259766, 36.173357 ] } }
{ "type": "Feature", "tippecanoe": { "layer": "2AFCA0B957801583918915443", "minzoom": 2, "maxzoom": 8 }, "properties": { "halo": 1.6, "title": "氐人", "fontsize": 12, "tyid": "304001", "oid": "103:1576575163930", "color": "#0056E7" }, "geometry": { "type": "Point", "coordinates": [ 104.589844, 33.358062 ] } }
{ "type": "Feature", "tippecanoe": { "layer": "2AFCA0B957801583918915443", "minzoom": 2, "maxzoom": 8 }, "properties": { "halo": 1.6, "title": "鄂尔多斯文化", "fontsize": 12, "tyid": "304002", "oid": "103:1576575163929", "color": "#0056E7" }, "geometry": { "type": "Point", "coordinates": [ 108.193359, 39.707187 ] } }
{ "type": "Feature", "tippecanoe": { "layer": "2AFCA0B957801583918915443", "minzoom": 2, "maxzoom": 8 }, "properties": { "halo": 1.8, "title": "朐衍", "fontsize": 12, "tyid": "304000", "oid": "103:1576575164074", "color": "#0056E7" }, "geometry": { "type": "Point", "coordinates": [ 107.314453, 37.718590 ] } }
{ "type": "Feature", "tippecanoe": { "layer": "2AFCA0B957801583918915443", "minzoom": 2, "maxzoom": 8 }, "properties": { "halo": 1.6, "title": "白狄", "fontsize": 12, "tyid": "304001", "oid": "103:1576575164037", "color": "#0056E7" }, "geometry": { "type": "Point", "coordinates": [ 109.423828, 36.879621 ] } }
{ "type": "Feature", "tippecanoe": { "layer": "2AFCA0B957801583918915443", "minzoom": 2, "maxzoom": 8 }, "properties": { "halo": 1.8, "title": "林胡", "fontsize": 12, "tyid": "304000", "oid": "103:1576575163635", "color": "#0056E7" }, "geometry": { "type": "Point", "coordinates": [ 110.917969, 39.842286 ] } }
{ "type": "Feature", "tippecanoe": { "layer": "2AFCA0B957801583918915443", "minzoom": 2, "maxzoom": 8 }, "properties": { "halo": 1.8, "title": "楼烦", "fontsize": 12, "tyid": "304000", "oid": "103:1576575163700", "color": "#0056E7" }, "geometry": { "type": "Point", "coordinates": [ 112.060547, 40.313043 ] } }
{ "type": "Feature", "tippecanoe": { "layer": "2AFCA0B957801583918915443", "minzoom": 2, "maxzoom": 8 }, "properties": { "halo": 1.8, "title": "义渠", "fontsize": 12, "tyid": "304000", "oid": "103:1576575163739", "color": "#0056E7" }, "geometry": { "type": "Point", "coordinates": [ 107.666016, 36.031332 ] } }
{ "type": "Feature", "tippecanoe": { "layer": "2AFCA0B957801583918915443", "minzoom": 2, "maxzoom": 8 }, "properties": { "halo": 1.8, "title": "秦", "fontsize": 12, "tyid": "304000", "oid": "103:1576575163602", "color": "#0056E7" }, "geometry": { "type": "Point", "coordinates": [ 107.666016, 34.524661 ] } }
{ "type": "Feature", "tippecanoe": { "layer": "2AFCA0B957801583918915443", "minzoom": 2, "maxzoom": 8 }, "properties": { "halo": 1.8, "title": "古蜀", "fontsize": 12, "tyid": "304000", "oid": "103:1576575163649", "color": "#0056E7" }, "geometry": { "type": "Point", "coordinates": [ 105.029297, 31.278551 ] } }
{ "type": "Feature", "tippecanoe": { "layer": "2AFCA0B957801583918915443", "minzoom": 2, "maxzoom": 8 }, "properties": { "halo": 1.8, "title": "文郎国", "fontsize": 12, "tyid": "304000", "oid": "103:1576575164219", "color": "#0056E7" }, "geometry": { "type": "Point", "coordinates": [ 105.117188, 22.350076 ] } }
{ "type": "Feature", "tippecanoe": { "layer": "2AFCA0B957801583918915443", "minzoom": 2, "maxzoom": 8 }, "properties": { "halo": 1.8, "title": "巴", "fontsize": 12, "tyid": "304000", "oid": "103:1576575163679", "color": "#0056E7" }, "geometry": { "type": "Point", "coordinates": [ 108.369141, 31.877558 ] } }
{ "type": "Feature", "tippecanoe": { "layer": "2AFCA0B957801583918915443", "minzoom": 2, "maxzoom": 8 }, "properties": { "halo": 1.6, "title": "苍梧", "fontsize": 12, "tyid": "304001", "oid": "103:1576575163773", "color": "#0056E7" }, "geometry": { "type": "Point", "coordinates": [ 112.148438, 26.352498 ] } }
{ "type": "Feature", "tippecanoe": { "layer": "2AFCA0B957801583918915443", "minzoom": 2, "maxzoom": 8 }, "properties": { "halo": 1.8, "title": "达雅瓦底王国", "fontsize": 12, "tyid": "304000", "oid": "103:1576575163934", "color": "#0056E7" }, "geometry": { "type": "Point", "coordinates": [ 93.339844, 20.550509 ] } }
{ "type": "Feature", "tippecanoe": { "layer": "2AFCA0B957801583918915443", "minzoom": 2, "maxzoom": 8 }, "properties": { "halo": 1.8, "title": "后德冈王朝", "fontsize": 12, "tyid": "304000", "oid": "103:1576575164271", "color": "#0056E7" }, "geometry": { "type": "Point", "coordinates": [ 95.712891, 21.943046 ] } }
{ "type": "Feature", "tippecanoe": { "layer": "2AFCA0B957801583918915443", "minzoom": 2, "maxzoom": 8 }, "properties": { "halo": 1.8, "title": "直通王国", "fontsize": 12, "tyid": "304000", "oid": "103:1576575163944", "color": "#0056E7" }, "geometry": { "type": "Point", "coordinates": [ 95.976562, 17.811456 ] } }
{ "type": "Feature", "tippecanoe": { "layer": "2AFCA0B957801583918915443", "minzoom": 2, "maxzoom": 8 }, "properties": { "halo": 1.8, "title": "越裳国", "fontsize": 12, "tyid": "304000", "oid": "103:1576575164225", "color": "#0056E7" }, "geometry": { "type": "Point", "coordinates": [ 103.798828, 19.394068 ] } }
{ "type": "Feature", "tippecanoe": { "layer": "2AFCA0B957801583918915443", "minzoom": 2, "maxzoom": 8 }, "properties": { "halo": 1.6, "title": "班清文化", "fontsize": 12, "tyid": "304002", "oid": "103:1576575164036", "color": "#0056E7" }, "geometry": { "type": "Point", "coordinates": [ 103.271484, 17.560247 ] } }
{ "type": "Feature", "tippecanoe": { "layer": "2AFCA0B957801583918915443", "minzoom": 2, "maxzoom": 8 }, "properties": { "halo": 1.6, "title": "沙黄文化", "fontsize": 12, "tyid": "304002", "oid": "103:1576575163612", "color": "#0056E7" }, "geometry": { "type": "Point", "coordinates": [ 108.896484, 14.349548 ] } }
{ "type": "Feature", "tippecanoe": { "layer": "2AFCA0B957801583918915443", "minzoom": 2, "maxzoom": 8 }, "properties": { "halo": 1.6, "title": "同奈文化", "fontsize": 12, "tyid": "304002", "oid": "103:1576575164105", "color": "#0056E7" }, "geometry": { "type": "Point", "coordinates": [ 105.996094, 10.487812 ] } }
{ "type": "Feature", "tippecanoe": { "layer": "2AFCA0B957801583918915443", "minzoom": 2, "maxzoom": 8 }, "properties": { "halo": 1.6, "title": "尼格利陀人", "fontsize": 12, "tyid": "304001", "oid": "103:1576575163848", "color": "#0056E7" }, "geometry": { "type": "Point", "coordinates": [ 101.953125, 4.740675 ] } }
{ "type": "Feature", "tippecanoe": { "layer": "2AFCA0B957801583918915443", "minzoom": 2, "maxzoom": 8 }, "properties": { "halo": 1.8, "title": "鲜虞", "fontsize": 12, "tyid": "304000", "oid": "103:1576575163626", "color": "#0056E7" }, "geometry": { "type": "Point", "coordinates": [ 114.433594, 38.754083 ] } }
{ "type": "Feature", "tippecanoe": { "layer": "2AFCA0B957801583918915443", "minzoom": 2, "maxzoom": 8 }, "properties": { "halo": 1.8, "title": "燕", "fontsize": 12, "tyid": "304000", "oid": "103:1576575164228", "color": "#0056E7" }, "geometry": { "type": "Point", "coordinates": [ 116.191406, 39.300299 ] } }
{ "type": "Feature", "tippecanoe": { "layer": "2AFCA0B957801583918915443", "minzoom": 2, "maxzoom": 8 }, "properties": { "halo": 1.8, "title": "无终", "fontsize": 12, "tyid": "304000", "oid": "103:1576575164014", "color": "#0056E7" }, "geometry": { "type": "Point", "coordinates": [ 117.158203, 40.446947 ] } }
{ "type": "Feature", "tippecanoe": { "layer": "2AFCA0B957801583918915443", "minzoom": 2, "maxzoom": 8 }, "properties": { "halo": 1.8, "title": "齐[吕氏]", "fontsize": 12, "tyid": "304000", "oid": "103:1576575163604", "color": "#0056E7" }, "geometry": { "type": "Point", "coordinates": [ 117.949219, 36.949892 ] } }
{ "type": "Feature", "tippecanoe": { "layer": "2AFCA0B957801583918915443", "minzoom": 2, "maxzoom": 8 }, "properties": { "halo": 1.8, "title": "郑", "fontsize": 12, "tyid": "304000", "oid": "103:1576575163554", "color": "#0056E7" }, "geometry": { "type": "Point", "coordinates": [ 113.994141, 34.452218 ] } }
{ "type": "Feature", "tippecanoe": { "layer": "2AFCA0B957801583918915443", "minzoom": 2, "maxzoom": 8 }, "properties": { "halo": 1.8, "title": "鲁", "fontsize": 12, "tyid": "304000", "oid": "103:1576575163634", "color": "#0056E7" }, "geometry": { "type": "Point", "coordinates": [ 117.246094, 35.889050 ] } }
{ "type": "Feature", "tippecanoe": { "layer": "2AFCA0B957801583918915443", "minzoom": 2, "maxzoom": 8 }, "properties": { "halo": 1.8, "title": "宋", "fontsize": 12, "tyid": "304000", "oid": "103:1576575163712", "color": "#0056E7" }, "geometry": { "type": "Point", "coordinates": [ 116.279297, 34.307144 ] } }
{ "type": "Feature", "tippecanoe": { "layer": "2AFCA0B957801583918915443", "minzoom": 2, "maxzoom": 8 }, "properties": { "halo": 1.8, "title": "箕子朝鲜", "fontsize": 12, "tyid": "304000", "oid": "103:1576575164230", "color": "#0056E7" }, "geometry": { "type": "Point", "coordinates": [ 122.783203, 40.913513 ] } }
{ "type": "Feature", "tippecanoe": { "layer": "2AFCA0B957801583918915443", "minzoom": 2, "maxzoom": 8 }, "properties": { "halo": 1.6, "title": "南粤", "fontsize": 12, "tyid": "304001", "oid": "103:1576575164220", "color": "#0056E7" }, "geometry": { "type": "Point", "coordinates": [ 113.994141, 24.607069 ] } }
{ "type": "Feature", "tippecanoe": { "layer": "2AFCA0B957801583918915443", "minzoom": 2, "maxzoom": 8 }, "properties": { "halo": 1.6, "title": "闽越", "fontsize": 12, "tyid": "304001", "oid": "103:1576575163718", "color": "#0056E7" }, "geometry": { "type": "Point", "coordinates": [ 117.861328, 26.115986 ] } }
{ "type": "Feature", "tippecanoe": { "layer": "2AFCA0B957801583918915443", "minzoom": 2, "maxzoom": 8 }, "properties": { "halo": 1.8, "title": "越", "fontsize": 12, "tyid": "304000", "oid": "103:1576575164226", "color": "#0056E7" }, "geometry": { "type": "Point", "coordinates": [ 119.970703, 29.764377 ] } }
{ "type": "Feature", "tippecanoe": { "layer": "2AFCA0B957801583918915443", "minzoom": 2, "maxzoom": 8 }, "properties": { "halo": 1.6, "title": "瓯越", "fontsize": 12, "tyid": "304001", "oid": "103:1576575164223", "color": "#0056E7" }, "geometry": { "type": "Point", "coordinates": [ 120.058594, 28.304381 ] } }
{ "type": "Feature", "tippecanoe": { "layer": "2AFCA0B957801583918915443", "minzoom": 2, "maxzoom": 8 }, "properties": { "halo": 1.6, "title": "无文土器时代晚期", "fontsize": 12, "tyid": "304002", "oid": "103:1576575164068", "color": "#0056E7" }, "geometry": { "type": "Point", "coordinates": [ 127.968750, 36.738884 ] } }
{ "type": "Feature", "tippecanoe": { "layer": "2AFCA0B957801583918915443", "minzoom": 2, "maxzoom": 8 }, "properties": { "halo": 1.6, "title": "乌莱维文明", "fontsize": 12, "tyid": "304002", "oid": "103:1576575163993", "color": "#0056E7" }, "geometry": { "type": "Point", "coordinates": [ 29.882812, -2.547988 ] } }
{ "type": "Feature", "tippecanoe": { "layer": "2AFCA0B957801583918915443", "minzoom": 2, "maxzoom": 8 }, "properties": { "halo": 1.6, "title": "艾布兰文化五期", "fontsize": 12, "tyid": "304002", "oid": "103:1576575163997", "color": "#0056E7" }, "geometry": { "type": "Point", "coordinates": [ 36.474609, -0.175781 ] } }
{ "type": "Feature", "tippecanoe": { "layer": "2AFCA0B957801583918915443", "minzoom": 2, "maxzoom": 8 }, "properties": { "halo": 1.6, "title": "拉皮塔文化", "fontsize": 12, "tyid": "304002", "oid": "103:1576575163553", "color": "#0056E7" }, "geometry": { "type": "Point", "coordinates": [ 150.292969, -5.790897 ] } }
{ "type": "Feature", "tippecanoe": { "layer": "2AFCA0B957801583918915443", "minzoom": 2, "maxzoom": 8 }, "properties": { "halo": 1.6, "title": "巴拉瓦人", "fontsize": 12, "tyid": "304001", "oid": "103:1576575164042", "color": "#0056E7" }, "geometry": { "type": "Point", "coordinates": [ 146.513672, -41.967659 ] } }
{ "type": "Feature", "tippecanoe": { "layer": "2AFCA0B95B381583918915441", "minzoom": 2, "maxzoom": 8 }, "properties": { "halo": 1.6, "title": "诺顿文化", "fontsize": 12, "tyid": "304002", "oid": "103:1576575163606", "color": "#0056E7" }, "geometry": { "type": "Point", "coordinates": [ -162.949219, 68.752315 ] } }
{ "type": "Feature", "tippecanoe": { "layer": "2AFCA0B95B381583918915441", "minzoom": 2, "maxzoom": 8 }, "properties": { "halo": 1.6, "title": "因纽特人", "fontsize": 12, "tyid": "304001", "oid": "103:1576575164055", "color": "#0056E7" }, "geometry": { "type": "Point", "coordinates": [ -90.791016, 67.272043 ] } }
{ "type": "Feature", "tippecanoe": { "layer": "2AFCA0B95B381583918915441", "minzoom": 2, "maxzoom": 8 }, "properties": { "halo": 1.6, "title": "尤皮克人", "fontsize": 12, "tyid": "304001", "oid": "103:1576575164159", "color": "#0056E7" }, "geometry": { "type": "Point", "coordinates": [ -155.654297, 62.267923 ] } }
{ "type": "Feature", "tippecanoe": { "layer": "2AFCA0B95B381583918915441", "minzoom": 2, "maxzoom": 8 }, "properties": { "halo": 1.6, "title": "因纽皮雅特人", "fontsize": 12, "tyid": "304001", "oid": "103:1576575163624", "color": "#0056E7" }, "geometry": { "type": "Point", "coordinates": [ -149.501953, 65.219894 ] } }
{ "type": "Feature", "tippecanoe": { "layer": "2AFCA0B95B381583918915441", "minzoom": 2, "maxzoom": 8 }, "properties": { "halo": 1.6, "title": "阿留申人", "fontsize": 12, "tyid": "304001", "oid": "103:1576575163826", "color": "#0056E7" }, "geometry": { "type": "Point", "coordinates": [ -152.226562, 61.312452 ] } }
{ "type": "Feature", "tippecanoe": { "layer": "2AFCA0B95B381583918915441", "minzoom": 2, "maxzoom": 8 }, "properties": { "halo": 1.6, "title": "泰萨勒页岩文化", "fontsize": 12, "tyid": "304002", "oid": "103:1576575164022", "color": "#0056E7" }, "geometry": { "type": "Point", "coordinates": [ -99.843750, 56.511018 ] } }
{ "type": "Feature", "tippecanoe": { "layer": "2AFCA0B95B381583918915441", "minzoom": 2, "maxzoom": 8 }, "properties": { "halo": 1.6, "title": "坎贝尔文化", "fontsize": 12, "tyid": "304002", "oid": "103:1576575163886", "color": "#0056E7" }, "geometry": { "type": "Point", "coordinates": [ -121.289062, 38.685510 ] } }
{ "type": "Feature", "tippecanoe": { "layer": "2AFCA0B95B381583918915441", "minzoom": 2, "maxzoom": 8 }, "properties": { "halo": 1.6, "title": "圣迪基图文化", "fontsize": 12, "tyid": "304002", "oid": "103:1576575164156", "color": "#0056E7" }, "geometry": { "type": "Point", "coordinates": [ -115.839844, 34.016242 ] } }
{ "type": "Feature", "tippecanoe": { "layer": "2AFCA0B95B381583918915441", "minzoom": 2, "maxzoom": 8 }, "properties": { "halo": 1.6, "title": "独立二期文化", "fontsize": 12, "tyid": "304002", "oid": "103:1576575164162", "color": "#0056E7" }, "geometry": { "type": "Point", "coordinates": [ -41.220703, 81.960148 ] } }
{ "type": "Feature", "tippecanoe": { "layer": "2AFCA0B95B381583918915441", "minzoom": 2, "maxzoom": 8 }, "properties": { "halo": 1.6, "title": "红赭人", "fontsize": 12, "tyid": "304001", "oid": "103:1576575163801", "color": "#0056E7" }, "geometry": { "type": "Point", "coordinates": [ -87.363281, 41.244772 ] } }
{ "type": "Feature", "tippecanoe": { "layer": "2AFCA0B95B381583918915441", "minzoom": 2, "maxzoom": 8 }, "properties": { "halo": 1.6, "title": "波茵特半岛文化", "fontsize": 12, "tyid": "304002", "oid": "103:1576575163670", "color": "#0056E7" }, "geometry": { "type": "Point", "coordinates": [ -76.816406, 45.336702 ] } }
{ "type": "Feature", "tippecanoe": { "layer": "2AFCA0B95B381583918915441", "minzoom": 2, "maxzoom": 8 }, "properties": { "halo": 1.6, "title": "古海洋文化", "fontsize": 12, "tyid": "304002", "oid": "103:1576575164160", "color": "#0056E7" }, "geometry": { "type": "Point", "coordinates": [ -66.972656, 46.920255 ] } }
{ "type": "Feature", "tippecanoe": { "layer": "2AFCA0B95B381583918915441", "minzoom": 2, "maxzoom": 8 }, "properties": { "halo": 1.6, "title": "阿登纳文化", "fontsize": 12, "tyid": "304002", "oid": "103:1576575163943", "color": "#0056E7" }, "geometry": { "type": "Point", "coordinates": [ -81.826172, 40.513799 ] } }
{ "type": "Feature", "tippecanoe": { "layer": "2AFCA0B95B381583918915441", "minzoom": 2, "maxzoom": 8 }, "properties": { "halo": 1.6, "title": "巴富尔人", "fontsize": 12, "tyid": "304001", "oid": "103:1576575163977", "color": "#0056E7" }, "geometry": { "type": "Point", "coordinates": [ -8.261719, 22.917923 ] } }
{ "type": "Feature", "tippecanoe": { "layer": "2AFCA0B95B381583918915441", "minzoom": 2, "maxzoom": 8 }, "properties": { "halo": 1.6, "title": "索宁克人", "fontsize": 12, "tyid": "304001", "oid": "103:1576575163983", "color": "#0056E7" }, "geometry": { "type": "Point", "coordinates": [ -8.964844, 14.944785 ] } }
{ "type": "Feature", "tippecanoe": { "layer": "2AFCA0B95B381583918915441", "minzoom": 2, "maxzoom": 8 }, "properties": { "halo": 1.6, "title": "昌戈人", "fontsize": 12, "tyid": "304001", "oid": "103:1576575163668", "color": "#0056E7" }, "geometry": { "type": "Point", "coordinates": [ -70.136719, -24.926295 ] } }
{ "type": "Feature", "tippecanoe": { "layer": "2AFCA0B95B381583918915441", "minzoom": 2, "maxzoom": 8 }, "properties": { "halo": 1.6, "title": "图皮人", "fontsize": 12, "tyid": "304001", "oid": "103:1576575163710", "color": "#0056E7" }, "geometry": { "type": "Point", "coordinates": [ -38.320312, -9.709057 ] } }
{ "type": "Feature", "tippecanoe": { "layer": "2AFCA0B95B381583918915441", "minzoom": 2, "maxzoom": 8 }, "properties": { "halo": 1.6, "title": "原始日耳曼人", "fontsize": 12, "tyid": "304001", "oid": "103:1576575164237", "color": "#0056E7" }, "geometry": { "type": "Point", "coordinates": [ 13.623047, 62.021528 ] } }
{ "type": "Feature", "tippecanoe": { "layer": "2AFCA0B95B381583918915441", "minzoom": 2, "maxzoom": 8 }, "properties": { "halo": 1.6, "title": "凯尔特人", "fontsize": 12, "tyid": "304001", "oid": "103:1576575164165", "color": "#0056E7" }, "geometry": { "type": "Point", "coordinates": [ 2.285156, 46.980252 ] } }
{ "type": "Feature", "tippecanoe": { "layer": "2AFCA0B95B381583918915441", "minzoom": 2, "maxzoom": 8 }, "properties": { "halo": 1.6, "title": "波美拉尼亚文化", "fontsize": 12, "tyid": "304002", "oid": "103:1576575164033", "color": "#0056E7" }, "geometry": { "type": "Point", "coordinates": [ 20.039062, 51.124213 ] } }
{ "type": "Feature", "tippecanoe": { "layer": "2AFCA0B95B381583918915441", "minzoom": 2, "maxzoom": 8 }, "properties": { "halo": 1.6, "title": "哈尔施塔特文化D期", "fontsize": 12, "tyid": "304002", "oid": "103:1576575163645", "color": "#0056E7" }, "geometry": { "type": "Point", "coordinates": [ 14.326172, 48.806863 ] } }
{ "type": "Feature", "tippecanoe": { "layer": "2AFCA0B95B381583918915441", "minzoom": 2, "maxzoom": 8 }, "properties": { "halo": 1.6, "title": "石棉陶文化", "fontsize": 12, "tyid": "304002", "oid": "103:1576575164239", "color": "#0056E7" }, "geometry": { "type": "Point", "coordinates": [ 28.740234, 65.476508 ] } }
{ "type": "Feature", "tippecanoe": { "layer": "2AFCA0B95B381583918915441", "minzoom": 2, "maxzoom": 8 }, "properties": { "halo": 1.6, "title": "迪亚科夫文化", "fontsize": 12, "tyid": "304002", "oid": "103:1576575163654", "color": "#0056E7" }, "geometry": { "type": "Point", "coordinates": [ 37.968750, 56.800878 ] } }
{ "type": "Feature", "tippecanoe": { "layer": "2AFCA0B95B381583918915441", "minzoom": 2, "maxzoom": 8 }, "properties": { "halo": 1.6, "title": "米洛格勒文化", "fontsize": 12, "tyid": "304002", "oid": "103:1576575163961", "color": "#0056E7" }, "geometry": { "type": "Point", "coordinates": [ 27.949219, 51.835778 ] } }
{ "type": "Feature", "tippecanoe": { "layer": "2AFCA0B95B381583918915441", "minzoom": 2, "maxzoom": 8 }, "properties": { "halo": 1.6, "title": "第聂伯河与德维纳河文化", "fontsize": 12, "tyid": "304001", "oid": "103:1576575163651", "color": "#0056E7" }, "geometry": { "type": "Point", "coordinates": [ 31.728516, 55.578345 ] } }
{ "type": "Feature", "tippecanoe": { "layer": "2AFCA0B95B381583918915441", "minzoom": 2, "maxzoom": 8 }, "properties": { "halo": 1.6, "title": "达契亚人", "fontsize": 12, "tyid": "304001", "oid": "103:1576575163662", "color": "#0056E7" }, "geometry": { "type": "Point", "coordinates": [ 25.400391, 46.195042 ] } }
{ "type": "Feature", "tippecanoe": { "layer": "2AFCA0B95B381583918915441", "minzoom": 2, "maxzoom": 8 }, "properties": { "halo": 1.6, "title": "戈罗杰茨文化", "fontsize": 12, "tyid": "304002", "oid": "103:1576575164131", "color": "#0056E7" }, "geometry": { "type": "Point", "coordinates": [ 44.033203, 53.956086 ] } }
{ "type": "Feature", "tippecanoe": { "layer": "2AFCA0B95B381583918915441", "minzoom": 2, "maxzoom": 8 }, "properties": { "halo": 1.6, "title": "柏柏尔人诸部", "fontsize": 12, "tyid": "304001", "oid": "103:1576575163702", "color": "#0056E7" }, "geometry": { "type": "Point", "coordinates": [ 2.636719, 26.431228 ] } }
{ "type": "Feature", "tippecanoe": { "layer": "2AFCA0B95B381583918915441", "minzoom": 2, "maxzoom": 8 }, "properties": { "halo": 1.6, "title": "加拉曼特人", "fontsize": 12, "tyid": "304001", "oid": "103:1576575163726", "color": "#0056E7" }, "geometry": { "type": "Point", "coordinates": [ 16.347656, 28.304381 ] } }
{ "type": "Feature", "tippecanoe": { "layer": "2AFCA0B95B381583918915441", "minzoom": 2, "maxzoom": 8 }, "properties": { "halo": 1.6, "title": "曼德人", "fontsize": 12, "tyid": "304001", "oid": "103:1576575163853", "color": "#0056E7" }, "geometry": { "type": "Point", "coordinates": [ 0.175781, 12.726084 ] } }
{ "type": "Feature", "tippecanoe": { "layer": "2AFCA0B95B381583918915441", "minzoom": 2, "maxzoom": 8 }, "properties": { "halo": 1.6, "title": "诺克文化", "fontsize": 12, "tyid": "304002", "oid": "103:1576575164110", "color": "#0056E7" }, "geometry": { "type": "Point", "coordinates": [ 7.119141, 10.574222 ] } }
{ "type": "Feature", "tippecanoe": { "layer": "2AFCA0B95B381583918915441", "minzoom": 2, "maxzoom": 8 }, "properties": { "halo": 1.6, "title": "萨奥文明", "fontsize": 12, "tyid": "304002", "oid": "103:1576575163598", "color": "#0056E7" }, "geometry": { "type": "Point", "coordinates": [ 15.029297, 13.496473 ] } }
{ "type": "Feature", "tippecanoe": { "layer": "2AFCA0B95B381583918915441", "minzoom": 2, "maxzoom": 8 }, "properties": { "halo": 1.6, "title": "巴卡人", "fontsize": 12, "tyid": "304001", "oid": "103:1576575163994", "color": "#0056E7" }, "geometry": { "type": "Point", "coordinates": [ 18.105469, 5.441022 ] } }
{ "type": "Feature", "tippecanoe": { "layer": "2AFCA0B95B381583918915441", "minzoom": 2, "maxzoom": 8 }, "properties": { "halo": 1.8, "title": "利黑延王国", "fontsize": 12, "tyid": "304000", "oid": "103:1576575163841", "color": "#0056E7" }, "geometry": { "type": "Point", "coordinates": [ 38.144531, 26.431228 ] } }
{ "type": "Feature", "tippecanoe": { "layer": "2AFCA0B95B381583918915441", "minzoom": 2, "maxzoom": 8 }, "properties": { "halo": 1.6, "title": "凯达尔联盟", "fontsize": 12, "tyid": "304001", "oid": "103:1576575163847", "color": "#0056E7" }, "geometry": { "type": "Point", "coordinates": [ 42.802734, 29.535230 ] } }
{ "type": "Feature", "tippecanoe": { "layer": "2AFCA0B95B381583918915441", "minzoom": 2, "maxzoom": 8 }, "properties": { "halo": 1.6, "title": "北非贝都因人", "fontsize": 12, "tyid": "304001", "oid": "103:1576575163808", "color": "#0056E7" }, "geometry": { "type": "Point", "coordinates": [ 23.027344, 20.385825 ] } }
{ "type": "Feature", "tippecanoe": { "layer": "2AFCA0B95B381583918915441", "minzoom": 2, "maxzoom": 8 }, "properties": { "halo": 1.6, "title": "富尔人", "fontsize": 12, "tyid": "304001", "oid": "103:1576575163928", "color": "#0056E7" }, "geometry": { "type": "Point", "coordinates": [ 26.015625, 12.983148 ] } }
{ "type": "Feature", "tippecanoe": { "layer": "2AFCA0B95B381583918915441", "minzoom": 2, "maxzoom": 8 }, "properties": { "halo": 1.8, "title": "库施王国", "fontsize": 12, "tyid": "304000", "oid": "103:1576575164108", "color": "#0056E7" }, "geometry": { "type": "Point", "coordinates": [ 32.167969, 18.396230 ] } }
{ "type": "Feature", "tippecanoe": { "layer": "2AFCA0B95B381583918915441", "minzoom": 2, "maxzoom": 8 }, "properties": { "halo": 1.6, "title": "尼罗特人", "fontsize": 12, "tyid": "304001", "oid": "103:1576575164080", "color": "#0056E7" }, "geometry": { "type": "Point", "coordinates": [ 33.310547, 1.318243 ] } }
{ "type": "Feature", "tippecanoe": { "layer": "2AFCA0B95B381583918915441", "minzoom": 2, "maxzoom": 8 }, "properties": { "halo": 1.6, "title": "贝扎人", "fontsize": 12, "tyid": "304001", "oid": "103:1576575163765", "color": "#0056E7" }, "geometry": { "type": "Point", "coordinates": [ 36.035156, 16.888660 ] } }
{ "type": "Feature", "tippecanoe": { "layer": "2AFCA0B95B381583918915441", "minzoom": 2, "maxzoom": 8 }, "properties": { "halo": 1.6, "title": "赛莫德人", "fontsize": 12, "tyid": "304001", "oid": "103:1576575164011", "color": "#0056E7" }, "geometry": { "type": "Point", "coordinates": [ 42.626953, 21.698265 ] } }
{ "type": "Feature", "tippecanoe": { "layer": "2AFCA0B95B381583918915441", "minzoom": 2, "maxzoom": 8 }, "properties": { "halo": 1.6, "title": "卢欧诸部", "fontsize": 12, "tyid": "304001", "oid": "103:1576575163632", "color": "#0056E7" }, "geometry": { "type": "Point", "coordinates": [ 36.826172, 9.275622 ] } }
{ "type": "Feature", "tippecanoe": { "layer": "2AFCA0B95B381583918915441", "minzoom": 2, "maxzoom": 8 }, "properties": { "halo": 1.6, "title": "库希特人", "fontsize": 12, "tyid": "304001", "oid": "103:1576575163825", "color": "#0056E7" }, "geometry": { "type": "Point", "coordinates": [ 44.121094, 4.477856 ] } }
{ "type": "Feature", "tippecanoe": { "layer": "2AFCA0B95B381583918915441", "minzoom": 2, "maxzoom": 8 }, "properties": { "halo": 1.6, "title": "彼尔姆人", "fontsize": 12, "tyid": "304001", "oid": "103:1576575164035", "color": "#0056E7" }, "geometry": { "type": "Point", "coordinates": [ 55.371094, 57.844751 ] } }
{ "type": "Feature", "tippecanoe": { "layer": "2AFCA0B95B381583918915441", "minzoom": 2, "maxzoom": 8 }, "properties": { "halo": 1.6, "title": "东马扎尔人", "fontsize": 12, "tyid": "304001", "oid": "103:1576575163999", "color": "#0056E7" }, "geometry": { "type": "Point", "coordinates": [ 59.238281, 61.396719 ] } }
{ "type": "Feature", "tippecanoe": { "layer": "2AFCA0B95B381583918915441", "minzoom": 2, "maxzoom": 8 }, "properties": { "halo": 1.6, "title": "萨尔马提亚人", "fontsize": 12, "tyid": "304001", "oid": "103:1576575163593", "color": "#0056E7" }, "geometry": { "type": "Point", "coordinates": [ 52.734375, 52.589701 ] } }
{ "type": "Feature", "tippecanoe": { "layer": "2AFCA0B95B381583918915441", "minzoom": 2, "maxzoom": 8 }, "properties": { "halo": 1.6, "title": "斯基泰人", "fontsize": 12, "tyid": "304001", "oid": "103:1576575163576", "color": "#0056E7" }, "geometry": { "type": "Point", "coordinates": [ 53.525391, 48.980217 ] } }
{ "type": "Feature", "tippecanoe": { "layer": "2AFCA0B95B381583918915441", "minzoom": 2, "maxzoom": 8 }, "properties": { "halo": 1.6, "title": "萨迦蒂安文化", "fontsize": 12, "tyid": "304002", "oid": "103:1576575163591", "color": "#0056E7" }, "geometry": { "type": "Point", "coordinates": [ 65.566406, 55.279115 ] } }
{ "type": "Feature", "tippecanoe": { "layer": "2AFCA0B95B381583918915441", "minzoom": 2, "maxzoom": 8 }, "properties": { "halo": 1.6, "title": "塞迦人", "fontsize": 12, "tyid": "304001", "oid": "103:1576575163581", "color": "#0056E7" }, "geometry": { "type": "Point", "coordinates": [ 60.292969, 42.098222 ] } }
{ "type": "Feature", "tippecanoe": { "layer": "2AFCA0B95B381583918915441", "minzoom": 2, "maxzoom": 8 }, "properties": { "halo": 1.6, "title": "马萨格泰人", "fontsize": 12, "tyid": "304001", "oid": "103:1576575163839", "color": "#0056E7" }, "geometry": { "type": "Point", "coordinates": [ 62.402344, 46.134170 ] } }
{ "type": "Feature", "tippecanoe": { "layer": "2AFCA0B95B381583918915441", "minzoom": 2, "maxzoom": 8 }, "properties": { "halo": 1.6, "title": "乌戈尔人", "fontsize": 12, "tyid": "304001", "oid": "103:1576575163740", "color": "#0056E7" }, "geometry": { "type": "Point", "coordinates": [ 77.080078, 57.088515 ] } }
{ "type": "Feature", "tippecanoe": { "layer": "2AFCA0B95B381583918915441", "minzoom": 2, "maxzoom": 8 }, "properties": { "halo": 1.6, "title": "塔斯莫拉文化", "fontsize": 12, "tyid": "304002", "oid": "103:1576575164135", "color": "#0056E7" }, "geometry": { "type": "Point", "coordinates": [ 74.970703, 48.690960 ] } }
{ "type": "Feature", "tippecanoe": { "layer": "2AFCA0B95B381583918915441", "minzoom": 2, "maxzoom": 8 }, "properties": { "halo": 1.6, "title": "塔加尔文化", "fontsize": 12, "tyid": "304002", "oid": "103:1576575163956", "color": "#0056E7" }, "geometry": { "type": "Point", "coordinates": [ 88.505859, 54.265224 ] } }
{ "type": "Feature", "tippecanoe": { "layer": "2AFCA0B95B381583918915441", "minzoom": 2, "maxzoom": 8 }, "properties": { "halo": 1.6, "title": "切木尔切克文化", "fontsize": 12, "tyid": "304002", "oid": "103:1576575163911", "color": "#0056E7" }, "geometry": { "type": "Point", "coordinates": [ 87.011719, 48.166085 ] } }
{ "type": "Feature", "tippecanoe": { "layer": "2AFCA0B95B381583918915441", "minzoom": 2, "maxzoom": 8 }, "properties": { "halo": 1.8, "title": "阿契美尼德帝国", "fontsize": 12, "tyid": "304000", "oid": "103:1576575164211", "color": "#0056E7" }, "geometry": { "type": "Point", "coordinates": [ 51.240234, 34.452218 ] } }
{ "type": "Feature", "tippecanoe": { "layer": "2AFCA0B95B381583918915441", "minzoom": 2, "maxzoom": 8 }, "properties": { "halo": 1.6, "title": "贝都因人", "fontsize": 12, "tyid": "304001", "oid": "103:1576575163674", "color": "#0056E7" }, "geometry": { "type": "Point", "coordinates": [ 49.218750, 21.861499 ] } }
{ "type": "Feature", "tippecanoe": { "layer": "2AFCA0B95B381583918915441", "minzoom": 2, "maxzoom": 8 }, "properties": { "halo": 1.8, "title": "马克鲁比亚王国", "fontsize": 12, "tyid": "304000", "oid": "103:1576575164057", "color": "#0056E7" }, "geometry": { "type": "Point", "coordinates": [ 48.251953, 9.449062 ] } }
{ "type": "Feature", "tippecanoe": { "layer": "2AFCA0B95B381583918915441", "minzoom": 2, "maxzoom": 8 }, "properties": { "halo": 1.6, "title": "粟特人", "fontsize": 12, "tyid": "304001", "oid": "103:1576575163984", "color": "#0056E7" }, "geometry": { "type": "Point", "coordinates": [ 69.169922, 40.580585 ] } }
{ "type": "Feature", "tippecanoe": { "layer": "2AFCA0B95B381583918915441", "minzoom": 2, "maxzoom": 8 }, "properties": { "halo": 1.8, "title": "阿槃提国", "fontsize": 12, "tyid": "304000", "oid": "103:1576575163761", "color": "#0056E7" }, "geometry": { "type": "Point", "coordinates": [ 76.113281, 23.483401 ] } }
{ "type": "Feature", "tippecanoe": { "layer": "2AFCA0B95B381583918915441", "minzoom": 2, "maxzoom": 8 }, "properties": { "halo": 1.6, "title": "吐火罗人", "fontsize": 12, "tyid": "304001", "oid": "103:1576575163745", "color": "#0056E7" }, "geometry": { "type": "Point", "coordinates": [ 84.199219, 40.313043 ] } }
{ "type": "Feature", "tippecanoe": { "layer": "2AFCA0B95B381583918915441", "minzoom": 2, "maxzoom": 8 }, "properties": { "halo": 1.6, "title": "北方打磨黑陶文化", "fontsize": 12, "tyid": "304002", "oid": "103:1576575164214", "color": "#0056E7" }, "geometry": { "type": "Point", "coordinates": [ 82.353516, 22.431340 ] } }
{ "type": "Feature", "tippecanoe": { "layer": "2AFCA0B95B381583918915441", "minzoom": 2, "maxzoom": 8 }, "properties": { "halo": 1.6, "title": "乌斯季米尔文化", "fontsize": 12, "tyid": "304002", "oid": "103:1576575163950", "color": "#0056E7" }, "geometry": { "type": "Point", "coordinates": [ 133.066406, 68.301905 ] } }
{ "type": "Feature", "tippecanoe": { "layer": "2AFCA0B95B381583918915441", "minzoom": 2, "maxzoom": 8 }, "properties": { "halo": 1.8, "title": "乌尤克文化", "fontsize": 12, "tyid": "304000", "oid": "103:1576575164075", "color": "#0056E7" }, "geometry": { "type": "Point", "coordinates": [ 93.076172, 49.553726 ] } }
{ "type": "Feature", "tippecanoe": { "layer": "2AFCA0B95B381583918915441", "minzoom": 2, "maxzoom": 8 }, "properties": { "halo": 1.6, "title": "石板墓文化", "fontsize": 12, "tyid": "304002", "oid": "103:1576575163791", "color": "#0056E7" }, "geometry": { "type": "Point", "coordinates": [ 108.017578, 48.806863 ] } }
{ "type": "Feature", "tippecanoe": { "layer": "2AFCA0B95B381583918915441", "minzoom": 2, "maxzoom": 8 }, "properties": { "halo": 1.6, "title": "通古斯人", "fontsize": 12, "tyid": "304001", "oid": "103:1576575163734", "color": "#0056E7" }, "geometry": { "type": "Point", "coordinates": [ 116.718750, 60.152442 ] } }
{ "type": "Feature", "tippecanoe": { "layer": "2AFCA0B95B381583918915441", "minzoom": 2, "maxzoom": 8 }, "properties": { "halo": 1.6, "title": "东胡", "fontsize": 12, "tyid": "304001", "oid": "103:1576575164058", "color": "#0056E7" }, "geometry": { "type": "Point", "coordinates": [ 117.949219, 43.325178 ] } }
{ "type": "Feature", "tippecanoe": { "layer": "2AFCA0B95B381583918915441", "minzoom": 2, "maxzoom": 8 }, "properties": { "halo": 1.6, "title": "濊貊", "fontsize": 12, "tyid": "304001", "oid": "103:1576575164231", "color": "#0056E7" }, "geometry": { "type": "Point", "coordinates": [ 125.947266, 41.771312 ] } }
{ "type": "Feature", "tippecanoe": { "layer": "2AFCA0B95B381583918915441", "minzoom": 2, "maxzoom": 8 }, "properties": { "halo": 1.6, "title": "肃慎", "fontsize": 12, "tyid": "304001", "oid": "103:1576575164061", "color": "#0056E7" }, "geometry": { "type": "Point", "coordinates": [ 132.275391, 47.040182 ] } }
{ "type": "Feature", "tippecanoe": { "layer": "2AFCA0B95B381583918915441", "minzoom": 2, "maxzoom": 8 }, "properties": { "halo": 1.6, "title": "古羌人", "fontsize": 12, "tyid": "304001", "oid": "103:1576575163648", "color": "#0056E7" }, "geometry": { "type": "Point", "coordinates": [ 90.615234, 33.211116 ] } }
{ "type": "Feature", "tippecanoe": { "layer": "2AFCA0B95B381583918915441", "minzoom": 2, "maxzoom": 8 }, "properties": { "halo": 1.6, "title": "月氏", "fontsize": 12, "tyid": "304001", "oid": "103:1576575163882", "color": "#0056E7" }, "geometry": { "type": "Point", "coordinates": [ 99.755859, 39.232253 ] } }
{ "type": "Feature", "tippecanoe": { "layer": "2AFCA0B95B381583918915441", "minzoom": 2, "maxzoom": 8 }, "properties": { "halo": 1.8, "title": "晋", "fontsize": 12, "tyid": "304000", "oid": "103:1576575163643", "color": "#0056E7" }, "geometry": { "type": "Point", "coordinates": [ 112.324219, 36.879621 ] } }
{ "type": "Feature", "tippecanoe": { "layer": "2AFCA0B95B381583918915441", "minzoom": 2, "maxzoom": 8 }, "properties": { "halo": 1.6, "title": "百濮", "fontsize": 12, "tyid": "304001", "oid": "103:1576575163676", "color": "#0056E7" }, "geometry": { "type": "Point", "coordinates": [ 102.568359, 25.878994 ] } }
{ "type": "Feature", "tippecanoe": { "layer": "2AFCA0B95B381583918915441", "minzoom": 2, "maxzoom": 8 }, "properties": { "halo": 1.6, "title": "西瓯", "fontsize": 12, "tyid": "304001", "oid": "103:1576575163946", "color": "#0056E7" }, "geometry": { "type": "Point", "coordinates": [ 108.720703, 23.644524 ] } }
{ "type": "Feature", "tippecanoe": { "layer": "2AFCA0B95B381583918915441", "minzoom": 2, "maxzoom": 8 }, "properties": { "halo": 1.8, "title": "楚", "fontsize": 12, "tyid": "304000", "oid": "103:1576575163666", "color": "#0056E7" }, "geometry": { "type": "Point", "coordinates": [ 114.169922, 31.578535 ] } }
{ "type": "Feature", "tippecanoe": { "layer": "2AFCA0B95B381583918915441", "minzoom": 2, "maxzoom": 8 }, "properties": { "halo": 1.8, "title": "吴", "fontsize": 12, "tyid": "304000", "oid": "103:1576575163565", "color": "#0056E7" }, "geometry": { "type": "Point", "coordinates": [ 119.091797, 31.578535 ] } }
{ "type": "Feature", "tippecanoe": { "layer": "2AFCA0B95B381583918915441", "minzoom": 2, "maxzoom": 8 }, "properties": { "halo": 1.6, "title": "南岛人", "fontsize": 12, "tyid": "304001", "oid": "103:1576575164218", "color": "#0056E7" }, "geometry": { "type": "Point", "coordinates": [ 114.169922, 0.878872 ] } }
{ "type": "Feature", "tippecanoe": { "layer": "2AFCA0B95B381583918915441", "minzoom": 2, "maxzoom": 8 }, "properties": { "halo": 1.6, "title": "尤卡吉尔人", "fontsize": 12, "tyid": "304001", "oid": "103:1576575163713", "color": "#0056E7" }, "geometry": { "type": "Point", "coordinates": [ 155.214844, 64.886265 ] } }
{ "type": "Feature", "tippecanoe": { "layer": "2AFCA0B95B381583918915441", "minzoom": 2, "maxzoom": 8 }, "properties": { "halo": 1.6, "title": "尼夫赫人", "fontsize": 12, "tyid": "304001", "oid": "103:1576575164233", "color": "#0056E7" }, "geometry": { "type": "Point", "coordinates": [ 138.779297, 51.890054 ] } }
{ "type": "Feature", "tippecanoe": { "layer": "2AFCA0B95B381583918915441", "minzoom": 2, "maxzoom": 8 }, "properties": { "halo": 1.6, "title": "科里亚克族", "fontsize": 12, "tyid": "304001", "oid": "103:1576575164235", "color": "#0056E7" }, "geometry": { "type": "Point", "coordinates": [ 164.882812, 61.814664 ] } }
{ "type": "Feature", "tippecanoe": { "layer": "2AFCA0B95B381583918915441", "minzoom": 2, "maxzoom": 8 }, "properties": { "halo": 1.6, "title": "楚科奇人", "fontsize": 12, "tyid": "304001", "oid": "103:1576575163935", "color": "#0056E7" }, "geometry": { "type": "Point", "coordinates": [ 171.035156, 66.443107 ] } }
{ "type": "Feature", "tippecanoe": { "layer": "2AFCA0B95B381583918915441", "minzoom": 2, "maxzoom": 8 }, "properties": { "halo": 1.6, "title": "绳文人", "fontsize": 12, "tyid": "304001", "oid": "103:1576575163577", "color": "#0056E7" }, "geometry": { "type": "Point", "coordinates": [ 139.218750, 36.668419 ] } }
{ "type": "Feature", "tippecanoe": { "layer": "2AFCA0B95B381583918915441", "minzoom": 2, "maxzoom": 8 }, "properties": { "halo": 1.6, "title": "西北班图人诸部", "fontsize": 12, "tyid": "304001", "oid": "103:1576575163787", "color": "#0056E7" }, "geometry": { "type": "Point", "coordinates": [ 20.742188, -0.527336 ] } }
{ "type": "Feature", "tippecanoe": { "layer": "2AFCA0B95B381583918915441", "minzoom": 2, "maxzoom": 8 }, "properties": { "halo": 1.6, "title": "西班图人诸部", "fontsize": 12, "tyid": "304001", "oid": "103:1576575164019", "color": "#0056E7" }, "geometry": { "type": "Point", "coordinates": [ 19.951172, -7.449624 ] } }
{ "type": "Feature", "tippecanoe": { "layer": "2AFCA0B95B381583918915441", "minzoom": 2, "maxzoom": 8 }, "properties": { "halo": 1.6, "title": "东班图人诸部", "fontsize": 12, "tyid": "304001", "oid": "103:1576575163972", "color": "#0056E7" }, "geometry": { "type": "Point", "coordinates": [ 31.728516, -5.178482 ] } }
{ "type": "Feature", "tippecanoe": { "layer": "2AFCA0B95B381583918915441", "minzoom": 2, "maxzoom": 8 }, "properties": { "halo": 1.6, "title": "科伊桑人", "fontsize": 12, "tyid": "304001", "oid": "103:1576575163842", "color": "#0056E7" }, "geometry": { "type": "Point", "coordinates": [ 27.070312, -16.467695 ] } }
{ "type": "Feature", "tippecanoe": { "layer": "2AFCA0B95B381583918915441", "minzoom": 2, "maxzoom": 8 }, "properties": { "halo": 1.6, "title": "澳洲原住民", "fontsize": 12, "tyid": "304001", "oid": "103:1576575164043", "color": "#0056E7" }, "geometry": { "type": "Point", "coordinates": [ 134.296875, -25.562265 ] } }
{ "type": "Feature", "tippecanoe": { "layer": "2AFCA0B95B381583918915441", "minzoom": 2, "maxzoom": 8 }, "properties": { "halo": 1.6, "title": "巴布亚人", "fontsize": 12, "tyid": "304001", "oid": "103:1576575163766", "color": "#0056E7" }, "geometry": { "type": "Point", "coordinates": [ 140.888672, -5.266008 ] } }
{ "type": "Feature", "tippecanoe": { "layer": "2AFCA0B95C501583918915446", "minzoom": 2, "maxzoom": 8 }, "properties": { "tyid": "410000", "centroid": "{\"type\":\"Point\",\"coordinates\":[102.890655519,50.32448578]}", "opacity": 1, "oid": "103:1582721307215", "color": "#A11300", "width": 3 }, "geometry": { "type": "MultiLineString", "coordinates": [ [ [ 108.017578, 21.616579 ], [ 106.611328, 22.024546 ], [ 106.523438, 22.512557 ], [ 106.699219, 22.836946 ], [ 105.820312, 22.998852 ], [ 105.205078, 23.402765 ], [ 103.886719, 22.512557 ], [ 103.535156, 22.836946 ], [ 103.183594, 22.105999 ], [ 102.480469, 22.512557 ], [ 101.777344, 21.861499 ], [ 101.689453, 21.207459 ], [ 101.162109, 21.207459 ], [ 100.986328, 21.779905 ], [ 100.195312, 21.534847 ], [ 99.843750, 22.105999 ], [ 99.140625, 22.187405 ], [ 99.228516, 22.917923 ], [ 98.437500, 23.079732 ], [ 98.701172, 23.402765 ], [ 98.349609, 23.966176 ], [ 98.525391, 24.206890 ], [ 97.294922, 23.805450 ], [ 97.470703, 25.324167 ], [ 98.261719, 26.431228 ], [ 98.701172, 26.667096 ], [ 98.613281, 27.605671 ], [ 98.261719, 27.605671 ], [ 98.085938, 28.226970 ], [ 97.558594, 28.536275 ], [ 97.031250, 27.761330 ], [ 96.240234, 28.304381 ], [ 95.625000, 28.304381 ], [ 94.218750, 27.605671 ], [ 93.691406, 27.059126 ], [ 92.988281, 26.902477 ], [ 92.021484, 26.902477 ], [ 92.109375, 27.371767 ], [ 91.494141, 27.605671 ], [ 91.494141, 27.916767 ], [ 90.791016, 28.071980 ] ], [ [ 130.605469, 42.293564 ], [ 130.166016, 42.940339 ], [ 129.814453, 43.004647 ], [ 129.638672, 42.488302 ], [ 129.287109, 42.423457 ], [ 128.847656, 42.032974 ], [ 127.968750, 42.032974 ], [ 128.232422, 41.574361 ], [ 128.056641, 41.442726 ], [ 127.177734, 41.508577 ], [ 126.826172, 41.836828 ], [ 125.947266, 40.913513 ], [ 124.804688, 40.513799 ], [ 124.277344, 40.044438 ] ], [ [ 135.263672, 54.775346 ], [ 132.978516, 54.162434 ], [ 130.517578, 54.110943 ], [ 131.835938, 54.927142 ], [ 131.044922, 55.677584 ], [ 129.462891, 55.776573 ], [ 128.759766, 55.528631 ], [ 127.705078, 55.727110 ], [ 126.123047, 55.627996 ], [ 125.859375, 55.825973 ], [ 124.804688, 55.924586 ], [ 123.134766, 54.775346 ], [ 121.376953, 54.265224 ], [ 121.025391, 54.521081 ], [ 120.234375, 54.162434 ], [ 119.267578, 54.007769 ], [ 119.003906, 53.383328 ], [ 119.179688, 53.120405 ], [ 120.058594, 53.488046 ], [ 121.201172, 53.540307 ], [ 121.376953, 53.383328 ], [ 120.761719, 53.278353 ], [ 119.970703, 52.802761 ], [ 120.058594, 52.589701 ], [ 120.673828, 52.536273 ], [ 120.673828, 51.998410 ], [ 120.058594, 51.672555 ], [ 119.091797, 50.401515 ], [ 119.355469, 50.401515 ], [ 119.267578, 50.120578 ], [ 118.037109, 49.610710 ], [ 116.191406, 50.064192 ], [ 115.312500, 49.951220 ], [ 114.960938, 50.233152 ], [ 114.257812, 50.289339 ], [ 112.675781, 49.496675 ], [ 110.654297, 49.152970 ], [ 108.457031, 49.382373 ], [ 107.929688, 49.724479 ], [ 107.929688, 49.951220 ], [ 107.050781, 50.064192 ], [ 106.523438, 50.345460 ], [ 105.292969, 50.513427 ], [ 103.974609, 50.176898 ], [ 103.271484, 50.233152 ], [ 102.216797, 50.625073 ], [ 102.041016, 51.399206 ], [ 98.964844, 52.106505 ], [ 98.613281, 52.482780 ], [ 98.876953, 52.908902 ], [ 99.140625, 52.961875 ], [ 98.789062, 53.173119 ], [ 98.173828, 53.120405 ], [ 96.767578, 53.800651 ], [ 96.416016, 53.592505 ], [ 94.658203, 53.435719 ], [ 94.394531, 52.961875 ], [ 94.130859, 52.908902 ], [ 93.515625, 52.214339 ], [ 92.812500, 51.890054 ], [ 91.054688, 51.890054 ], [ 90.175781, 52.696361 ], [ 87.802734, 53.383328 ], [ 86.396484, 53.173119 ], [ 86.132812, 52.908902 ], [ 83.056641, 51.618017 ], [ 82.617188, 51.179343 ], [ 83.056641, 50.958427 ], [ 83.232422, 50.513427 ], [ 82.529297, 49.724479 ], [ 82.529297, 49.325122 ], [ 81.298828, 48.690960 ], [ 81.035156, 48.166085 ], [ 79.628906, 47.694974 ], [ 79.453125, 46.800059 ], [ 78.750000, 46.800059 ], [ 78.750000, 46.619261 ], [ 78.574219, 46.800059 ], [ 78.222656, 46.498392 ], [ 77.783203, 46.679594 ], [ 74.531250, 46.800059 ], [ 73.564453, 46.134170 ], [ 73.388672, 45.706179 ], [ 72.070312, 44.964798 ], [ 70.488281, 44.402392 ], [ 69.521484, 43.452919 ], [ 70.927734, 42.293564 ], [ 73.212891, 42.163403 ], [ 73.916016, 41.836828 ], [ 74.003906, 41.574361 ], [ 73.300781, 41.508577 ], [ 73.828125, 41.046217 ], [ 73.212891, 40.847060 ], [ 72.949219, 40.446947 ], [ 73.125000, 40.044438 ], [ 72.773438, 39.842286 ], [ 72.861328, 39.368279 ], [ 72.421875, 39.436193 ], [ 72.070312, 39.095963 ], [ 72.246094, 38.548165 ], [ 71.894531, 38.272689 ], [ 72.158203, 37.649034 ], [ 71.718750, 36.738884 ], [ 73.476562, 37.509726 ], [ 73.740234, 37.439974 ], [ 73.740234, 37.160317 ], [ 74.531250, 37.090240 ], [ 75.673828, 36.385913 ], [ 75.761719, 36.031332 ], [ 74.882812, 35.817813 ], [ 75.322266, 35.173808 ], [ 75.146484, 34.669359 ], [ 76.113281, 33.578015 ], [ 77.080078, 32.990236 ], [ 77.080078, 32.472695 ], [ 77.871094, 31.802893 ], [ 78.662109, 31.728167 ], [ 79.013672, 31.052934 ], [ 79.892578, 30.826781 ], [ 80.683594, 30.145127 ], [ 82.001953, 30.145127 ], [ 83.583984, 29.228890 ], [ 83.935547, 29.305561 ], [ 84.462891, 28.536275 ], [ 85.605469, 28.226970 ], [ 85.869141, 27.916767 ], [ 87.714844, 27.839076 ], [ 88.681641, 28.071980 ], [ 88.945312, 27.215556 ], [ 89.560547, 28.226970 ], [ 90.791016, 28.071980 ] ] ] } }
{ "type": "Feature", "tippecanoe": { "layer": "2AFCA0B95C501583918915446", "minzoom": 2, "maxzoom": 8 }, "properties": { "tyid": "410000", "centroid": "{\"type\":\"Point\",\"coordinates\":[118.9965612163,11.9748626986]}", "opacity": 1, "oid": "103:1582721307213", "color": "#A11300", "width": 3 }, "geometry": { "type": "MultiLineString", "coordinates": [ [ [ 122.695312, 24.447150 ], [ 122.431641, 23.402765 ] ], [ [ 120.849609, 20.550509 ], [ 121.728516, 21.616579 ] ], [ [ 119.355469, 17.727759 ], [ 119.794922, 18.895893 ] ], [ [ 118.916016, 14.689881 ], [ 118.916016, 16.045813 ] ], [ [ 118.476562, 10.833306 ], [ 119.003906, 12.039321 ] ], [ [ 115.312500, 7.013668 ], [ 116.191406, 8.059230 ] ], [ [ 111.708984, 3.425692 ], [ 112.939453, 3.864255 ] ], [ [ 108.281250, 5.965754 ], [ 108.193359, 7.362467 ] ], [ [ 110.039062, 11.264612 ], [ 110.214844, 12.468760 ] ], [ [ 109.775391, 15.029686 ], [ 109.248047, 16.214675 ] ] ] } }
{ "type": "Feature", "tippecanoe": { "layer": "2AFCA0E305F81583918915432", "minzoom": 2, "maxzoom": 8 }, "properties": { "halo": 1.6, "title": "阿普克斯文化", "fontsize": 12, "tyid": "304002", "oid": "103:1576575164051", "color": "#0056E7" }, "geometry": { "type": "Point", "coordinates": [ -104.677734, 39.504041 ] } }
{ "type": "Feature", "tippecanoe": { "layer": "2AFCA0E305F81583918915432", "minzoom": 2, "maxzoom": 8 }, "properties": { "halo": 1.6, "title": "米斯特克人", "fontsize": 12, "tyid": "304001", "oid": "103:1576575163731", "color": "#0056E7" }, "geometry": { "type": "Point", "coordinates": [ -98.349609, 17.224758 ] } }
{ "type": "Feature", "tippecanoe": { "layer": "2AFCA0E305F81583918915432", "minzoom": 2, "maxzoom": 8 }, "properties": { "halo": 1.6, "title": "特里克人", "fontsize": 12, "tyid": "304001", "oid": "103:1576575163715", "color": "#0056E7" }, "geometry": { "type": "Point", "coordinates": [ -97.294922, 17.644022 ] } }
{ "type": "Feature", "tippecanoe": { "layer": "2AFCA0E305F81583918915432", "minzoom": 2, "maxzoom": 8 }, "properties": { "halo": 1.6, "title": "麦克斯人", "fontsize": 12, "tyid": "304001", "oid": "103:1576575163620", "color": "#0056E7" }, "geometry": { "type": "Point", "coordinates": [ -96.064453, 17.727759 ] } }
{ "type": "Feature", "tippecanoe": { "layer": "2AFCA0E305F81583918915432", "minzoom": 2, "maxzoom": 8 }, "properties": { "halo": 1.6, "title": "祖赫人", "fontsize": 12, "tyid": "304001", "oid": "103:1576575163694", "color": "#0056E7" }, "geometry": { "type": "Point", "coordinates": [ -92.021484, 16.045813 ] } }
{ "type": "Feature", "tippecanoe": { "layer": "2AFCA0E305F81583918915432", "minzoom": 2, "maxzoom": 8 }, "properties": { "halo": 1.6, "title": "基切人", "fontsize": 12, "tyid": "304001", "oid": "103:1576575164101", "color": "#0056E7" }, "geometry": { "type": "Point", "coordinates": [ -90.966797, 15.029686 ] } }
{ "type": "Feature", "tippecanoe": { "layer": "2AFCA0E305F81583918915432", "minzoom": 2, "maxzoom": 8 }, "properties": { "halo": 1.6, "title": "阿尔托山文化", "fontsize": 12, "tyid": "304002", "oid": "103:1576575163814", "color": "#0056E7" }, "geometry": { "type": "Point", "coordinates": [ -91.054688, 14.349548 ] } }
{ "type": "Feature", "tippecanoe": { "layer": "2AFCA0E305F81583918915432", "minzoom": 2, "maxzoom": 8 }, "properties": { "halo": 1.6, "title": "贝尔格莱德文化", "fontsize": 12, "tyid": "304002", "oid": "103:1576575163672", "color": "#0056E7" }, "geometry": { "type": "Point", "coordinates": [ -80.859375, 27.137368 ] } }
{ "type": "Feature", "tippecanoe": { "layer": "2AFCA0E305F81583918915432", "minzoom": 2, "maxzoom": 8 }, "properties": { "halo": 1.6, "title": "第纳尔特时期", "fontsize": 12, "tyid": "304002", "oid": "103:1576575164095", "color": "#0056E7" }, "geometry": { "type": "Point", "coordinates": [ -85.605469, 11.523088 ] } }
{ "type": "Feature", "tippecanoe": { "layer": "2AFCA0E305F81583918915432", "minzoom": 2, "maxzoom": 8 }, "properties": { "halo": 1.6, "title": "格兰科克勒文化", "fontsize": 12, "tyid": "304002", "oid": "103:1576575163849", "color": "#0056E7" }, "geometry": { "type": "Point", "coordinates": [ -80.507812, 8.581021 ] } }
{ "type": "Feature", "tippecanoe": { "layer": "2AFCA0E305F81583918915432", "minzoom": 2, "maxzoom": 8 }, "properties": { "halo": 1.6, "title": "伊拉玛文化", "fontsize": 12, "tyid": "304002", "oid": "103:1576575163560", "color": "#0056E7" }, "geometry": { "type": "Point", "coordinates": [ -76.376953, 3.951941 ] } }
{ "type": "Feature", "tippecanoe": { "layer": "2AFCA0E305F81583918915432", "minzoom": 2, "maxzoom": 8 }, "properties": { "halo": 1.6, "title": "阿伯里亚文化", "fontsize": 12, "tyid": "304002", "oid": "103:1576575163880", "color": "#0056E7" }, "geometry": { "type": "Point", "coordinates": [ -74.179688, 4.740675 ] } }
{ "type": "Feature", "tippecanoe": { "layer": "2AFCA0E305F81583918915432", "minzoom": 2, "maxzoom": 8 }, "properties": { "halo": 1.6, "title": "科罗索文化", "fontsize": 12, "tyid": "304002", "oid": "103:1576575164090", "color": "#0056E7" }, "geometry": { "type": "Point", "coordinates": [ -66.533203, 18.229351 ] } }
{ "type": "Feature", "tippecanoe": { "layer": "2AFCA0E305F81583918915432", "minzoom": 2, "maxzoom": 8 }, "properties": { "halo": 1.6, "title": "克鲁姆湾文化", "fontsize": 12, "tyid": "304002", "oid": "103:1576575164103", "color": "#0056E7" }, "geometry": { "type": "Point", "coordinates": [ -64.775391, 17.811456 ] } }
{ "type": "Feature", "tippecanoe": { "layer": "2AFCA0E305F81583918915432", "minzoom": 2, "maxzoom": 8 }, "properties": { "halo": 1.6, "title": "奥托罗伊德人", "fontsize": 12, "tyid": "304001", "oid": "103:1576575164125", "color": "#0056E7" }, "geometry": { "type": "Point", "coordinates": [ -61.347656, 10.487812 ] } }
{ "type": "Feature", "tippecanoe": { "layer": "2AFCA0E305F81583918915432", "minzoom": 2, "maxzoom": 8 }, "properties": { "halo": 1.6, "title": "巴斯克人", "fontsize": 12, "tyid": "304001", "oid": "103:1576575164178", "color": "#0056E7" }, "geometry": { "type": "Point", "coordinates": [ -1.494141, 42.811522 ] } }
{ "type": "Feature", "tippecanoe": { "layer": "2AFCA0E305F81583918915432", "minzoom": 2, "maxzoom": 8 }, "properties": { "halo": 1.6, "title": "伊塞塔尼人", "fontsize": 12, "tyid": "304001", "oid": "103:1576575163555", "color": "#0056E7" }, "geometry": { "type": "Point", "coordinates": [ -0.966797, 42.423457 ] } }
{ "type": "Feature", "tippecanoe": { "layer": "2AFCA0E305F81583918915432", "minzoom": 2, "maxzoom": 8 }, "properties": { "halo": 1.6, "title": "关切人", "fontsize": 12, "tyid": "304001", "oid": "103:1576575163996", "color": "#0056E7" }, "geometry": { "type": "Point", "coordinates": [ -16.611328, 28.304381 ] } }
{ "type": "Feature", "tippecanoe": { "layer": "2AFCA0E305F81583918915432", "minzoom": 2, "maxzoom": 8 }, "properties": { "halo": 1.6, "title": "伊利尔卡沃尼人", "fontsize": 12, "tyid": "304001", "oid": "103:1576575163561", "color": "#0056E7" }, "geometry": { "type": "Point", "coordinates": [ -0.263672, 40.847060 ] } }
{ "type": "Feature", "tippecanoe": { "layer": "2AFCA0E305F81583918915432", "minzoom": 2, "maxzoom": 8 }, "properties": { "halo": 1.6, "title": "埃德塔尼人", "fontsize": 12, "tyid": "304001", "oid": "103:1576575163686", "color": "#0056E7" }, "geometry": { "type": "Point", "coordinates": [ -0.966797, 39.639538 ] } }
{ "type": "Feature", "tippecanoe": { "layer": "2AFCA0E305F81583918915432", "minzoom": 2, "maxzoom": 8 }, "properties": { "halo": 1.6, "title": "康斯塔尼人", "fontsize": 12, "tyid": "304001", "oid": "103:1576575163639", "color": "#0056E7" }, "geometry": { "type": "Point", "coordinates": [ -0.878906, 38.685510 ] } }
{ "type": "Feature", "tippecanoe": { "layer": "2AFCA0E305F81583918915432", "minzoom": 2, "maxzoom": 8 }, "properties": { "halo": 1.6, "title": "科特克拉文化", "fontsize": 12, "tyid": "304002", "oid": "103:1576575163855", "color": "#0056E7" }, "geometry": { "type": "Point", "coordinates": [ -78.398438, -0.351560 ] } }
{ "type": "Feature", "tippecanoe": { "layer": "2AFCA0E305F81583918915432", "minzoom": 2, "maxzoom": 8 }, "properties": { "halo": 1.6, "title": "查文文化", "fontsize": 12, "tyid": "304002", "oid": "103:1576575163868", "color": "#0056E7" }, "geometry": { "type": "Point", "coordinates": [ -77.783203, -8.494105 ] } }
{ "type": "Feature", "tippecanoe": { "layer": "2AFCA0E305F81583918915432", "minzoom": 2, "maxzoom": 8 }, "properties": { "halo": 1.6, "title": "卡斯马-赛钦文化", "fontsize": 12, "tyid": "304002", "oid": "103:1576575163889", "color": "#0056E7" }, "geometry": { "type": "Point", "coordinates": [ -77.958984, -9.622414 ] } }
{ "type": "Feature", "tippecanoe": { "layer": "2AFCA0E305F81583918915432", "minzoom": 2, "maxzoom": 8 }, "properties": { "halo": 1.6, "title": "帕拉卡斯文化", "fontsize": 12, "tyid": "304002", "oid": "103:1576575163851", "color": "#0056E7" }, "geometry": { "type": "Point", "coordinates": [ -75.673828, -14.179186 ] } }
{ "type": "Feature", "tippecanoe": { "layer": "2AFCA0E305F81583918915432", "minzoom": 2, "maxzoom": 8 }, "properties": { "halo": 1.6, "title": "卡鲁尤文化", "fontsize": 12, "tyid": "304002", "oid": "103:1576575164030", "color": "#0056E7" }, "geometry": { "type": "Point", "coordinates": [ -70.136719, -15.114553 ] } }
{ "type": "Feature", "tippecanoe": { "layer": "2AFCA0E305F81583918915432", "minzoom": 2, "maxzoom": 8 }, "properties": { "halo": 1.6, "title": "豪什人", "fontsize": 12, "tyid": "304001", "oid": "103:1576575163856", "color": "#0056E7" }, "geometry": { "type": "Point", "coordinates": [ -65.917969, -54.724620 ] } }
{ "type": "Feature", "tippecanoe": { "layer": "2AFCA0E305F81583918915432", "minzoom": 2, "maxzoom": 8 }, "properties": { "halo": 1.6, "title": "拉塞塔尼人", "fontsize": 12, "tyid": "304001", "oid": "103:1576575164168", "color": "#0056E7" }, "geometry": { "type": "Point", "coordinates": [ 1.054688, 41.442726 ] } }
{ "type": "Feature", "tippecanoe": { "layer": "2AFCA0E305F81583918915432", "minzoom": 2, "maxzoom": 8 }, "properties": { "halo": 1.6, "title": "英迪格人", "fontsize": 12, "tyid": "304001", "oid": "103:1576575164164", "color": "#0056E7" }, "geometry": { "type": "Point", "coordinates": [ 2.285156, 42.163403 ] } }
{ "type": "Feature", "tippecanoe": { "layer": "2AFCA0E305F81583918915432", "minzoom": 2, "maxzoom": 8 }, "properties": { "halo": 1.8, "title": "马萨利亚", "fontsize": 12, "tyid": "304000", "oid": "103:1576575164070", "color": "#0056E7" }, "geometry": { "type": "Point", "coordinates": [ 5.449219, 43.325178 ] } }
{ "type": "Feature", "tippecanoe": { "layer": "2AFCA0E305F81583918915432", "minzoom": 2, "maxzoom": 8 }, "properties": { "halo": 1.8, "title": "帕莱波利斯", "fontsize": 12, "tyid": "304000", "oid": "103:1576575164073", "color": "#0056E7" }, "geometry": { "type": "Point", "coordinates": [ 3.076172, 42.163403 ] } }
{ "type": "Feature", "tippecanoe": { "layer": "2AFCA0E305F81583918915432", "minzoom": 2, "maxzoom": 8 }, "properties": { "halo": 1.6, "title": "格拉塞卡文化", "fontsize": 12, "tyid": "304001", "oid": "103:1576575164136", "color": "#0056E7" }, "geometry": { "type": "Point", "coordinates": [ 9.492188, 45.460131 ] } }
{ "type": "Feature", "tippecanoe": { "layer": "2AFCA0E305F81583918915432", "minzoom": 2, "maxzoom": 8 }, "properties": { "halo": 1.6, "title": "卡莫尼卡人", "fontsize": 12, "tyid": "304001", "oid": "103:1576575163753", "color": "#0056E7" }, "geometry": { "type": "Point", "coordinates": [ 10.283203, 46.012224 ] } }
{ "type": "Feature", "tippecanoe": { "layer": "2AFCA0E305F81583918915432", "minzoom": 2, "maxzoom": 8 }, "properties": { "halo": 1.8, "title": "摩诺伊科", "fontsize": 12, "tyid": "304000", "oid": "103:1576575163834", "color": "#0056E7" }, "geometry": { "type": "Point", "coordinates": [ 7.382812, 43.771094 ] } }
{ "type": "Feature", "tippecanoe": { "layer": "2AFCA0E305F81583918915432", "minzoom": 2, "maxzoom": 8 }, "properties": { "halo": 1.6, "title": "科西人", "fontsize": 12, "tyid": "304001", "oid": "103:1576575164202", "color": "#0056E7" }, "geometry": { "type": "Point", "coordinates": [ 9.228516, 41.112469 ] } }
{ "type": "Feature", "tippecanoe": { "layer": "2AFCA0E305F81583918915432", "minzoom": 2, "maxzoom": 8 }, "properties": { "halo": 1.8, "title": "罗马共和国", "fontsize": 12, "tyid": "304000", "oid": "103:1576575164027", "color": "#0056E7" }, "geometry": { "type": "Point", "coordinates": [ 12.480469, 41.902277 ] } }
{ "type": "Feature", "tippecanoe": { "layer": "2AFCA0E305F81583918915432", "minzoom": 2, "maxzoom": 8 }, "properties": { "halo": 1.6, "title": "翁布里亚人", "fontsize": 12, "tyid": "304001", "oid": "103:1576575163818", "color": "#0056E7" }, "geometry": { "type": "Point", "coordinates": [ 12.832031, 42.811522 ] } }
{ "type": "Feature", "tippecanoe": { "layer": "2AFCA0E305F81583918915432", "minzoom": 2, "maxzoom": 8 }, "properties": { "halo": 1.6, "title": "萨宾人", "fontsize": 12, "tyid": "304001", "oid": "103:1576575163596", "color": "#0056E7" }, "geometry": { "type": "Point", "coordinates": [ 12.656250, 42.098222 ] } }
{ "type": "Feature", "tippecanoe": { "layer": "2AFCA0E305F81583918915432", "minzoom": 2, "maxzoom": 8 }, "properties": { "halo": 1.6, "title": "皮森特人", "fontsize": 12, "tyid": "304001", "oid": "103:1576575163747", "color": "#0056E7" }, "geometry": { "type": "Point", "coordinates": [ 13.535156, 43.004647 ] } }
{ "type": "Feature", "tippecanoe": { "layer": "2AFCA0E305F81583918915432", "minzoom": 2, "maxzoom": 8 }, "properties": { "halo": 1.6, "title": "拉丁人", "fontsize": 12, "tyid": "304001", "oid": "103:1576575163615", "color": "#0056E7" }, "geometry": { "type": "Point", "coordinates": [ 12.832031, 41.640078 ] } }
{ "type": "Feature", "tippecanoe": { "layer": "2AFCA0E305F81583918915432", "minzoom": 2, "maxzoom": 8 }, "properties": { "halo": 1.6, "title": "奥斯坎人", "fontsize": 12, "tyid": "304001", "oid": "103:1576575163812", "color": "#0056E7" }, "geometry": { "type": "Point", "coordinates": [ 13.447266, 41.442726 ] } }
{ "type": "Feature", "tippecanoe": { "layer": "2AFCA0E305F81583918915432", "minzoom": 2, "maxzoom": 8 }, "properties": { "halo": 1.6, "title": "道尼人", "fontsize": 12, "tyid": "304001", "oid": "103:1576575163931", "color": "#0056E7" }, "geometry": { "type": "Point", "coordinates": [ 15.292969, 41.705729 ] } }
{ "type": "Feature", "tippecanoe": { "layer": "2AFCA0E305F81583918915432", "minzoom": 2, "maxzoom": 8 }, "properties": { "halo": 1.6, "title": "佩乌克提伊人", "fontsize": 12, "tyid": "304001", "oid": "103:1576575163749", "color": "#0056E7" }, "geometry": { "type": "Point", "coordinates": [ 16.347656, 41.046217 ] } }
{ "type": "Feature", "tippecanoe": { "layer": "2AFCA0E305F81583918915432", "minzoom": 2, "maxzoom": 8 }, "properties": { "halo": 1.6, "title": "培奥尼亚人", "fontsize": 12, "tyid": "304001", "oid": "103:1576575163724", "color": "#0056E7" }, "geometry": { "type": "Point", "coordinates": [ 22.148438, 41.771312 ] } }
{ "type": "Feature", "tippecanoe": { "layer": "2AFCA0E305F81583918915432", "minzoom": 2, "maxzoom": 8 }, "properties": { "halo": 1.8, "title": "阿布德拉", "fontsize": 12, "tyid": "304000", "oid": "103:1576575164184", "color": "#0056E7" }, "geometry": { "type": "Point", "coordinates": [ 24.960938, 41.046217 ] } }
{ "type": "Feature", "tippecanoe": { "layer": "2AFCA0E305F81583918915432", "minzoom": 2, "maxzoom": 8 }, "properties": { "halo": 1.8, "title": "奥德索斯", "fontsize": 12, "tyid": "304000", "oid": "103:1576575164045", "color": "#0056E7" }, "geometry": { "type": "Point", "coordinates": [ 27.861328, 43.261206 ] } }
{ "type": "Feature", "tippecanoe": { "layer": "2AFCA0E305F81583918915432", "minzoom": 2, "maxzoom": 8 }, "properties": { "halo": 1.8, "title": "阿波罗尼亚·潘提卡", "fontsize": 12, "tyid": "304000", "oid": "103:1576575164003", "color": "#0056E7" }, "geometry": { "type": "Point", "coordinates": [ 27.685547, 42.423457 ] } }
{ "type": "Feature", "tippecanoe": { "layer": "2AFCA0E305F81583918915432", "minzoom": 2, "maxzoom": 8 }, "properties": { "halo": 1.8, "title": "提拉斯", "fontsize": 12, "tyid": "304000", "oid": "103:1576575164252", "color": "#0056E7" }, "geometry": { "type": "Point", "coordinates": [ 30.234375, 46.134170 ] } }
{ "type": "Feature", "tippecanoe": { "layer": "2AFCA0E305F81583918915432", "minzoom": 2, "maxzoom": 8 }, "properties": { "halo": 1.8, "title": "敖德萨", "fontsize": 12, "tyid": "304000", "oid": "103:1576575164097", "color": "#0056E7" }, "geometry": { "type": "Point", "coordinates": [ 30.585938, 46.498392 ] } }
{ "type": "Feature", "tippecanoe": { "layer": "2AFCA0E305F81583918915432", "minzoom": 2, "maxzoom": 8 }, "properties": { "halo": 1.6, "title": "奥里维亚", "fontsize": 12, "tyid": "304002", "oid": "103:1576575163767", "color": "#0056E7" }, "geometry": { "type": "Point", "coordinates": [ 31.816406, 46.679594 ] } }
{ "type": "Feature", "tippecanoe": { "layer": "2AFCA0E305F81583918915432", "minzoom": 2, "maxzoom": 8 }, "properties": { "halo": 1.8, "title": "希斯特里亚", "fontsize": 12, "tyid": "304000", "oid": "103:1576575164251", "color": "#0056E7" }, "geometry": { "type": "Point", "coordinates": [ 28.740234, 44.527843 ] } }
{ "type": "Feature", "tippecanoe": { "layer": "2AFCA0E305F81583918915432", "minzoom": 2, "maxzoom": 8 }, "properties": { "halo": 1.8, "title": "托米斯", "fontsize": 12, "tyid": "304000", "oid": "103:1576575164124", "color": "#0056E7" }, "geometry": { "type": "Point", "coordinates": [ 28.476562, 44.213710 ] } }
{ "type": "Feature", "tippecanoe": { "layer": "2AFCA0E305F81583918915432", "minzoom": 2, "maxzoom": 8 }, "properties": { "halo": 1.8, "title": "埃吉索斯", "fontsize": 12, "tyid": "304000", "oid": "103:1576575163775", "color": "#0056E7" }, "geometry": { "type": "Point", "coordinates": [ 29.355469, 45.026950 ] } }
{ "type": "Feature", "tippecanoe": { "layer": "2AFCA0E305F81583918915432", "minzoom": 2, "maxzoom": 8 }, "properties": { "halo": 1.8, "title": "卡拉提斯", "fontsize": 12, "tyid": "304000", "oid": "103:1576575164249", "color": "#0056E7" }, "geometry": { "type": "Point", "coordinates": [ 28.564453, 43.834527 ] } }
{ "type": "Feature", "tippecanoe": { "layer": "2AFCA0E305F81583918915432", "minzoom": 2, "maxzoom": 8 }, "properties": { "halo": 1.6, "title": "拜占庭", "fontsize": 12, "tyid": "304002", "oid": "103:1576575163987", "color": "#0056E7" }, "geometry": { "type": "Point", "coordinates": [ 28.828125, 41.112469 ] } }
{ "type": "Feature", "tippecanoe": { "layer": "2AFCA0E305F81583918915432", "minzoom": 2, "maxzoom": 8 }, "properties": { "halo": 1.8, "title": "克森尼索", "fontsize": 12, "tyid": "304000", "oid": "103:1576575164254", "color": "#0056E7" }, "geometry": { "type": "Point", "coordinates": [ 33.486328, 44.590467 ] } }
{ "type": "Feature", "tippecanoe": { "layer": "2AFCA0E305F81583918915432", "minzoom": 2, "maxzoom": 8 }, "properties": { "halo": 1.8, "title": "迈尔梅基翁", "fontsize": 12, "tyid": "304000", "oid": "103:1576575163628", "color": "#0056E7" }, "geometry": { "type": "Point", "coordinates": [ 36.298828, 45.398450 ] } }
{ "type": "Feature", "tippecanoe": { "layer": "2AFCA0E305F81583918915432", "minzoom": 2, "maxzoom": 8 }, "properties": { "halo": 1.8, "title": "潘提卡彭", "fontsize": 12, "tyid": "304000", "oid": "103:1576575163988", "color": "#0056E7" }, "geometry": { "type": "Point", "coordinates": [ 36.386719, 45.398450 ] } }
{ "type": "Feature", "tippecanoe": { "layer": "2AFCA0E305F81583918915432", "minzoom": 2, "maxzoom": 8 },