{"year": "BC523",  "type": "Feature", "tippecanoe": { "layer": "2AFCA67D41D01583918936721", "minzoom": 2, "maxzoom": 8 }, "properties": { "halo": 1.6, "title": "阿普克斯文化", "fontsize": 12, "tyid": "304002", "oid": "103:1576575192501", "color": "#0056E7" }, "geometry": { "type": "Point", "coordinates": [ -104.677734, 39.504041 ] } }
{"year": "BC523",  "type": "Feature", "tippecanoe": { "layer": "2AFCA67D41D01583918936721", "minzoom": 2, "maxzoom": 8 }, "properties": { "halo": 1.6, "title": "米斯特克人", "fontsize": 12, "tyid": "304001", "oid": "103:1576575192174", "color": "#0056E7" }, "geometry": { "type": "Point", "coordinates": [ -98.349609, 17.224758 ] } }
{"year": "BC523",  "type": "Feature", "tippecanoe": { "layer": "2AFCA67D41D01583918936721", "minzoom": 2, "maxzoom": 8 }, "properties": { "halo": 1.6, "title": "特里克人", "fontsize": 12, "tyid": "304001", "oid": "103:1576575192158", "color": "#0056E7" }, "geometry": { "type": "Point", "coordinates": [ -97.294922, 17.644022 ] } }
{"year": "BC523",  "type": "Feature", "tippecanoe": { "layer": "2AFCA67D41D01583918936721", "minzoom": 2, "maxzoom": 8 }, "properties": { "halo": 1.6, "title": "麦克斯人", "fontsize": 12, "tyid": "304001", "oid": "103:1576575192059", "color": "#0056E7" }, "geometry": { "type": "Point", "coordinates": [ -96.064453, 17.727759 ] } }
{"year": "BC523",  "type": "Feature", "tippecanoe": { "layer": "2AFCA67D41D01583918936721", "minzoom": 2, "maxzoom": 8 }, "properties": { "halo": 1.6, "title": "祖赫人", "fontsize": 12, "tyid": "304001", "oid": "103:1576575192134", "color": "#0056E7" }, "geometry": { "type": "Point", "coordinates": [ -92.021484, 16.045813 ] } }
{"year": "BC523",  "type": "Feature", "tippecanoe": { "layer": "2AFCA67D41D01583918936721", "minzoom": 2, "maxzoom": 8 }, "properties": { "halo": 1.6, "title": "基切人", "fontsize": 12, "tyid": "304001", "oid": "103:1576575192552", "color": "#0056E7" }, "geometry": { "type": "Point", "coordinates": [ -90.966797, 15.029686 ] } }
{"year": "BC523",  "type": "Feature", "tippecanoe": { "layer": "2AFCA67D41D01583918936721", "minzoom": 2, "maxzoom": 8 }, "properties": { "halo": 1.6, "title": "阿尔托山文化", "fontsize": 12, "tyid": "304002", "oid": "103:1576575192260", "color": "#0056E7" }, "geometry": { "type": "Point", "coordinates": [ -91.054688, 14.349548 ] } }
{"year": "BC523",  "type": "Feature", "tippecanoe": { "layer": "2AFCA67D41D01583918936721", "minzoom": 2, "maxzoom": 8 }, "properties": { "halo": 1.6, "title": "贝尔格莱德文化", "fontsize": 12, "tyid": "304002", "oid": "103:1576575192112", "color": "#0056E7" }, "geometry": { "type": "Point", "coordinates": [ -80.859375, 27.137368 ] } }
{"year": "BC523",  "type": "Feature", "tippecanoe": { "layer": "2AFCA67D41D01583918936721", "minzoom": 2, "maxzoom": 8 }, "properties": { "halo": 1.6, "title": "第纳尔特时期", "fontsize": 12, "tyid": "304002", "oid": "103:1576575192546", "color": "#0056E7" }, "geometry": { "type": "Point", "coordinates": [ -85.605469, 11.523088 ] } }
{"year": "BC523",  "type": "Feature", "tippecanoe": { "layer": "2AFCA67D41D01583918936721", "minzoom": 2, "maxzoom": 8 }, "properties": { "halo": 1.6, "title": "格兰科克勒文化", "fontsize": 12, "tyid": "304002", "oid": "103:1576575192296", "color": "#0056E7" }, "geometry": { "type": "Point", "coordinates": [ -80.507812, 8.581021 ] } }
{"year": "BC523",  "type": "Feature", "tippecanoe": { "layer": "2AFCA67D41D01583918936721", "minzoom": 2, "maxzoom": 8 }, "properties": { "halo": 1.6, "title": "伊拉玛文化", "fontsize": 12, "tyid": "304002", "oid": "103:1576575191996", "color": "#0056E7" }, "geometry": { "type": "Point", "coordinates": [ -76.376953, 3.951941 ] } }
{"year": "BC523",  "type": "Feature", "tippecanoe": { "layer": "2AFCA67D41D01583918936721", "minzoom": 2, "maxzoom": 8 }, "properties": { "halo": 1.6, "title": "阿伯里亚文化", "fontsize": 12, "tyid": "304002", "oid": "103:1576575192328", "color": "#0056E7" }, "geometry": { "type": "Point", "coordinates": [ -74.179688, 4.740675 ] } }
{"year": "BC523",  "type": "Feature", "tippecanoe": { "layer": "2AFCA67D41D01583918936721", "minzoom": 2, "maxzoom": 8 }, "properties": { "halo": 1.6, "title": "科罗索文化", "fontsize": 12, "tyid": "304002", "oid": "103:1576575192541", "color": "#0056E7" }, "geometry": { "type": "Point", "coordinates": [ -66.533203, 18.229351 ] } }
{"year": "BC523",  "type": "Feature", "tippecanoe": { "layer": "2AFCA67D41D01583918936721", "minzoom": 2, "maxzoom": 8 }, "properties": { "halo": 1.6, "title": "克鲁姆湾文化", "fontsize": 12, "tyid": "304002", "oid": "103:1576575192553", "color": "#0056E7" }, "geometry": { "type": "Point", "coordinates": [ -64.775391, 17.811456 ] } }
{"year": "BC523",  "type": "Feature", "tippecanoe": { "layer": "2AFCA67D41D01583918936721", "minzoom": 2, "maxzoom": 8 }, "properties": { "halo": 1.6, "title": "奥托罗伊德人", "fontsize": 12, "tyid": "304001", "oid": "103:1576575192576", "color": "#0056E7" }, "geometry": { "type": "Point", "coordinates": [ -61.347656, 10.487812 ] } }
{"year": "BC523",  "type": "Feature", "tippecanoe": { "layer": "2AFCA67D41D01583918936721", "minzoom": 2, "maxzoom": 8 }, "properties": { "halo": 1.6, "title": "巴斯克人", "fontsize": 12, "tyid": "304001", "oid": "103:1576575192631", "color": "#0056E7" }, "geometry": { "type": "Point", "coordinates": [ -1.494141, 42.811522 ] } }
{"year": "BC523",  "type": "Feature", "tippecanoe": { "layer": "2AFCA67D41D01583918936721", "minzoom": 2, "maxzoom": 8 }, "properties": { "halo": 1.6, "title": "伊塞塔尼人", "fontsize": 12, "tyid": "304001", "oid": "103:1576575191991", "color": "#0056E7" }, "geometry": { "type": "Point", "coordinates": [ -0.966797, 42.423457 ] } }
{"year": "BC523",  "type": "Feature", "tippecanoe": { "layer": "2AFCA67D41D01583918936721", "minzoom": 2, "maxzoom": 8 }, "properties": { "halo": 1.6, "title": "关切人", "fontsize": 12, "tyid": "304001", "oid": "103:1576575192445", "color": "#0056E7" }, "geometry": { "type": "Point", "coordinates": [ -16.611328, 28.304381 ] } }
{"year": "BC523",  "type": "Feature", "tippecanoe": { "layer": "2AFCA67D41D01583918936721", "minzoom": 2, "maxzoom": 8 }, "properties": { "halo": 1.6, "title": "伊利尔卡沃尼人", "fontsize": 12, "tyid": "304001", "oid": "103:1576575191998", "color": "#0056E7" }, "geometry": { "type": "Point", "coordinates": [ -0.263672, 40.847060 ] } }
{"year": "BC523",  "type": "Feature", "tippecanoe": { "layer": "2AFCA67D41D01583918936721", "minzoom": 2, "maxzoom": 8 }, "properties": { "halo": 1.6, "title": "埃德塔尼人", "fontsize": 12, "tyid": "304001", "oid": "103:1576575192127", "color": "#0056E7" }, "geometry": { "type": "Point", "coordinates": [ -0.966797, 39.639538 ] } }
{"year": "BC523",  "type": "Feature", "tippecanoe": { "layer": "2AFCA67D41D01583918936721", "minzoom": 2, "maxzoom": 8 }, "properties": { "halo": 1.6, "title": "康斯塔尼人", "fontsize": 12, "tyid": "304001", "oid": "103:1576575192079", "color": "#0056E7" }, "geometry": { "type": "Point", "coordinates": [ -0.878906, 38.685510 ] } }
{"year": "BC523",  "type": "Feature", "tippecanoe": { "layer": "2AFCA67D41D01583918936721", "minzoom": 2, "maxzoom": 8 }, "properties": { "halo": 1.6, "title": "科特克拉文化", "fontsize": 12, "tyid": "304002", "oid": "103:1576575192302", "color": "#0056E7" }, "geometry": { "type": "Point", "coordinates": [ -78.398438, -0.351560 ] } }
{"year": "BC523",  "type": "Feature", "tippecanoe": { "layer": "2AFCA67D41D01583918936721", "minzoom": 2, "maxzoom": 8 }, "properties": { "halo": 1.6, "title": "查文文化", "fontsize": 12, "tyid": "304002", "oid": "103:1576575192315", "color": "#0056E7" }, "geometry": { "type": "Point", "coordinates": [ -77.783203, -8.494105 ] } }
{"year": "BC523",  "type": "Feature", "tippecanoe": { "layer": "2AFCA67D41D01583918936721", "minzoom": 2, "maxzoom": 8 }, "properties": { "halo": 1.6, "title": "卡斯马-赛钦文化", "fontsize": 12, "tyid": "304002", "oid": "103:1576575192337", "color": "#0056E7" }, "geometry": { "type": "Point", "coordinates": [ -77.958984, -9.622414 ] } }
{"year": "BC523",  "type": "Feature", "tippecanoe": { "layer": "2AFCA67D41D01583918936721", "minzoom": 2, "maxzoom": 8 }, "properties": { "halo": 1.6, "title": "帕拉卡斯文化", "fontsize": 12, "tyid": "304002", "oid": "103:1576575192298", "color": "#0056E7" }, "geometry": { "type": "Point", "coordinates": [ -75.673828, -14.179186 ] } }
{"year": "BC523",  "type": "Feature", "tippecanoe": { "layer": "2AFCA67D41D01583918936721", "minzoom": 2, "maxzoom": 8 }, "properties": { "halo": 1.6, "title": "卡鲁尤文化", "fontsize": 12, "tyid": "304002", "oid": "103:1576575192479", "color": "#0056E7" }, "geometry": { "type": "Point", "coordinates": [ -70.136719, -15.114553 ] } }
{"year": "BC523",  "type": "Feature", "tippecanoe": { "layer": "2AFCA67D41D01583918936721", "minzoom": 2, "maxzoom": 8 }, "properties": { "halo": 1.6, "title": "豪什人", "fontsize": 12, "tyid": "304001", "oid": "103:1576575192304", "color": "#0056E7" }, "geometry": { "type": "Point", "coordinates": [ -65.917969, -54.724620 ] } }
{"year": "BC523",  "type": "Feature", "tippecanoe": { "layer": "2AFCA67D41D01583918936721", "minzoom": 2, "maxzoom": 8 }, "properties": { "halo": 1.6, "title": "拉塞塔尼人", "fontsize": 12, "tyid": "304001", "oid": "103:1576575192620", "color": "#0056E7" }, "geometry": { "type": "Point", "coordinates": [ 1.054688, 41.442726 ] } }
{"year": "BC523",  "type": "Feature", "tippecanoe": { "layer": "2AFCA67D41D01583918936721", "minzoom": 2, "maxzoom": 8 }, "properties": { "halo": 1.6, "title": "英迪格人", "fontsize": 12, "tyid": "304001", "oid": "103:1576575192616", "color": "#0056E7" }, "geometry": { "type": "Point", "coordinates": [ 2.285156, 42.163403 ] } }
{"year": "BC523",  "type": "Feature", "tippecanoe": { "layer": "2AFCA67D41D01583918936721", "minzoom": 2, "maxzoom": 8 }, "properties": { "halo": 1.8, "title": "马萨利亚", "fontsize": 12, "tyid": "304000", "oid": "103:1576575192520", "color": "#0056E7" }, "geometry": { "type": "Point", "coordinates": [ 5.449219, 43.325178 ] } }
{"year": "BC523",  "type": "Feature", "tippecanoe": { "layer": "2AFCA67D41D01583918936721", "minzoom": 2, "maxzoom": 8 }, "properties": { "halo": 1.8, "title": "帕莱波利斯", "fontsize": 12, "tyid": "304000", "oid": "103:1576575192522", "color": "#0056E7" }, "geometry": { "type": "Point", "coordinates": [ 3.076172, 42.163403 ] } }
{"year": "BC523",  "type": "Feature", "tippecanoe": { "layer": "2AFCA67D41D01583918936721", "minzoom": 2, "maxzoom": 8 }, "properties": { "halo": 1.6, "title": "格拉塞卡文化", "fontsize": 12, "tyid": "304001", "oid": "103:1576575192588", "color": "#0056E7" }, "geometry": { "type": "Point", "coordinates": [ 9.492188, 45.460131 ] } }
{"year": "BC523",  "type": "Feature", "tippecanoe": { "layer": "2AFCA67D41D01583918936721", "minzoom": 2, "maxzoom": 8 }, "properties": { "halo": 1.6, "title": "卡莫尼卡人", "fontsize": 12, "tyid": "304001", "oid": "103:1576575192198", "color": "#0056E7" }, "geometry": { "type": "Point", "coordinates": [ 10.283203, 46.012224 ] } }
{"year": "BC523",  "type": "Feature", "tippecanoe": { "layer": "2AFCA67D41D01583918936721", "minzoom": 2, "maxzoom": 8 }, "properties": { "halo": 1.8, "title": "摩诺伊科", "fontsize": 12, "tyid": "304000", "oid": "103:1576575192280", "color": "#0056E7" }, "geometry": { "type": "Point", "coordinates": [ 7.382812, 43.771094 ] } }
{"year": "BC523",  "type": "Feature", "tippecanoe": { "layer": "2AFCA67D41D01583918936721", "minzoom": 2, "maxzoom": 8 }, "properties": { "halo": 1.6, "title": "科西人", "fontsize": 12, "tyid": "304001", "oid": "103:1576575192655", "color": "#0056E7" }, "geometry": { "type": "Point", "coordinates": [ 9.228516, 41.112469 ] } }
{"year": "BC523",  "type": "Feature", "tippecanoe": { "layer": "2AFCA67D41D01583918936721", "minzoom": 2, "maxzoom": 8 }, "properties": { "halo": 1.8, "title": "罗马王政时代", "fontsize": 12, "tyid": "304000", "oid": "103:1576575192476", "color": "#0056E7" }, "geometry": { "type": "Point", "coordinates": [ 12.480469, 41.902277 ] } }
{"year": "BC523",  "type": "Feature", "tippecanoe": { "layer": "2AFCA67D41D01583918936721", "minzoom": 2, "maxzoom": 8 }, "properties": { "halo": 1.6, "title": "翁布里亚人", "fontsize": 12, "tyid": "304001", "oid": "103:1576575192263", "color": "#0056E7" }, "geometry": { "type": "Point", "coordinates": [ 12.832031, 42.811522 ] } }
{"year": "BC523",  "type": "Feature", "tippecanoe": { "layer": "2AFCA67D41D01583918936721", "minzoom": 2, "maxzoom": 8 }, "properties": { "halo": 1.6, "title": "萨宾人", "fontsize": 12, "tyid": "304001", "oid": "103:1576575192034", "color": "#0056E7" }, "geometry": { "type": "Point", "coordinates": [ 12.656250, 42.098222 ] } }
{"year": "BC523",  "type": "Feature", "tippecanoe": { "layer": "2AFCA67D41D01583918936721", "minzoom": 2, "maxzoom": 8 }, "properties": { "halo": 1.6, "title": "皮森特人", "fontsize": 12, "tyid": "304001", "oid": "103:1576575192191", "color": "#0056E7" }, "geometry": { "type": "Point", "coordinates": [ 13.535156, 43.004647 ] } }
{"year": "BC523",  "type": "Feature", "tippecanoe": { "layer": "2AFCA67D41D01583918936721", "minzoom": 2, "maxzoom": 8 }, "properties": { "halo": 1.6, "title": "拉丁人", "fontsize": 12, "tyid": "304001", "oid": "103:1576575192054", "color": "#0056E7" }, "geometry": { "type": "Point", "coordinates": [ 12.832031, 41.640078 ] } }
{"year": "BC523",  "type": "Feature", "tippecanoe": { "layer": "2AFCA67D41D01583918936721", "minzoom": 2, "maxzoom": 8 }, "properties": { "halo": 1.6, "title": "奥斯坎人", "fontsize": 12, "tyid": "304001", "oid": "103:1576575192258", "color": "#0056E7" }, "geometry": { "type": "Point", "coordinates": [ 13.447266, 41.442726 ] } }
{"year": "BC523",  "type": "Feature", "tippecanoe": { "layer": "2AFCA67D41D01583918936721", "minzoom": 2, "maxzoom": 8 }, "properties": { "halo": 1.6, "title": "道尼人", "fontsize": 12, "tyid": "304001", "oid": "103:1576575192378", "color": "#0056E7" }, "geometry": { "type": "Point", "coordinates": [ 15.292969, 41.705729 ] } }
{"year": "BC523",  "type": "Feature", "tippecanoe": { "layer": "2AFCA67D41D01583918936721", "minzoom": 2, "maxzoom": 8 }, "properties": { "halo": 1.6, "title": "佩乌克提伊人", "fontsize": 12, "tyid": "304001", "oid": "103:1576575192193", "color": "#0056E7" }, "geometry": { "type": "Point", "coordinates": [ 16.347656, 41.046217 ] } }
{"year": "BC523",  "type": "Feature", "tippecanoe": { "layer": "2AFCA67D41D01583918936721", "minzoom": 2, "maxzoom": 8 }, "properties": { "halo": 1.6, "title": "培奥尼亚人", "fontsize": 12, "tyid": "304001", "oid": "103:1576575192167", "color": "#0056E7" }, "geometry": { "type": "Point", "coordinates": [ 22.148438, 41.771312 ] } }
{"year": "BC523",  "type": "Feature", "tippecanoe": { "layer": "2AFCA67D41D01583918936721", "minzoom": 2, "maxzoom": 8 }, "properties": { "halo": 1.8, "title": "阿布德拉", "fontsize": 12, "tyid": "304000", "oid": "103:1576575192636", "color": "#0056E7" }, "geometry": { "type": "Point", "coordinates": [ 24.960938, 41.046217 ] } }
{"year": "BC523",  "type": "Feature", "tippecanoe": { "layer": "2AFCA67D41D01583918936721", "minzoom": 2, "maxzoom": 8 }, "properties": { "halo": 1.8, "title": "奥德索斯", "fontsize": 12, "tyid": "304000", "oid": "103:1576575192496", "color": "#0056E7" }, "geometry": { "type": "Point", "coordinates": [ 27.861328, 43.261206 ] } }
{"year": "BC523",  "type": "Feature", "tippecanoe": { "layer": "2AFCA67D41D01583918936721", "minzoom": 2, "maxzoom": 8 }, "properties": { "halo": 1.8, "title": "阿波罗尼亚·潘提卡", "fontsize": 12, "tyid": "304000", "oid": "103:1576575192452", "color": "#0056E7" }, "geometry": { "type": "Point", "coordinates": [ 27.685547, 42.423457 ] } }
{"year": "BC523",  "type": "Feature", "tippecanoe": { "layer": "2AFCA67D41D01583918936721", "minzoom": 2, "maxzoom": 8 }, "properties": { "halo": 1.8, "title": "提拉斯", "fontsize": 12, "tyid": "304000", "oid": "103:1576575192704", "color": "#0056E7" }, "geometry": { "type": "Point", "coordinates": [ 30.234375, 46.134170 ] } }
{"year": "BC523",  "type": "Feature", "tippecanoe": { "layer": "2AFCA67D41D01583918936721", "minzoom": 2, "maxzoom": 8 }, "properties": { "halo": 1.8, "title": "敖德萨", "fontsize": 12, "tyid": "304000", "oid": "103:1576575192548", "color": "#0056E7" }, "geometry": { "type": "Point", "coordinates": [ 30.585938, 46.498392 ] } }
{"year": "BC523",  "type": "Feature", "tippecanoe": { "layer": "2AFCA67D41D01583918936721", "minzoom": 2, "maxzoom": 8 }, "properties": { "halo": 1.6, "title": "奥里维亚", "fontsize": 12, "tyid": "304002", "oid": "103:1576575192213", "color": "#0056E7" }, "geometry": { "type": "Point", "coordinates": [ 31.816406, 46.679594 ] } }
{"year": "BC523",  "type": "Feature", "tippecanoe": { "layer": "2AFCA67D41D01583918936721", "minzoom": 2, "maxzoom": 8 }, "properties": { "halo": 1.8, "title": "希斯特里亚", "fontsize": 12, "tyid": "304000", "oid": "103:1576575192703", "color": "#0056E7" }, "geometry": { "type": "Point", "coordinates": [ 28.740234, 44.527843 ] } }
{"year": "BC523",  "type": "Feature", "tippecanoe": { "layer": "2AFCA67D41D01583918936721", "minzoom": 2, "maxzoom": 8 }, "properties": { "halo": 1.8, "title": "托米斯", "fontsize": 12, "tyid": "304000", "oid": "103:1576575192575", "color": "#0056E7" }, "geometry": { "type": "Point", "coordinates": [ 28.476562, 44.213710 ] } }
{"year": "BC523",  "type": "Feature", "tippecanoe": { "layer": "2AFCA67D41D01583918936721", "minzoom": 2, "maxzoom": 8 }, "properties": { "halo": 1.8, "title": "埃吉索斯", "fontsize": 12, "tyid": "304000", "oid": "103:1576575192221", "color": "#0056E7" }, "geometry": { "type": "Point", "coordinates": [ 29.355469, 45.026950 ] } }
{"year": "BC523",  "type": "Feature", "tippecanoe": { "layer": "2AFCA67D41D01583918936721", "minzoom": 2, "maxzoom": 8 }, "properties": { "halo": 1.8, "title": "卡拉提斯", "fontsize": 12, "tyid": "304000", "oid": "103:1576575192701", "color": "#0056E7" }, "geometry": { "type": "Point", "coordinates": [ 28.564453, 43.834527 ] } }
{"year": "BC523",  "type": "Feature", "tippecanoe": { "layer": "2AFCA67D41D01583918936721", "minzoom": 2, "maxzoom": 8 }, "properties": { "halo": 1.6, "title": "拜占庭", "fontsize": 12, "tyid": "304002", "oid": "103:1576575192435", "color": "#0056E7" }, "geometry": { "type": "Point", "coordinates": [ 28.828125, 41.112469 ] } }
{"year": "BC523",  "type": "Feature", "tippecanoe": { "layer": "2AFCA67D41D01583918936721", "minzoom": 2, "maxzoom": 8 }, "properties": { "halo": 1.8, "title": "克森尼索", "fontsize": 12, "tyid": "304000", "oid": "103:1576575192706", "color": "#0056E7" }, "geometry": { "type": "Point", "coordinates": [ 33.486328, 44.590467 ] } }
{"year": "BC523",  "type": "Feature", "tippecanoe": { "layer": "2AFCA67D41D01583918936721", "minzoom": 2, "maxzoom": 8 }, "properties": { "halo": 1.8, "title": "迈尔梅基翁", "fontsize": 12, "tyid": "304000", "oid": "103:1576575192067", "color": "#0056E7" }, "geometry": { "type": "Point", "coordinates": [ 36.298828, 45.398450 ] } }
{"year": "BC523",  "type": "Feature", "tippecanoe": { "layer": "2AFCA67D41D01583918936721", "minzoom": 2, "maxzoom": 8 }, "properties": { "halo": 1.8, "title": "潘提卡彭", "fontsize": 12, "tyid": "304000", "oid": "103:1576575192436", "color": "#0056E7" }, "geometry": { "type": "Point", "coordinates": [ 36.386719, 45.398450 ] } }
{"year": "BC523",  "type": "Feature", "tippecanoe": { "layer": "2AFCA67D41D01583918936721", "minzoom": 2, "maxzoom": 8 }, "properties": { "halo": 1.8, "title": "尼菲恩", "fontsize": 12, "tyid": "304000", "oid": "103:1576575192709", "color": "#0056E7" }, "geometry": { "type": "Point", "coordinates": [ 36.298828, 45.274886 ] } }
{"year": "BC523",  "type": "Feature", "tippecanoe": { "layer": "2AFCA67D41D01583918936721", "minzoom": 2, "maxzoom": 8 }, "properties": { "halo": 1.8, "title": "泰里塔克", "fontsize": 12, "tyid": "304000", "oid": "103:1576575192708", "color": "#0056E7" }, "geometry": { "type": "Point", "coordinates": [ 36.386719, 45.336702 ] } }
{"year": "BC523",  "type": "Feature", "tippecanoe": { "layer": "2AFCA67D41D01583918936721", "minzoom": 2, "maxzoom": 8 }, "properties": { "halo": 1.8, "title": "赫尔莫纳萨", "fontsize": 12, "tyid": "304000", "oid": "103:1576575192060", "color": "#0056E7" }, "geometry": { "type": "Point", "coordinates": [ 36.650391, 45.213004 ] } }
{"year": "BC523",  "type": "Feature", "tippecanoe": { "layer": "2AFCA67D41D01583918936721", "minzoom": 2, "maxzoom": 8 }, "properties": { "halo": 1.8, "title": "帕纳戈里亚", "fontsize": 12, "tyid": "304000", "oid": "103:1576575192278", "color": "#0056E7" }, "geometry": { "type": "Point", "coordinates": [ 36.914062, 45.336702 ] } }
{"year": "BC523",  "type": "Feature", "tippecanoe": { "layer": "2AFCA67D41D01583918936721", "minzoom": 2, "maxzoom": 8 }, "properties": { "halo": 1.8, "title": "克波伊", "fontsize": 12, "tyid": "304000", "oid": "103:1576575192474", "color": "#0056E7" }, "geometry": { "type": "Point", "coordinates": [ 37.001953, 45.336702 ] } }
{"year": "BC523",  "type": "Feature", "tippecanoe": { "layer": "2AFCA67D41D01583918936721", "minzoom": 2, "maxzoom": 8 }, "properties": { "halo": 1.6, "title": "杜林人", "fontsize": 12, "tyid": "304001", "oid": "103:1576575192455", "color": "#0056E7" }, "geometry": { "type": "Point", "coordinates": [ 34.453125, 44.964798 ] } }
{"year": "BC523",  "type": "Feature", "tippecanoe": { "layer": "2AFCA67D41D01583918936721", "minzoom": 2, "maxzoom": 8 }, "properties": { "halo": 1.8, "title": "西奥多西亚", "fontsize": 12, "tyid": "304000", "oid": "103:1576575192545", "color": "#0056E7" }, "geometry": { "type": "Point", "coordinates": [ 35.332031, 45.089036 ] } }
{"year": "BC523",  "type": "Feature", "tippecanoe": { "layer": "2AFCA67D41D01583918936721", "minzoom": 2, "maxzoom": 8 }, "properties": { "halo": 1.8, "title": "戈尔吉皮亚", "fontsize": 12, "tyid": "304000", "oid": "103:1576575192372", "color": "#0056E7" }, "geometry": { "type": "Point", "coordinates": [ 37.265625, 44.902578 ] } }
{"year": "BC523",  "type": "Feature", "tippecanoe": { "layer": "2AFCA67D41D01583918936721", "minzoom": 2, "maxzoom": 8 }, "properties": { "halo": 1.8, "title": "特里格莱特", "fontsize": 12, "tyid": "304000", "oid": "103:1576575192401", "color": "#0056E7" }, "geometry": { "type": "Point", "coordinates": [ 40.253906, 43.261206 ] } }
{"year": "BC523",  "type": "Feature", "tippecanoe": { "layer": "2AFCA67D41D01583918936721", "minzoom": 2, "maxzoom": 8 }, "properties": { "halo": 1.8, "title": "狄奥斯库里亚", "fontsize": 12, "tyid": "304000", "oid": "103:1576575192521", "color": "#0056E7" }, "geometry": { "type": "Point", "coordinates": [ 40.957031, 43.068888 ] } }
{"year": "BC523",  "type": "Feature", "tippecanoe": { "layer": "2AFCA67D41D01583918936721", "minzoom": 2, "maxzoom": 8 }, "properties": { "halo": 1.8, "title": "费西斯", "fontsize": 12, "tyid": "304000", "oid": "103:1576575192345", "color": "#0056E7" }, "geometry": { "type": "Point", "coordinates": [ 41.660156, 42.163403 ] } }
{"year": "BC523",  "type": "Feature", "tippecanoe": { "layer": "2AFCA67D41D01583918936721", "minzoom": 2, "maxzoom": 8 }, "properties": { "halo": 1.8, "title": "巴斯", "fontsize": 12, "tyid": "304000", "oid": "103:1576575192490", "color": "#0056E7" }, "geometry": { "type": "Point", "coordinates": [ 41.660156, 41.640078 ] } }
{"year": "BC523",  "type": "Feature", "tippecanoe": { "layer": "2AFCA67D41D01583918936721", "minzoom": 2, "maxzoom": 8 }, "properties": { "halo": 1.6, "title": "巴拉雷人", "fontsize": 12, "tyid": "304001", "oid": "103:1576575192346", "color": "#0056E7" }, "geometry": { "type": "Point", "coordinates": [ 9.052734, 40.580585 ] } }
{"year": "BC523",  "type": "Feature", "tippecanoe": { "layer": "2AFCA67D41D01583918936721", "minzoom": 2, "maxzoom": 8 }, "properties": { "halo": 1.6, "title": "西古里人", "fontsize": 12, "tyid": "304001", "oid": "103:1576575192394", "color": "#0056E7" }, "geometry": { "type": "Point", "coordinates": [ 14.501953, 37.509726 ] } }
{"year": "BC523",  "type": "Feature", "tippecanoe": { "layer": "2AFCA67D41D01583918936721", "minzoom": 2, "maxzoom": 8 }, "properties": { "halo": 1.6, "title": "梅萨皮伊人", "fontsize": 12, "tyid": "304001", "oid": "103:1576575192503", "color": "#0056E7" }, "geometry": { "type": "Point", "coordinates": [ 17.490234, 40.647304 ] } }
{"year": "BC523",  "type": "Feature", "tippecanoe": { "layer": "2AFCA67D41D01583918936721", "minzoom": 2, "maxzoom": 8 }, "properties": { "halo": 1.8, "title": "大希腊", "fontsize": 12, "tyid": "304000", "oid": "103:1576575192097", "color": "#0056E7" }, "geometry": { "type": "Point", "coordinates": [ 16.875000, 39.232253 ] } }
{"year": "BC523",  "type": "Feature", "tippecanoe": { "layer": "2AFCA67D41D01583918936721", "minzoom": 2, "maxzoom": 8 }, "properties": { "halo": 1.6, "title": "查乌内斯人", "fontsize": 12, "tyid": "304001", "oid": "103:1576575192151", "color": "#0056E7" }, "geometry": { "type": "Point", "coordinates": [ 20.126953, 40.713956 ] } }
{"year": "BC523",  "type": "Feature", "tippecanoe": { "layer": "2AFCA67D41D01583918936721", "minzoom": 2, "maxzoom": 8 }, "properties": { "halo": 1.6, "title": "莫洛西人", "fontsize": 12, "tyid": "304001", "oid": "103:1576575192046", "color": "#0056E7" }, "geometry": { "type": "Point", "coordinates": [ 20.478516, 39.977120 ] } }
{"year": "BC523",  "type": "Feature", "tippecanoe": { "layer": "2AFCA67D41D01583918936721", "minzoom": 2, "maxzoom": 8 }, "properties": { "halo": 1.6, "title": "塞斯普罗蒂人", "fontsize": 12, "tyid": "304001", "oid": "103:1576575192238", "color": "#0056E7" }, "geometry": { "type": "Point", "coordinates": [ 20.917969, 39.436193 ] } }
{"year": "BC523",  "type": "Feature", "tippecanoe": { "layer": "2AFCA67D41D01583918936721", "minzoom": 2, "maxzoom": 8 }, "properties": { "halo": 1.8, "title": "厄利斯", "fontsize": 12, "tyid": "304000", "oid": "103:1576575192538", "color": "#0056E7" }, "geometry": { "type": "Point", "coordinates": [ 21.269531, 37.857507 ] } }
{"year": "BC523",  "type": "Feature", "tippecanoe": { "layer": "2AFCA67D41D01583918936721", "minzoom": 2, "maxzoom": 8 }, "properties": { "halo": 1.6, "title": "阿凯亚人", "fontsize": 12, "tyid": "304001", "oid": "103:1576575192647", "color": "#0056E7" }, "geometry": { "type": "Point", "coordinates": [ 21.884766, 38.203655 ] } }
{"year": "BC523",  "type": "Feature", "tippecanoe": { "layer": "2AFCA67D41D01583918936721", "minzoom": 2, "maxzoom": 8 }, "properties": { "halo": 1.6, "title": "阿卡迪亚人", "fontsize": 12, "tyid": "304001", "oid": "103:1576575192387", "color": "#0056E7" }, "geometry": { "type": "Point", "coordinates": [ 21.972656, 37.718590 ] } }
{"year": "BC523",  "type": "Feature", "tippecanoe": { "layer": "2AFCA67D41D01583918936721", "minzoom": 2, "maxzoom": 8 }, "properties": { "halo": 1.8, "title": "特吉亚", "fontsize": 12, "tyid": "304000", "oid": "103:1576575192536", "color": "#0056E7" }, "geometry": { "type": "Point", "coordinates": [ 22.412109, 37.509726 ] } }
{"year": "BC523",  "type": "Feature", "tippecanoe": { "layer": "2AFCA67D41D01583918936721", "minzoom": 2, "maxzoom": 8 }, "properties": { "halo": 1.8, "title": "斯巴达", "fontsize": 12, "tyid": "304000", "oid": "103:1576575192275", "color": "#0056E7" }, "geometry": { "type": "Point", "coordinates": [ 22.324219, 37.020098 ] } }
{"year": "BC523",  "type": "Feature", "tippecanoe": { "layer": "2AFCA67D41D01583918936721", "minzoom": 2, "maxzoom": 8 }, "properties": { "halo": 1.8, "title": "昔兰尼", "fontsize": 12, "tyid": "304000", "oid": "103:1576575192633", "color": "#0056E7" }, "geometry": { "type": "Point", "coordinates": [ 21.533203, 32.546813 ] } }
{"year": "BC523",  "type": "Feature", "tippecanoe": { "layer": "2AFCA67D41D01583918936721", "minzoom": 2, "maxzoom": 8 }, "properties": { "halo": 1.8, "title": "斯塔吉乌斯", "fontsize": 12, "tyid": "304000", "oid": "103:1576575192517", "color": "#0056E7" }, "geometry": { "type": "Point", "coordinates": [ 23.642578, 40.647304 ] } }
{"year": "BC523",  "type": "Feature", "tippecanoe": { "layer": "2AFCA67D41D01583918936721", "minzoom": 2, "maxzoom": 8 }, "properties": { "halo": 1.8, "title": "奥林索斯", "fontsize": 12, "tyid": "304000", "oid": "103:1576575192550", "color": "#0056E7" }, "geometry": { "type": "Point", "coordinates": [ 23.291016, 40.313043 ] } }
{"year": "BC523",  "type": "Feature", "tippecanoe": { "layer": "2AFCA67D41D01583918936721", "minzoom": 2, "maxzoom": 8 }, "properties": { "halo": 1.8, "title": "波提狄亚", "fontsize": 12, "tyid": "304000", "oid": "103:1576575192323", "color": "#0056E7" }, "geometry": { "type": "Point", "coordinates": [ 23.291016, 40.245992 ] } }
{"year": "BC523",  "type": "Feature", "tippecanoe": { "layer": "2AFCA67D41D01583918936721", "minzoom": 2, "maxzoom": 8 }, "properties": { "halo": 1.8, "title": "安菲提斯", "fontsize": 12, "tyid": "304000", "oid": "103:1576575192424", "color": "#0056E7" }, "geometry": { "type": "Point", "coordinates": [ 23.378906, 40.111689 ] } }
{"year": "BC523",  "type": "Feature", "tippecanoe": { "layer": "2AFCA67D41D01583918936721", "minzoom": 2, "maxzoom": 8 }, "properties": { "halo": 1.8, "title": "蒙德", "fontsize": 12, "tyid": "304000", "oid": "103:1576575192283", "color": "#0056E7" }, "geometry": { "type": "Point", "coordinates": [ 23.378906, 40.044438 ] } }
{"year": "BC523",  "type": "Feature", "tippecanoe": { "layer": "2AFCA67D41D01583918936721", "minzoom": 2, "maxzoom": 8 }, "properties": { "halo": 1.8, "title": "阿卡索斯", "fontsize": 12, "tyid": "304000", "oid": "103:1576575192338", "color": "#0056E7" }, "geometry": { "type": "Point", "coordinates": [ 23.818359, 40.446947 ] } }
{"year": "BC523",  "type": "Feature", "tippecanoe": { "layer": "2AFCA67D41D01583918936721", "minzoom": 2, "maxzoom": 8 }, "properties": { "halo": 1.8, "title": "塞内", "fontsize": 12, "tyid": "304000", "oid": "103:1576575192019", "color": "#0056E7" }, "geometry": { "type": "Point", "coordinates": [ 23.906250, 40.380028 ] } }
{"year": "BC523",  "type": "Feature", "tippecanoe": { "layer": "2AFCA67D41D01583918936721", "minzoom": 2, "maxzoom": 8 }, "properties": { "halo": 1.8, "title": "托洛尼", "fontsize": 12, "tyid": "304000", "oid": "103:1576575192554", "color": "#0056E7" }, "geometry": { "type": "Point", "coordinates": [ 23.906250, 40.044438 ] } }
{"year": "BC523",  "type": "Feature", "tippecanoe": { "layer": "2AFCA67D41D01583918936721", "minzoom": 2, "maxzoom": 8 }, "properties": { "halo": 1.8, "title": "皮斯图鲁斯", "fontsize": 12, "tyid": "304000", "oid": "103:1576575192557", "color": "#0056E7" }, "geometry": { "type": "Point", "coordinates": [ 24.609375, 40.979898 ] } }
{"year": "BC523",  "type": "Feature", "tippecanoe": { "layer": "2AFCA67D41D01583918936721", "minzoom": 2, "maxzoom": 8 }, "properties": { "halo": 1.8, "title": "萨索斯", "fontsize": 12, "tyid": "304000", "oid": "103:1576575192027", "color": "#0056E7" }, "geometry": { "type": "Point", "coordinates": [ 24.609375, 40.713956 ] } }
{"year": "BC523",  "type": "Feature", "tippecanoe": { "layer": "2AFCA67D41D01583918936721", "minzoom": 2, "maxzoom": 8 }, "properties": { "halo": 1.8, "title": "利姆诺斯", "fontsize": 12, "tyid": "304000", "oid": "103:1576575192539", "color": "#0056E7" }, "geometry": { "type": "Point", "coordinates": [ 25.048828, 39.977120 ] } }
{"year": "BC523",  "type": "Feature", "tippecanoe": { "layer": "2AFCA67D41D01583918936721", "minzoom": 2, "maxzoom": 8 }, "properties": { "halo": 1.8, "title": "西锡安", "fontsize": 12, "tyid": "304000", "oid": "103:1576575192341", "color": "#0056E7" }, "geometry": { "type": "Point", "coordinates": [ 22.587891, 37.926868 ] } }
{"year": "BC523",  "type": "Feature", "tippecanoe": { "layer": "2AFCA67D41D01583918936721", "minzoom": 2, "maxzoom": 8 }, "properties": { "halo": 1.8, "title": "科林斯", "fontsize": 12, "tyid": "304000", "oid": "103:1576575192292", "color": "#0056E7" }, "geometry": { "type": "Point", "coordinates": [ 22.851562, 37.926868 ] } }
{"year": "BC523",  "type": "Feature", "tippecanoe": { "layer": "2AFCA67D41D01583918936721", "minzoom": 2, "maxzoom": 8 }, "properties": { "halo": 1.8, "title": "彼奥提亚同盟", "fontsize": 12, "tyid": "304000", "oid": "103:1576575192642", "color": "#0056E7" }, "geometry": { "type": "Point", "coordinates": [ 23.203125, 38.410558 ] } }
{"year": "BC523",  "type": "Feature", "tippecanoe": { "layer": "2AFCA67D41D01583918936721", "minzoom": 2, "maxzoom": 8 }, "properties": { "halo": 1.8, "title": "哈尔基斯", "fontsize": 12, "tyid": "304000", "oid": "103:1576575192640", "color": "#0056E7" }, "geometry": { "type": "Point", "coordinates": [ 23.642578, 38.479395 ] } }
{"year": "BC523",  "type": "Feature", "tippecanoe": { "layer": "2AFCA67D41D01583918936721", "minzoom": 2, "maxzoom": 8 }, "properties": { "halo": 1.8, "title": "埃雷特里亚", "fontsize": 12, "tyid": "304000", "oid": "103:1576575192461", "color": "#0056E7" }, "geometry": { "type": "Point", "coordinates": [ 23.818359, 38.479395 ] } }
{"year": "BC523",  "type": "Feature", "tippecanoe": { "layer": "2AFCA67D41D01583918936721", "minzoom": 2, "maxzoom": 8 }, "properties": { "halo": 1.8, "title": "墨伽勒", "fontsize": 12, "tyid": "304000", "oid": "103:1576575192543", "color": "#0056E7" }, "geometry": { "type": "Point", "coordinates": [ 23.291016, 38.134557 ] } }
{"year": "BC523",  "type": "Feature", "tippecanoe": { "layer": "2AFCA67D41D01583918936721", "minzoom": 2, "maxzoom": 8 }, "properties": { "halo": 1.8, "title": "雅典", "fontsize": 12, "tyid": "304000", "oid": "103:1576575192651", "color": "#0056E7" }, "geometry": { "type": "Point", "coordinates": [ 23.730469, 38.065392 ] } }
{"year": "BC523",  "type": "Feature", "tippecanoe": { "layer": "2AFCA67D41D01583918936721", "minzoom": 2, "maxzoom": 8 }, "properties": { "halo": 1.8, "title": "阿尔戈斯", "fontsize": 12, "tyid": "304000", "oid": "103:1576575192321", "color": "#0056E7" }, "geometry": { "type": "Point", "coordinates": [ 22.675781, 37.718590 ] } }
{"year": "BC523",  "type": "Feature", "tippecanoe": { "layer": "2AFCA67D41D01583918936721", "minzoom": 2, "maxzoom": 8 }, "properties": { "halo": 1.8, "title": "安德罗斯", "fontsize": 12, "tyid": "304000", "oid": "103:1576575192569", "color": "#0056E7" }, "geometry": { "type": "Point", "coordinates": [ 24.785156, 37.926868 ] } }
{"year": "BC523",  "type": "Feature", "tippecanoe": { "layer": "2AFCA67D41D01583918936721", "minzoom": 2, "maxzoom": 8 }, "properties": { "halo": 1.8, "title": "萨莫色雷斯", "fontsize": 12, "tyid": "304000", "oid": "103:1576575192026", "color": "#0056E7" }, "geometry": { "type": "Point", "coordinates": [ 25.576172, 40.513799 ] } }
{"year": "BC523",  "type": "Feature", "tippecanoe": { "layer": "2AFCA67D41D01583918936721", "minzoom": 2, "maxzoom": 8 }, "properties": { "halo": 1.6, "title": "伊奥尼亚人", "fontsize": 12, "tyid": "304001", "oid": "103:1576575192638", "color": "#0056E7" }, "geometry": { "type": "Point", "coordinates": [ 25.664062, 40.913513 ] } }
{"year": "BC523",  "type": "Feature", "tippecanoe": { "layer": "2AFCA67D41D01583918936721", "minzoom": 2, "maxzoom": 8 }, "properties": { "halo": 1.8, "title": "阿尼诺斯", "fontsize": 12, "tyid": "304000", "oid": "103:1576575192634", "color": "#0056E7" }, "geometry": { "type": "Point", "coordinates": [ 26.191406, 40.713956 ] } }
{"year": "BC523",  "type": "Feature", "tippecanoe": { "layer": "2AFCA67D41D01583918936721", "minzoom": 2, "maxzoom": 8 }, "properties": { "halo": 1.8, "title": "阿罗珀克尼萨斯", "fontsize": 12, "tyid": "304000", "oid": "103:1576575192319", "color": "#0056E7" }, "geometry": { "type": "Point", "coordinates": [ 26.279297, 40.313043 ] } }
{"year": "BC523",  "type": "Feature", "tippecanoe": { "layer": "2AFCA67D41D01583918936721", "minzoom": 2, "maxzoom": 8 }, "properties": { "halo": 1.8, "title": "塞斯托斯", "fontsize": 12, "tyid": "304000", "oid": "103:1576575192052", "color": "#0056E7" }, "geometry": { "type": "Point", "coordinates": [ 26.279297, 40.245992 ] } }
{"year": "BC523",  "type": "Feature", "tippecanoe": { "layer": "2AFCA67D41D01583918936721", "minzoom": 2, "maxzoom": 8 }, "properties": { "halo": 1.8, "title": "马第都斯", "fontsize": 12, "tyid": "304000", "oid": "103:1576575192352", "color": "#0056E7" }, "geometry": { "type": "Point", "coordinates": [ 26.279297, 40.245992 ] } }
{"year": "BC523",  "type": "Feature", "tippecanoe": { "layer": "2AFCA67D41D01583918936721", "minzoom": 2, "maxzoom": 8 }, "properties": { "halo": 1.8, "title": "爱鲁乌斯", "fontsize": 12, "tyid": "304000", "oid": "103:1576575192256", "color": "#0056E7" }, "geometry": { "type": "Point", "coordinates": [ 26.191406, 40.111689 ] } }
{"year": "BC523",  "type": "Feature", "tippecanoe": { "layer": "2AFCA67D41D01583918936721", "minzoom": 2, "maxzoom": 8 }, "properties": { "halo": 1.8, "title": "克里萨", "fontsize": 12, "tyid": "304000", "oid": "103:1576575192559", "color": "#0056E7" }, "geometry": { "type": "Point", "coordinates": [ 26.542969, 40.446947 ] } }
{"year": "BC523",  "type": "Feature", "tippecanoe": { "layer": "2AFCA67D41D01583918936721", "minzoom": 2, "maxzoom": 8 }, "properties": { "halo": 1.8, "title": "伊哥斯波塔米", "fontsize": 12, "tyid": "304000", "oid": "103:1576575192581", "color": "#0056E7" }, "geometry": { "type": "Point", "coordinates": [ 26.542969, 40.380028 ] } }
{"year": "BC523",  "type": "Feature", "tippecanoe": { "layer": "2AFCA67D41D01583918936721", "minzoom": 2, "maxzoom": 8 }, "properties": { "halo": 1.8, "title": "加里波利斯", "fontsize": 12, "tyid": "304000", "oid": "103:1576575192353", "color": "#0056E7" }, "geometry": { "type": "Point", "coordinates": [ 26.630859, 40.446947 ] } }
{"year": "BC523",  "type": "Feature", "tippecanoe": { "layer": "2AFCA67D41D01583918936721", "minzoom": 2, "maxzoom": 8 }, "properties": { "halo": 1.8, "title": "克瑞沃德", "fontsize": 12, "tyid": "304000", "oid": "103:1576575192340", "color": "#0056E7" }, "geometry": { "type": "Point", "coordinates": [ 26.630859, 40.446947 ] } }
{"year": "BC523",  "type": "Feature", "tippecanoe": { "layer": "2AFCA67D41D01583918936721", "minzoom": 2, "maxzoom": 8 }, "properties": { "halo": 1.8, "title": "卡尔迪亚", "fontsize": 12, "tyid": "304000", "oid": "103:1576575192369", "color": "#0056E7" }, "geometry": { "type": "Point", "coordinates": [ 26.718750, 40.580585 ] } }
{"year": "BC523",  "type": "Feature", "tippecanoe": { "layer": "2AFCA67D41D01583918936721", "minzoom": 2, "maxzoom": 8 }, "properties": { "halo": 1.8, "title": "帕克杜耶", "fontsize": 12, "tyid": "304000", "oid": "103:1576575192053", "color": "#0056E7" }, "geometry": { "type": "Point", "coordinates": [ 26.806641, 40.513799 ] } }
{"year": "BC523",  "type": "Feature", "tippecanoe": { "layer": "2AFCA67D41D01583918936721", "minzoom": 2, "maxzoom": 8 }, "properties": { "halo": 1.6, "title": "多利安人", "fontsize": 12, "tyid": "304001", "oid": "103:1576575192648", "color": "#0056E7" }, "geometry": { "type": "Point", "coordinates": [ 24.785156, 35.245619 ] } }
{"year": "BC523",  "type": "Feature", "tippecanoe": { "layer": "2AFCA67D41D01583918936721", "minzoom": 2, "maxzoom": 8 }, "properties": { "halo": 1.8, "title": "亚扪王国", "fontsize": 12, "tyid": "304000", "oid": "103:1576575192594", "color": "#0056E7" }, "geometry": { "type": "Point", "coordinates": [ 36.123047, 32.175612 ] } }
{"year": "BC523",  "type": "Feature", "tippecanoe": { "layer": "2AFCA67D41D01583918936721", "minzoom": 2, "maxzoom": 8 }, "properties": { "halo": 1.8, "title": "摩押王国", "fontsize": 12, "tyid": "304000", "oid": "103:1576575192593", "color": "#0056E7" }, "geometry": { "type": "Point", "coordinates": [ 35.859375, 31.353637 ] } }
{"year": "BC523",  "type": "Feature", "tippecanoe": { "layer": "2AFCA67D41D01583918936721", "minzoom": 2, "maxzoom": 8 }, "properties": { "halo": 1.8, "title": "以东王国", "fontsize": 12, "tyid": "304000", "oid": "103:1576575192058", "color": "#0056E7" }, "geometry": { "type": "Point", "coordinates": [ 35.244141, 30.448674 ] } }
{"year": "BC523",  "type": "Feature", "tippecanoe": { "layer": "2AFCA67D41D01583918936721", "minzoom": 2, "maxzoom": 8 }, "properties": { "halo": 1.6, "title": "察吾呼文化", "fontsize": 12, "tyid": "304002", "oid": "103:1576575192347", "color": "#0056E7" }, "geometry": { "type": "Point", "coordinates": [ 86.396484, 42.228517 ] } }
{"year": "BC523",  "type": "Feature", "tippecanoe": { "layer": "2AFCA67D41D01583918936721", "minzoom": 2, "maxzoom": 8 }, "properties": { "halo": 1.6, "title": "流水墓地文化", "fontsize": 12, "tyid": "304002", "oid": "103:1576575192578", "color": "#0056E7" }, "geometry": { "type": "Point", "coordinates": [ 81.562500, 36.456636 ] } }
{"year": "BC523",  "type": "Feature", "tippecanoe": { "layer": "2AFCA67D41D01583918936721", "minzoom": 2, "maxzoom": 8 }, "properties": { "halo": 1.8, "title": "且末国", "fontsize": 12, "tyid": "304000", "oid": "103:1576575192265", "color": "#0056E7" }, "geometry": { "type": "Point", "coordinates": [ 85.605469, 38.203655 ] } }
{"year": "BC523",  "type": "Feature", "tippecanoe": { "layer": "2AFCA67D41D01583918936721", "minzoom": 2, "maxzoom": 8 }, "properties": { "halo": 1.8, "title": "释迦国", "fontsize": 12, "tyid": "304000", "oid": "103:1576575192357", "color": "#0056E7" }, "geometry": { "type": "Point", "coordinates": [ 83.496094, 27.605671 ] } }
{"year": "BC523",  "type": "Feature", "tippecanoe": { "layer": "2AFCA67D41D01583918936721", "minzoom": 2, "maxzoom": 8 }, "properties": { "halo": 1.8, "title": "跋蹉国", "fontsize": 12, "tyid": "304000", "oid": "103:1576575192420", "color": "#0056E7" }, "geometry": { "type": "Point", "coordinates": [ 80.859375, 26.115986 ] } }
{"year": "BC523",  "type": "Feature", "tippecanoe": { "layer": "2AFCA67D41D01583918936721", "minzoom": 2, "maxzoom": 8 }, "properties": { "halo": 1.8, "title": "蓝摩国", "fontsize": 12, "tyid": "304000", "oid": "103:1576575192416", "color": "#0056E7" }, "geometry": { "type": "Point", "coordinates": [ 84.375000, 27.605671 ] } }
{"year": "BC523",  "type": "Feature", "tippecanoe": { "layer": "2AFCA67D41D01583918936721", "minzoom": 2, "maxzoom": 8 }, "properties": { "halo": 1.6, "title": "焉不拉克文化", "fontsize": 12, "tyid": "304002", "oid": "103:1576575192572", "color": "#0056E7" }, "geometry": { "type": "Point", "coordinates": [ 93.779297, 42.875964 ] } }
{"year": "BC523",  "type": "Feature", "tippecanoe": { "layer": "2AFCA67D41D01583918936721", "minzoom": 2, "maxzoom": 8 }, "properties": { "halo": 1.6, "title": "西团山文化", "fontsize": 12, "tyid": "304002", "oid": "103:1576575192412", "color": "#0056E7" }, "geometry": { "type": "Point", "coordinates": [ 126.826172, 43.452919 ] } }
{"year": "BC523",  "type": "Feature", "tippecanoe": { "layer": "2AFCA67D41D01583918936721", "minzoom": 2, "maxzoom": 8 }, "properties": { "halo": 1.8, "title": "狄戎", "fontsize": 12, "tyid": "304000", "oid": "103:1576575192310", "color": "#0056E7" }, "geometry": { "type": "Point", "coordinates": [ 103.271484, 35.317366 ] } }
{"year": "BC523",  "type": "Feature", "tippecanoe": { "layer": "2AFCA67D41D01583918936721", "minzoom": 2, "maxzoom": 8 }, "properties": { "halo": 1.8, "title": "豲戎", "fontsize": 12, "tyid": "304000", "oid": "103:1576575192473", "color": "#0056E7" }, "geometry": { "type": "Point", "coordinates": [ 104.501953, 34.741612 ] } }
{"year": "BC523",  "type": "Feature", "tippecanoe": { "layer": "2AFCA67D41D01583918936721", "minzoom": 2, "maxzoom": 8 }, "properties": { "halo": 1.8, "title": "绵诸", "fontsize": 12, "tyid": "304000", "oid": "103:1576575192364", "color": "#0056E7" }, "geometry": { "type": "Point", "coordinates": [ 105.468750, 35.101934 ] } }
{"year": "BC523",  "type": "Feature", "tippecanoe": { "layer": "2AFCA67D41D01583918936721", "minzoom": 2, "maxzoom": 8 }, "properties": { "halo": 1.8, "title": "昔阝", "fontsize": 12, "tyid": "304000", "oid": "103:1576575192585", "color": "#0056E7" }, "geometry": { "type": "Point", "coordinates": [ 106.347656, 32.472695 ] } }
{"year": "BC523",  "type": "Feature", "tippecanoe": { "layer": "2AFCA67D41D01583918936721", "minzoom": 2, "maxzoom": 8 }, "properties": { "halo": 1.8, "title": "大荔", "fontsize": 12, "tyid": "304000", "oid": "103:1576575192101", "color": "#0056E7" }, "geometry": { "type": "Point", "coordinates": [ 110.126953, 34.813803 ] } }
{"year": "BC523",  "type": "Feature", "tippecanoe": { "layer": "2AFCA67D41D01583918936721", "minzoom": 2, "maxzoom": 8 }, "properties": { "halo": 1.8, "title": "毛", "fontsize": 12, "tyid": "304000", "oid": "103:1576575192285", "color": "#0056E7" }, "geometry": { "type": "Point", "coordinates": [ 111.972656, 34.524661 ] } }
{"year": "BC523",  "type": "Feature", "tippecanoe": { "layer": "2AFCA67D41D01583918936721", "minzoom": 2, "maxzoom": 8 }, "properties": { "halo": 1.8, "title": "尹", "fontsize": 12, "tyid": "304000", "oid": "103:1576575192598", "color": "#0056E7" }, "geometry": { "type": "Point", "coordinates": [ 112.148438, 34.741612 ] } }
{"year": "BC523",  "type": "Feature", "tippecanoe": { "layer": "2AFCA67D41D01583918936721", "minzoom": 2, "maxzoom": 8 }, "properties": { "halo": 1.8, "title": "单", "fontsize": 12, "tyid": "304000", "oid": "103:1576575192600", "color": "#0056E7" }, "geometry": { "type": "Point", "coordinates": [ 112.412109, 34.885931 ] } }
{"year": "BC523",  "type": "Feature", "tippecanoe": { "layer": "2AFCA67D41D01583918936721", "minzoom": 2, "maxzoom": 8 }, "properties": { "halo": 1.8, "title": "东周", "fontsize": 12, "tyid": "304000", "oid": "103:1576575192309", "color": "#0056E7" }, "geometry": { "type": "Point", "coordinates": [ 112.412109, 34.741612 ] } }
{"year": "BC523",  "type": "Feature", "tippecanoe": { "layer": "2AFCA67D41D01583918936721", "minzoom": 2, "maxzoom": 8 }, "properties": { "halo": 1.8, "title": "伊洛戎", "fontsize": 12, "tyid": "304000", "oid": "103:1576575192187", "color": "#0056E7" }, "geometry": { "type": "Point", "coordinates": [ 111.445312, 34.161818 ] } }
{"year": "BC523",  "type": "Feature", "tippecanoe": { "layer": "2AFCA67D41D01583918936721", "minzoom": 2, "maxzoom": 8 }, "properties": { "halo": 1.8, "title": "冉駹羌", "fontsize": 12, "tyid": "304000", "oid": "103:1576575192470", "color": "#0056E7" }, "geometry": { "type": "Point", "coordinates": [ 103.623047, 31.503629 ] } }
{"year": "BC523",  "type": "Feature", "tippecanoe": { "layer": "2AFCA67D41D01583918936721", "minzoom": 2, "maxzoom": 8 }, "properties": { "halo": 1.8, "title": "平周", "fontsize": 12, "tyid": "304000", "oid": "103:1576575192363", "color": "#0056E7" }, "geometry": { "type": "Point", "coordinates": [ 105.996094, 31.952162 ] } }
{"year": "BC523",  "type": "Feature", "tippecanoe": { "layer": "2AFCA67D41D01583918936721", "minzoom": 2, "maxzoom": 8 }, "properties": { "halo": 1.8, "title": "充", "fontsize": 12, "tyid": "304000", "oid": "103:1576575192313", "color": "#0056E7" }, "geometry": { "type": "Point", "coordinates": [ 105.996094, 31.128199 ] } }
{"year": "BC523",  "type": "Feature", "tippecanoe": { "layer": "2AFCA67D41D01583918936721", "minzoom": 2, "maxzoom": 8 }, "properties": { "halo": 1.6, "title": "东山文化", "fontsize": 12, "tyid": "304002", "oid": "103:1576575192510", "color": "#0056E7" }, "geometry": { "type": "Point", "coordinates": [ 105.292969, 21.698265 ] } }
{"year": "BC523",  "type": "Feature", "tippecanoe": { "layer": "2AFCA67D41D01583918936721", "minzoom": 2, "maxzoom": 8 }, "properties": { "halo": 1.8, "title": "代国", "fontsize": 12, "tyid": "304000", "oid": "103:1576575192100", "color": "#0056E7" }, "geometry": { "type": "Point", "coordinates": [ 114.785156, 40.044438 ] } }
{"year": "BC523",  "type": "Feature", "tippecanoe": { "layer": "2AFCA67D41D01583918936721", "minzoom": 2, "maxzoom": 8 }, "properties": { "halo": 1.6, "title": "仇由", "fontsize": 12, "tyid": "304001", "oid": "103:1576575192437", "color": "#0056E7" }, "geometry": { "type": "Point", "coordinates": [ 113.554688, 38.134557 ] } }
{"year": "BC523",  "type": "Feature", "tippecanoe": { "layer": "2AFCA67D41D01583918936721", "minzoom": 2, "maxzoom": 8 }, "properties": { "halo": 1.8, "title": "鼓", "fontsize": 12, "tyid": "304000", "oid": "103:1576575192535", "color": "#0056E7" }, "geometry": { "type": "Point", "coordinates": [ 115.400391, 37.996163 ] } }
{"year": "BC523",  "type": "Feature", "tippecanoe": { "layer": "2AFCA67D41D01583918936721", "minzoom": 2, "maxzoom": 8 }, "properties": { "halo": 1.8, "title": "刘", "fontsize": 12, "tyid": "304000", "oid": "103:1576575192596", "color": "#0056E7" }, "geometry": { "type": "Point", "coordinates": [ 112.675781, 34.597042 ] } }
{"year": "BC523",  "type": "Feature", "tippecanoe": { "layer": "2AFCA67D41D01583918936721", "minzoom": 2, "maxzoom": 8 }, "properties": { "halo": 1.8, "title": "巩", "fontsize": 12, "tyid": "304000", "oid": "103:1576575192540", "color": "#0056E7" }, "geometry": { "type": "Point", "coordinates": [ 113.027344, 34.741612 ] } }
{"year": "BC523",  "type": "Feature", "tippecanoe": { "layer": "2AFCA67D41D01583918936721", "minzoom": 2, "maxzoom": 8 }, "properties": { "halo": 1.8, "title": "卫", "fontsize": 12, "tyid": "304000", "oid": "103:1576575192004", "color": "#0056E7" }, "geometry": { "type": "Point", "coordinates": [ 114.960938, 35.817813 ] } }
{"year": "BC523",  "type": "Feature", "tippecanoe": { "layer": "2AFCA67D41D01583918936721", "minzoom": 2, "maxzoom": 8 }, "properties": { "halo": 1.8, "title": "甘", "fontsize": 12, "tyid": "304000", "oid": "103:1576575192570", "color": "#0056E7" }, "geometry": { "type": "Point", "coordinates": [ 113.994141, 35.101934 ] } }
{"year": "BC523",  "type": "Feature", "tippecanoe": { "layer": "2AFCA67D41D01583918936721", "minzoom": 2, "maxzoom": 8 }, "properties": { "halo": 1.8, "title": "南燕[春秋]", "fontsize": 12, "tyid": "304000", "oid": "103:1576575192451", "color": "#0056E7" }, "geometry": { "type": "Point", "coordinates": [ 114.257812, 35.317366 ] } }
{"year": "BC523",  "type": "Feature", "tippecanoe": { "layer": "2AFCA67D41D01583918936721", "minzoom": 2, "maxzoom": 8 }, "properties": { "halo": 1.8, "title": "戎蛮子国", "fontsize": 12, "tyid": "304000", "oid": "103:1576575192037", "color": "#0056E7" }, "geometry": { "type": "Point", "coordinates": [ 112.763672, 34.161818 ] } }
{"year": "BC523",  "type": "Feature", "tippecanoe": { "layer": "2AFCA67D41D01583918936721", "minzoom": 2, "maxzoom": 8 }, "properties": { "halo": 1.8, "title": "许", "fontsize": 12, "tyid": "304000", "oid": "103:1576575192599", "color": "#0056E7" }, "geometry": { "type": "Point", "coordinates": [ 112.675781, 33.797409 ] } }
{"year": "BC523",  "type": "Feature", "tippecanoe": { "layer": "2AFCA67D41D01583918936721", "minzoom": 2, "maxzoom": 8 }, "properties": { "halo": 1.8, "title": "唐[春秋]", "fontsize": 12, "tyid": "304000", "oid": "103:1576575192456", "color": "#0056E7" }, "geometry": { "type": "Point", "coordinates": [ 112.851562, 32.398516 ] } }
{"year": "BC523",  "type": "Feature", "tippecanoe": { "layer": "2AFCA67D41D01583918936721", "minzoom": 2, "maxzoom": 8 }, "properties": { "halo": 1.8, "title": "陈", "fontsize": 12, "tyid": "304000", "oid": "103:1576575192226", "color": "#0056E7" }, "geometry": { "type": "Point", "coordinates": [ 115.136719, 33.797409 ] } }
{"year": "BC523",  "type": "Feature", "tippecanoe": { "layer": "2AFCA67D41D01583918936721", "minzoom": 2, "maxzoom": 8 }, "properties": { "halo": 1.8, "title": "顿", "fontsize": 12, "tyid": "304000", "oid": "103:1576575192571", "color": "#0056E7" }, "geometry": { "type": "Point", "coordinates": [ 114.697266, 33.358062 ] } }
{"year": "BC523",  "type": "Feature", "tippecanoe": { "layer": "2AFCA67D41D01583918936721", "minzoom": 2, "maxzoom": 8 }, "properties": { "halo": 1.8, "title": "沈", "fontsize": 12, "tyid": "304000", "oid": "103:1576575192314", "color": "#0056E7" }, "geometry": { "type": "Point", "coordinates": [ 115.224609, 33.211116 ] } }
{"year": "BC523",  "type": "Feature", "tippecanoe": { "layer": "2AFCA67D41D01583918936721", "minzoom": 2, "maxzoom": 8 }, "properties": { "halo": 1.8, "title": "蔡", "fontsize": 12, "tyid": "304000", "oid": "103:1576575192384", "color": "#0056E7" }, "geometry": { "type": "Point", "coordinates": [ 114.521484, 32.990236 ] } }
{"year": "BC523",  "type": "Feature", "tippecanoe": { "layer": "2AFCA67D41D01583918936721", "minzoom": 2, "maxzoom": 8 }, "properties": { "halo": 1.8, "title": "戎国", "fontsize": 12, "tyid": "304000", "oid": "103:1576575192592", "color": "#0056E7" }, "geometry": { "type": "Point", "coordinates": [ 115.312500, 34.957995 ] } }
{"year": "BC523",  "type": "Feature", "tippecanoe": { "layer": "2AFCA67D41D01583918936721", "minzoom": 2, "maxzoom": 8 }, "properties": { "halo": 1.8, "title": "曹", "fontsize": 12, "tyid": "304000", "oid": "103:1576575192208", "color": "#0056E7" }, "geometry": { "type": "Point", "coordinates": [ 115.488281, 35.173808 ] } }
{"year": "BC523",  "type": "Feature", "tippecanoe": { "layer": "2AFCA67D41D01583918936721", "minzoom": 2, "maxzoom": 8 }, "properties": { "halo": 1.8, "title": "茅", "fontsize": 12, "tyid": "304000", "oid": "103:1576575192563", "color": "#0056E7" }, "geometry": { "type": "Point", "coordinates": [ 115.927734, 35.173808 ] } }
{"year": "BC523",  "type": "Feature", "tippecanoe": { "layer": "2AFCA67D41D01583918936721", "minzoom": 2, "maxzoom": 8 }, "properties": { "halo": 1.8, "title": "任", "fontsize": 12, "tyid": "304000", "oid": "103:1576575192039", "color": "#0056E7" }, "geometry": { "type": "Point", "coordinates": [ 116.630859, 35.389050 ] } }
{"year": "BC523",  "type": "Feature", "tippecanoe": { "layer": "2AFCA67D41D01583918936721", "minzoom": 2, "maxzoom": 8 }, "properties": { "halo": 1.8, "title": "牟", "fontsize": 12, "tyid": "304000", "oid": "103:1576575192172", "color": "#0056E7" }, "geometry": { "type": "Point", "coordinates": [ 117.773438, 36.244273 ] } }
{"year": "BC523",  "type": "Feature", "tippecanoe": { "layer": "2AFCA67D41D01583918936721", "minzoom": 2, "maxzoom": 8 }, "properties": { "halo": 1.8, "title": "颛臾", "fontsize": 12, "tyid": "304000", "oid": "103:1576575192574", "color": "#0056E7" }, "geometry": { "type": "Point", "coordinates": [ 117.685547, 35.532226 ] } }
{"year": "BC523",  "type": "Feature", "tippecanoe": { "layer": "2AFCA67D41D01583918936721", "minzoom": 2, "maxzoom": 8 }, "properties": { "halo": 1.8, "title": "滕", "fontsize": 12, "tyid": "304000", "oid": "103:1576575192440", "color": "#0056E7" }, "geometry": { "type": "Point", "coordinates": [ 116.982422, 35.101934 ] } }
{"year": "BC523",  "type": "Feature", "tippecanoe": { "layer": "2AFCA67D41D01583918936721", "minzoom": 2, "maxzoom": 8 }, "properties": { "halo": 1.8, "title": "邾", "fontsize": 12, "tyid": "304000", "oid": "103:1576575192262", "color": "#0056E7" }, "geometry": { "type": "Point", "coordinates": [ 117.158203, 35.245619 ] } }
{"year": "BC523",  "type": "Feature", "tippecanoe": { "layer": "2AFCA67D41D01583918936721", "minzoom": 2, "maxzoom": 8 }, "properties": { "halo": 1.8, "title": "滥", "fontsize": 12, "tyid": "304000", "oid": "103:1576575192439", "color": "#0056E7" }, "geometry": { "type": "Point", "coordinates": [ 117.246094, 35.029996 ] } }
{"year": "BC523",  "type": "Feature", "tippecanoe": { "layer": "2AFCA67D41D01583918936721", "minzoom": 2, "maxzoom": 8 }, "properties": { "halo": 1.8, "title": "薛", "fontsize": 12, "tyid": "304000", "oid": "103:1576575192411", "color": "#0056E7" }, "geometry": { "type": "Point", "coordinates": [ 117.246094, 34.813803 ] } }
{"year": "BC523",  "type": "Feature", "tippecanoe": { "layer": "2AFCA67D41D01583918936721", "minzoom": 2, "maxzoom": 8 }, "properties": { "halo": 1.8, "title": "小邾", "fontsize": 12, "tyid": "304000", "oid": "103:1576575192350", "color": "#0056E7" }, "geometry": { "type": "Point", "coordinates": [ 117.421875, 35.173808 ] } }
{"year": "BC523",  "type": "Feature", "tippecanoe": { "layer": "2AFCA67D41D01583918936721", "minzoom": 2, "maxzoom": 8 }, "properties": { "halo": 1.8, "title": "费", "fontsize": 12, "tyid": "304000", "oid": "103:1576575192595", "color": "#0056E7" }, "geometry": { "type": "Point", "coordinates": [ 117.949219, 35.389050 ] } }
{"year": "BC523",  "type": "Feature", "tippecanoe": { "layer": "2AFCA67D41D01583918936721", "minzoom": 2, "maxzoom": 8 }, "properties": { "halo": 1.8, "title": "胡[归姓]", "fontsize": 12, "tyid": "304000", "oid": "103:1576575192245", "color": "#0056E7" }, "geometry": { "type": "Point", "coordinates": [ 115.839844, 32.916485 ] } }
{"year": "BC523",  "type": "Feature", "tippecanoe": { "layer": "2AFCA67D41D01583918936721", "minzoom": 2, "maxzoom": 8 }, "properties": { "halo": 1.8, "title": "潘", "fontsize": 12, "tyid": "304000", "oid": "103:1576575192043", "color": "#0056E7" }, "geometry": { "type": "Point", "coordinates": [ 115.751953, 32.324276 ] } }
{"year": "BC523",  "type": "Feature", "tippecanoe": { "layer": "2AFCA67D41D01583918936721", "minzoom": 2, "maxzoom": 8 }, "properties": { "halo": 1.8, "title": "邳", "fontsize": 12, "tyid": "304000", "oid": "103:1576575192243", "color": "#0056E7" }, "geometry": { "type": "Point", "coordinates": [ 117.861328, 34.234512 ] } }
{"year": "BC523",  "type": "Feature", "tippecanoe": { "layer": "2AFCA67D41D01583918936721", "minzoom": 2, "maxzoom": 8 }, "properties": { "halo": 1.8, "title": "钟离", "fontsize": 12, "tyid": "304000", "oid": "103:1576575192528", "color": "#0056E7" }, "geometry": { "type": "Point", "coordinates": [ 117.773438, 33.063924 ] } }
{"year": "BC523",  "type": "Feature", "tippecanoe": { "layer": "2AFCA67D41D01583918936721", "minzoom": 2, "maxzoom": 8 }, "properties": { "halo": 1.6, "title": "屠何", "fontsize": 12, "tyid": "304001", "oid": "103:1576575192356", "color": "#0056E7" }, "geometry": { "type": "Point", "coordinates": [ 120.322266, 40.847060 ] } }
{"year": "BC523",  "type": "Feature", "tippecanoe": { "layer": "2AFCA67D41D01583918936721", "minzoom": 2, "maxzoom": 8 }, "properties": { "halo": 1.8, "title": "杞", "fontsize": 12, "tyid": "304000", "oid": "103:1576575192551", "color": "#0056E7" }, "geometry": { "type": "Point", "coordinates": [ 119.003906, 36.385913 ] } }
{"year": "BC523",  "type": "Feature", "tippecanoe": { "layer": "2AFCA67D41D01583918936721", "minzoom": 2, "maxzoom": 8 }, "properties": { "halo": 1.8, "title": "莒", "fontsize": 12, "tyid": "304000", "oid": "103:1576575192481", "color": "#0056E7" }, "geometry": { "type": "Point", "coordinates": [ 119.355469, 35.675147 ] } }
{"year": "BC523",  "type": "Feature", "tippecanoe": { "layer": "2AFCA67D41D01583918936721", "minzoom": 2, "maxzoom": 8 }, "properties": { "halo": 1.8, "title": "鄅", "fontsize": 12, "tyid": "304000", "oid": "103:1576575192567", "color": "#0056E7" }, "geometry": { "type": "Point", "coordinates": [ 118.300781, 35.245619 ] } }
{"year": "BC523",  "type": "Feature", "tippecanoe": { "layer": "2AFCA67D41D01583918936721", "minzoom": 2, "maxzoom": 8 }, "properties": { "halo": 1.8, "title": "郯", "fontsize": 12, "tyid": "304000", "oid": "103:1576575192234", "color": "#0056E7" }, "geometry": { "type": "Point", "coordinates": [ 118.212891, 34.597042 ] } }
{"year": "BC523",  "type": "Feature", "tippecanoe": { "layer": "2AFCA67D41D01583918936721", "minzoom": 2, "maxzoom": 8 }, "properties": { "halo": 1.8, "title": "钟吾", "fontsize": 12, "tyid": "304000", "oid": "103:1576575192180", "color": "#0056E7" }, "geometry": { "type": "Point", "coordinates": [ 118.388672, 34.089061 ] } }
{"year": "BC523",  "type": "Feature", "tippecanoe": { "layer": "2AFCA67D41D01583918936721", "minzoom": 2, "maxzoom": 8 }, "properties": { "halo": 1.8, "title": "徐", "fontsize": 12, "tyid": "304000", "oid": "103:1576575192183", "color": "#0056E7" }, "geometry": { "type": "Point", "coordinates": [ 118.125000, 33.504759 ] } }
{"year": "BC523",  "type": "Feature", "tippecanoe": { "layer": "2AFCA67D41D01583918936721", "minzoom": 2, "maxzoom": 8 }, "properties": { "halo": 1.6, "title": "淮夷", "fontsize": 12, "tyid": "304001", "oid": "103:1576575192565", "color": "#0056E7" }, "geometry": { "type": "Point", "coordinates": [ 119.091797, 34.161818 ] } }
{"year": "BC523",  "type": "Feature", "tippecanoe": { "layer": "2AFCA67D41D01583918936721", "minzoom": 2, "maxzoom": 8 }, "properties": { "halo": 1.8, "title": "邗", "fontsize": 12, "tyid": "304000", "oid": "103:1576575192579", "color": "#0056E7" }, "geometry": { "type": "Point", "coordinates": [ 119.443359, 32.546813 ] } }
{"year": "BC523",  "type": "Feature", "tippecanoe": { "layer": "2AFCA67D41D01583918936721", "minzoom": 2, "maxzoom": 8 }, "properties": { "halo": 1.8, "title": "随", "fontsize": 12, "tyid": "304000", "oid": "103:1576575192450", "color": "#0056E7" }, "geometry": { "type": "Point", "coordinates": [ 113.203125, 31.802893 ] } }
{"year": "BC523",  "type": "Feature", "tippecanoe": { "layer": "2AFCA67D41D01583918936721", "minzoom": 2, "maxzoom": 8 }, "properties": { "halo": 1.6, "title": "夷虎", "fontsize": 12, "tyid": "304001", "oid": "103:1576575192454", "color": "#0056E7" }, "geometry": { "type": "Point", "coordinates": [ 117.070312, 31.952162 ] } }
{"year": "BC523",  "type": "Feature", "tippecanoe": { "layer": "2AFCA67D41D01583918936721", "minzoom": 2, "maxzoom": 8 }, "properties": { "halo": 1.8, "title": "桐", "fontsize": 12, "tyid": "304000", "oid": "103:1576575192137", "color": "#0056E7" }, "geometry": { "type": "Point", "coordinates": [ 116.718750, 30.977609 ] } }
{"year": "BC523",  "type": "Feature", "tippecanoe": { "layer": "2AFCA67D41D01583918936721", "minzoom": 2, "maxzoom": 8 }, "properties": { "halo": 1.8, "title": "巢", "fontsize": 12, "tyid": "304000", "oid": "103:1576575192207", "color": "#0056E7" }, "geometry": { "type": "Point", "coordinates": [ 117.685547, 31.728167 ] } }
{"year": "BC523",  "type": "Feature", "tippecanoe": { "layer": "2AFCA67D41D01583918936721", "minzoom": 2, "maxzoom": 8 }, "properties": { "halo": 1.8, "title": "缚娄", "fontsize": 12, "tyid": "304000", "oid": "103:1576575192674", "color": "#0056E7" }, "geometry": { "type": "Point", "coordinates": [ 114.345703, 23.160563 ] } }
{"year": "BC523",  "type": "Feature", "tippecanoe": { "layer": "2AFCA67D41D01583918936721", "minzoom": 2, "maxzoom": 8 }, "properties": { "halo": 1.6, "title": "营埔文化", "fontsize": 12, "tyid": "304002", "oid": "103:1576575192716", "color": "#0056E7" }, "geometry": { "type": "Point", "coordinates": [ 120.673828, 24.367114 ] } }
{"year": "BC523",  "type": "Feature", "tippecanoe": { "layer": "2AFCA67D41D01583918936721", "minzoom": 2, "maxzoom": 8 }, "properties": { "halo": 1.6, "title": "卑南文化", "fontsize": 12, "tyid": "304002", "oid": "103:1576575192714", "color": "#0056E7" }, "geometry": { "type": "Point", "coordinates": [ 120.761719, 22.674847 ] } }
{"year": "BC523",  "type": "Feature", "tippecanoe": { "layer": "2AFCA67D41D01583918936721", "minzoom": 2, "maxzoom": 8 }, "properties": { "halo": 1.6, "title": "圆山文化", "fontsize": 12, "tyid": "304002", "oid": "103:1576575192718", "color": "#0056E7" }, "geometry": { "type": "Point", "coordinates": [ 121.289062, 24.926295 ] } }
{"year": "BC523",  "type": "Feature", "tippecanoe": { "layer": "2AFCA67D41D01583918936721", "minzoom": 2, "maxzoom": 8 }, "properties": { "halo": 1.6, "title": "麒麟文化", "fontsize": 12, "tyid": "304002", "oid": "103:1576575192720", "color": "#0056E7" }, "geometry": { "type": "Point", "coordinates": [ 121.289062, 23.563987 ] } }
{"year": "BC523",  "type": "Feature", "tippecanoe": { "layer": "2AFCA67D41D01583918936721", "minzoom": 2, "maxzoom": 8 }, "properties": { "halo": 1.6, "title": "弥生人", "fontsize": 12, "tyid": "304001", "oid": "103:1576575192509", "color": "#0056E7" }, "geometry": { "type": "Point", "coordinates": [ 130.517578, 33.504759 ] } }
{"year": "BC523",  "type": "Feature", "tippecanoe": { "layer": "2AFCA67D41D01583918936721", "minzoom": 2, "maxzoom": 8 }, "properties": { "halo": 1.6, "title": "托雷斯海峡岛民", "fontsize": 12, "tyid": "304001", "oid": "103:1576575192669", "color": "#0056E7" }, "geometry": { "type": "Point", "coordinates": [ 142.382812, -11.264612 ] } }
{"year": "BC523",  "type": "Feature", "tippecanoe": { "layer": "2AFCA7FCF0481583918936703", "minzoom": 2, "maxzoom": 8 }, "properties": { "halo": 0.8, "title": "拉霍亚文化", "fontsize": 12, "tyid": "304002", "oid": "103:1576575192196", "color": "#262626" }, "geometry": { "type": "Point", "coordinates": [ -118.740234, 34.597042 ] } }
{"year": "BC523",  "type": "Feature", "tippecanoe": { "layer": "2AFCA7FCF0481583918936703", "minzoom": 2, "maxzoom": 8 }, "properties": { "halo": 0.8, "title": "古普韦布洛人", "fontsize": 12, "tyid": "304001", "oid": "103:1576575192370", "color": "#262626" }, "geometry": { "type": "Point", "coordinates": [ -110.126953, 36.949892 ] } }
{"year": "BC523",  "type": "Feature", "tippecanoe": { "layer": "2AFCA7FCF0481583918936703", "minzoom": 2, "maxzoom": 8 }, "properties": { "halo": 0.8, "title": "科奇斯文化", "fontsize": 12, "tyid": "304002", "oid": "103:1576575192224", "color": "#262626" }, "geometry": { "type": "Point", "coordinates": [ -110.039062, 32.249974 ] } }
{"year": "BC523",  "type": "Feature", "tippecanoe": { "layer": "2AFCA7FCF0481583918936703", "minzoom": 2, "maxzoom": 8 }, "properties": { "halo": 0.8, "title": "奇瓦瓦文化", "fontsize": 12, "tyid": "304002", "oid": "103:1576575192407", "color": "#262626" }, "geometry": { "type": "Point", "coordinates": [ -107.226562, 32.768800 ] } }
{"year": "BC523",  "type": "Feature", "tippecanoe": { "layer": "2AFCA7FCF0481583918936703", "minzoom": 2, "maxzoom": 8 }, "properties": { "halo": 0.8, "title": "奥沙拉文化", "fontsize": 12, "tyid": "304002", "oid": "103:1576575192122", "color": "#262626" }, "geometry": { "type": "Point", "coordinates": [ -106.875000, 37.090240 ] } }
{"year": "BC523",  "type": "Feature", "tippecanoe": { "layer": "2AFCA7FCF0481583918936703", "minzoom": 2, "maxzoom": 8 }, "properties": { "halo": 0.8, "title": "瓜伊库拉人", "fontsize": 12, "tyid": "304001", "oid": "103:1576575192305", "color": "#262626" }, "geometry": { "type": "Point", "coordinates": [ -111.269531, 24.846565 ] } }
{"year": "BC523",  "type": "Feature", "tippecanoe": { "layer": "2AFCA7FCF0481583918936703", "minzoom": 2, "maxzoom": 8 }, "properties": { "halo": 0.8, "title": "楚拉时期", "fontsize": 12, "tyid": "304002", "oid": "103:1576575192165", "color": "#262626" }, "geometry": { "type": "Point", "coordinates": [ -92.109375, 32.620870 ] } }
{"year": "BC523",  "type": "Feature", "tippecanoe": { "layer": "2AFCA7FCF0481583918936703", "minzoom": 2, "maxzoom": 8 }, "properties": { "halo": 0.8, "title": "华斯塔克文明", "fontsize": 12, "tyid": "304002", "oid": "103:1576575192216", "color": "#262626" }, "geometry": { "type": "Point", "coordinates": [ -98.613281, 22.105999 ] } }
{"year": "BC523",  "type": "Feature", "tippecanoe": { "layer": "2AFCA7FCF0481583918936703", "minzoom": 2, "maxzoom": 8 }, "properties": { "halo": 0.8, "title": "奇蒂玛察人", "fontsize": 12, "tyid": "304001", "oid": "103:1576575192361", "color": "#262626" }, "geometry": { "type": "Point", "coordinates": [ -91.054688, 30.372875 ] } }
{"year": "BC523",  "type": "Feature", "tippecanoe": { "layer": "2AFCA7FCF0481583918936703", "minzoom": 2, "maxzoom": 8 }, "properties": { "halo": 0.8, "title": "埃尔欧朋文化", "fontsize": 12, "tyid": "304002", "oid": "103:1576575192130", "color": "#262626" }, "geometry": { "type": "Point", "coordinates": [ -101.689453, 19.476950 ] } }
{"year": "BC523",  "type": "Feature", "tippecanoe": { "layer": "2AFCA7FCF0481583918936703", "minzoom": 2, "maxzoom": 8 }, "properties": { "halo": 0.8, "title": "梅斯卡拉文化", "fontsize": 12, "tyid": "304002", "oid": "103:1576575192048", "color": "#262626" }, "geometry": { "type": "Point", "coordinates": [ -100.810547, 17.895114 ] } }
{"year": "BC523",  "type": "Feature", "tippecanoe": { "layer": "2AFCA7FCF0481583918936703", "minzoom": 2, "maxzoom": 8 }, "properties": { "halo": 0.8, "title": "萨波特克文明", "fontsize": 12, "tyid": "304002", "oid": "103:1576575192590", "color": "#262626" }, "geometry": { "type": "Point", "coordinates": [ -96.064453, 16.636192 ] } }
{"year": "BC523",  "type": "Feature", "tippecanoe": { "layer": "2AFCA7FCF0481583918936703", "minzoom": 2, "maxzoom": 8 }, "properties": { "halo": 0.8, "title": "奥尔梅克文明", "fontsize": 12, "tyid": "304002", "oid": "103:1576575192123", "color": "#262626" }, "geometry": { "type": "Point", "coordinates": [ -94.042969, 17.727759 ] } }
{"year": "BC523",  "type": "Feature", "tippecanoe": { "layer": "2AFCA7FCF0481583918936703", "minzoom": 2, "maxzoom": 8 }, "properties": { "halo": 0.8, "title": "德普特福德文化", "fontsize": 12, "tyid": "304002", "oid": "103:1576575192515", "color": "#262626" }, "geometry": { "type": "Point", "coordinates": [ -79.716797, 33.284620 ] } }
{"year": "BC523",  "type": "Feature", "tippecanoe": { "layer": "2AFCA7FCF0481583918936703", "minzoom": 2, "maxzoom": 8 }, "properties": { "halo": 0.8, "title": "切格文特文化", "fontsize": 12, "tyid": "304002", "oid": "103:1576575192241", "color": "#262626" }, "geometry": { "type": "Point", "coordinates": [ -89.208984, 30.600094 ] } }
{"year": "BC523",  "type": "Feature", "tippecanoe": { "layer": "2AFCA7FCF0481583918936703", "minzoom": 2, "maxzoom": 8 }, "properties": { "halo": 0.8, "title": "诺伍德文化", "fontsize": 12, "tyid": "304002", "oid": "103:1576575192343", "color": "#262626" }, "geometry": { "type": "Point", "coordinates": [ -84.638672, 30.297018 ] } }
{"year": "BC523",  "type": "Feature", "tippecanoe": { "layer": "2AFCA7FCF0481583918936703", "minzoom": 2, "maxzoom": 8 }, "properties": { "halo": 0.8, "title": "卡卢萨人", "fontsize": 12, "tyid": "304001", "oid": "103:1576575192082", "color": "#262626" }, "geometry": { "type": "Point", "coordinates": [ -81.650391, 26.902477 ] } }
{"year": "BC523",  "type": "Feature", "tippecanoe": { "layer": "2AFCA7FCF0481583918936703", "minzoom": 2, "maxzoom": 8 }, "properties": { "halo": 0.8, "title": "玛雅文明[前古典时期]", "fontsize": 12, "tyid": "304002", "oid": "103:1576575192606", "color": "#262626" }, "geometry": { "type": "Point", "coordinates": [ -89.296875, 17.140790 ] } }
{"year": "BC523",  "type": "Feature", "tippecanoe": { "layer": "2AFCA7FCF0481583918936703", "minzoom": 2, "maxzoom": 8 }, "properties": { "halo": 0.8, "title": "拉托利塔文化", "fontsize": 12, "tyid": "304002", "oid": "103:1576575192349", "color": "#262626" }, "geometry": { "type": "Point", "coordinates": [ -78.046875, 1.757537 ] } }
{"year": "BC523",  "type": "Feature", "tippecanoe": { "layer": "2AFCA7FCF0481583918936703", "minzoom": 2, "maxzoom": 8 }, "properties": { "halo": 0.8, "title": "埃雷拉时期", "fontsize": 12, "tyid": "304002", "oid": "103:1576575192526", "color": "#262626" }, "geometry": { "type": "Point", "coordinates": [ -73.476562, 5.441022 ] } }
{"year": "BC523",  "type": "Feature", "tippecanoe": { "layer": "2AFCA7FCF0481583918936703", "minzoom": 2, "maxzoom": 8 }, "properties": { "halo": 0.8, "title": "伊奈里人", "fontsize": 12, "tyid": "304001", "oid": "103:1576575191993", "color": "#262626" }, "geometry": { "type": "Point", "coordinates": [ -63.281250, 8.494105 ] } }
{"year": "BC523",  "type": "Feature", "tippecanoe": { "layer": "2AFCA7FCF0481583918936703", "minzoom": 2, "maxzoom": 8 }, "properties": { "halo": 0.8, "title": "皮克特人", "fontsize": 12, "tyid": "304001", "oid": "103:1576575192268", "color": "#262626" }, "geometry": { "type": "Point", "coordinates": [ -4.042969, 56.704506 ] } }
{"year": "BC523",  "type": "Feature", "tippecanoe": { "layer": "2AFCA7FCF0481583918936703", "minzoom": 2, "maxzoom": 8 }, "properties": { "halo": 0.8, "title": "盖尔人", "fontsize": 12, "tyid": "304001", "oid": "103:1576575192308", "color": "#262626" }, "geometry": { "type": "Point", "coordinates": [ -7.910156, 53.435719 ] } }
{"year": "BC523",  "type": "Feature", "tippecanoe": { "layer": "2AFCA7FCF0481583918936703", "minzoom": 2, "maxzoom": 8 }, "properties": { "halo": 0.8, "title": "加利西亚人", "fontsize": 12, "tyid": "304001", "oid": "103:1576575192629", "color": "#262626" }, "geometry": { "type": "Point", "coordinates": [ -7.998047, 42.488302 ] } }
{"year": "BC523",  "type": "Feature", "tippecanoe": { "layer": "2AFCA7FCF0481583918936703", "minzoom": 2, "maxzoom": 8 }, "properties": { "halo": 0.8, "title": "阿斯图尔人", "fontsize": 12, "tyid": "304001", "oid": "103:1576575192129", "color": "#262626" }, "geometry": { "type": "Point", "coordinates": [ -6.152344, 42.553080 ] } }
{"year": "BC523",  "type": "Feature", "tippecanoe": { "layer": "2AFCA7FCF0481583918936703", "minzoom": 2, "maxzoom": 8 }, "properties": { "halo": 0.8, "title": "瓦凯伊人", "fontsize": 12, "tyid": "304001", "oid": "103:1576575192008", "color": "#262626" }, "geometry": { "type": "Point", "coordinates": [ -4.658203, 41.640078 ] } }
{"year": "BC523",  "type": "Feature", "tippecanoe": { "layer": "2AFCA7FCF0481583918936703", "minzoom": 2, "maxzoom": 8 }, "properties": { "halo": 0.8, "title": "卡斯特罗文化", "fontsize": 12, "tyid": "304002", "oid": "103:1576575192081", "color": "#262626" }, "geometry": { "type": "Point", "coordinates": [ -3.515625, 42.811522 ] } }
{"year": "BC523",  "type": "Feature", "tippecanoe": { "layer": "2AFCA7FCF0481583918936703", "minzoom": 2, "maxzoom": 8 }, "properties": { "halo": 0.8, "title": "阿奎丹人", "fontsize": 12, "tyid": "304001", "oid": "103:1576575192132", "color": "#262626" }, "geometry": { "type": "Point", "coordinates": [ -0.175781, 43.834527 ] } }
{"year": "BC523",  "type": "Feature", "tippecanoe": { "layer": "2AFCA7FCF0481583918936703", "minzoom": 2, "maxzoom": 8 }, "properties": { "halo": 0.8, "title": "卢西塔利亚人", "fontsize": 12, "tyid": "304001", "oid": "103:1576575192627", "color": "#262626" }, "geometry": { "type": "Point", "coordinates": [ -8.085938, 40.313043 ] } }
{"year": "BC523",  "type": "Feature", "tippecanoe": { "layer": "2AFCA7FCF0481583918936703", "minzoom": 2, "maxzoom": 8 }, "properties": { "halo": 0.8, "title": "凯蒂奇人", "fontsize": 12, "tyid": "304001", "oid": "103:1576575192625", "color": "#262626" }, "geometry": { "type": "Point", "coordinates": [ -7.646484, 38.959409 ] } }
{"year": "BC523",  "type": "Feature", "tippecanoe": { "layer": "2AFCA7FCF0481583918936703", "minzoom": 2, "maxzoom": 8 }, "properties": { "halo": 0.8, "title": "维托内人", "fontsize": 12, "tyid": "304001", "oid": "103:1576575192006", "color": "#262626" }, "geometry": { "type": "Point", "coordinates": [ -5.800781, 40.313043 ] } }
{"year": "BC523",  "type": "Feature", "tippecanoe": { "layer": "2AFCA7FCF0481583918936703", "minzoom": 2, "maxzoom": 8 }, "properties": { "halo": 0.8, "title": "西尼特人", "fontsize": 12, "tyid": "304001", "oid": "103:1576575192623", "color": "#262626" }, "geometry": { "type": "Point", "coordinates": [ -8.261719, 37.649034 ] } }
{"year": "BC523",  "type": "Feature", "tippecanoe": { "layer": "2AFCA7FCF0481583918936703", "minzoom": 2, "maxzoom": 8 }, "properties": { "halo": 0.8, "title": "图尔杜利人", "fontsize": 12, "tyid": "304001", "oid": "103:1576575192010", "color": "#262626" }, "geometry": { "type": "Point", "coordinates": [ -5.976562, 38.685510 ] } }
{"year": "BC523",  "type": "Feature", "tippecanoe": { "layer": "2AFCA7FCF0481583918936703", "minzoom": 2, "maxzoom": 8 }, "properties": { "halo": 0.8, "title": "卡佩塔尼人", "fontsize": 12, "tyid": "304001", "oid": "103:1576575192148", "color": "#262626" }, "geometry": { "type": "Point", "coordinates": [ -3.955078, 39.977120 ] } }
{"year": "BC523",  "type": "Feature", "tippecanoe": { "layer": "2AFCA7FCF0481583918936703", "minzoom": 2, "maxzoom": 8 }, "properties": { "halo": 0.8, "title": "图尔德泰尼人", "fontsize": 12, "tyid": "304001", "oid": "103:1576575192399", "color": "#262626" }, "geometry": { "type": "Point", "coordinates": [ -5.097656, 37.718590 ] } }
{"year": "BC523",  "type": "Feature", "tippecanoe": { "layer": "2AFCA7FCF0481583918936703", "minzoom": 2, "maxzoom": 8 }, "properties": { "halo": 0.8, "title": "奥雷塔尼人", "fontsize": 12, "tyid": "304001", "oid": "103:1576575192385", "color": "#262626" }, "geometry": { "type": "Point", "coordinates": [ -3.251953, 38.548165 ] } }
{"year": "BC523",  "type": "Feature", "tippecanoe": { "layer": "2AFCA7FCF0481583918936703", "minzoom": 2, "maxzoom": 8 }, "properties": { "halo": 0.8, "title": "凯尔特伊比利亚人", "fontsize": 12, "tyid": "304001", "oid": "103:1576575192077", "color": "#262626" }, "geometry": { "type": "Point", "coordinates": [ -2.197266, 40.780541 ] } }
{"year": "BC523",  "type": "Feature", "tippecanoe": { "layer": "2AFCA7FCF0481583918936703", "minzoom": 2, "maxzoom": 8 }, "properties": { "halo": 0.8, "title": "巴斯塔尼人", "fontsize": 12, "tyid": "304001", "oid": "103:1576575192117", "color": "#262626" }, "geometry": { "type": "Point", "coordinates": [ -2.109375, 37.857507 ] } }
{"year": "BC523",  "type": "Feature", "tippecanoe": { "layer": "2AFCA7FCF0481583918936703", "minzoom": 2, "maxzoom": 8 }, "properties": { "halo": 0.8, "title": "达尔蒂奇特文化", "fontsize": 12, "tyid": "304002", "oid": "103:1576575192252", "color": "#262626" }, "geometry": { "type": "Point", "coordinates": [ -9.404297, 18.812718 ] } }
{"year": "BC523",  "type": "Feature", "tippecanoe": { "layer": "2AFCA7FCF0481583918936703", "minzoom": 2, "maxzoom": 8 }, "properties": { "halo": 0.8, "title": "科瑞尔文化", "fontsize": 12, "tyid": "304002", "oid": "103:1576575192602", "color": "#262626" }, "geometry": { "type": "Point", "coordinates": [ -79.716797, -0.351560 ] } }
{"year": "BC523",  "type": "Feature", "tippecanoe": { "layer": "2AFCA7FCF0481583918936703", "minzoom": 2, "maxzoom": 8 }, "properties": { "halo": 0.8, "title": "库皮尼克文化", "fontsize": 12, "tyid": "304002", "oid": "103:1576575192601", "color": "#262626" }, "geometry": { "type": "Point", "coordinates": [ -80.068359, -6.053161 ] } }
{"year": "BC523",  "type": "Feature", "tippecanoe": { "layer": "2AFCA7FCF0481583918936703", "minzoom": 2, "maxzoom": 8 }, "properties": { "halo": 0.8, "title": "楚真文化", "fontsize": 12, "tyid": "304002", "oid": "103:1576575192217", "color": "#262626" }, "geometry": { "type": "Point", "coordinates": [ -70.576172, -16.299051 ] } }
{"year": "BC523",  "type": "Feature", "tippecanoe": { "layer": "2AFCA7FCF0481583918936703", "minzoom": 2, "maxzoom": 8 }, "properties": { "halo": 0.8, "title": "普卡拉文化", "fontsize": 12, "tyid": "304002", "oid": "103:1576575192267", "color": "#262626" }, "geometry": { "type": "Point", "coordinates": [ -69.960938, -14.179186 ] } }
{"year": "BC523",  "type": "Feature", "tippecanoe": { "layer": "2AFCA7FCF0481583918936703", "minzoom": 2, "maxzoom": 8 }, "properties": { "halo": 0.8, "title": "艾马拉人", "fontsize": 12, "tyid": "304001", "oid": "103:1576575192125", "color": "#262626" }, "geometry": { "type": "Point", "coordinates": [ -68.378906, -17.056785 ] } }
{"year": "BC523",  "type": "Feature", "tippecanoe": { "layer": "2AFCA7FCF0481583918936703", "minzoom": 2, "maxzoom": 8 }, "properties": { "halo": 0.8, "title": "安西尔塔文化", "fontsize": 12, "tyid": "304002", "oid": "103:1576575192497", "color": "#262626" }, "geometry": { "type": "Point", "coordinates": [ -68.818359, -31.353637 ] } }
{"year": "BC523",  "type": "Feature", "tippecanoe": { "layer": "2AFCA7FCF0481583918936703", "minzoom": 2, "maxzoom": 8 }, "properties": { "halo": 0.8, "title": "巴托文化", "fontsize": 12, "tyid": "304002", "oid": "103:1576575192170", "color": "#262626" }, "geometry": { "type": "Point", "coordinates": [ -70.839844, -33.431441 ] } }
{"year": "BC523",  "type": "Feature", "tippecanoe": { "layer": "2AFCA7FCF0481583918936703", "minzoom": 2, "maxzoom": 8 }, "properties": { "halo": 0.8, "title": "马普切人", "fontsize": 12, "tyid": "304001", "oid": "103:1576575192070", "color": "#262626" }, "geometry": { "type": "Point", "coordinates": [ -71.455078, -38.959409 ] } }
{"year": "BC523",  "type": "Feature", "tippecanoe": { "layer": "2AFCA7FCF0481583918936703", "minzoom": 2, "maxzoom": 8 }, "properties": { "halo": 0.8, "title": "摩克索人", "fontsize": 12, "tyid": "304001", "oid": "103:1576575192281", "color": "#262626" }, "geometry": { "type": "Point", "coordinates": [ -65.830078, -13.923404 ] } }
{"year": "BC523",  "type": "Feature", "tippecanoe": { "layer": "2AFCA7FCF0481583918936703", "minzoom": 2, "maxzoom": 8 }, "properties": { "halo": 0.8, "title": "瓦卡拉尼文化", "fontsize": 12, "tyid": "304002", "oid": "103:1576575192354", "color": "#262626" }, "geometry": { "type": "Point", "coordinates": [ -64.951172, -17.811456 ] } }
{"year": "BC523",  "type": "Feature", "tippecanoe": { "layer": "2AFCA7FCF0481583918936703", "minzoom": 2, "maxzoom": 8 }, "properties": { "halo": 0.8, "title": "查鲁亚人", "fontsize": 12, "tyid": "304001", "oid": "103:1576575192604", "color": "#262626" }, "geometry": { "type": "Point", "coordinates": [ -57.128906, -32.398516 ] } }
{"year": "BC523",  "type": "Feature", "tippecanoe": { "layer": "2AFCA7FCF0481583918936703", "minzoom": 2, "maxzoom": 8 }, "properties": { "halo": 0.8, "title": "特胡尔切人", "fontsize": 12, "tyid": "304001", "oid": "103:1576575192544", "color": "#262626" }, "geometry": { "type": "Point", "coordinates": [ -70.751953, -50.176898 ] } }
{"year": "BC523",  "type": "Feature", "tippecanoe": { "layer": "2AFCA7FCF0481583918936703", "minzoom": 2, "maxzoom": 8 }, "properties": { "halo": 0.8, "title": "塞尔克南人", "fontsize": 12, "tyid": "304001", "oid": "103:1576575192021", "color": "#262626" }, "geometry": { "type": "Point", "coordinates": [ -68.378906, -53.696706 ] } }
{"year": "BC523",  "type": "Feature", "tippecanoe": { "layer": "2AFCA7FCF0481583918936703", "minzoom": 2, "maxzoom": 8 }, "properties": { "halo": 0.8, "title": "雅干人", "fontsize": 12, "tyid": "304001", "oid": "103:1576575192531", "color": "#262626" }, "geometry": { "type": "Point", "coordinates": [ -68.994141, -54.622978 ] } }
{"year": "BC523",  "type": "Feature", "tippecanoe": { "layer": "2AFCA7FCF0481583918936703", "minzoom": 2, "maxzoom": 8 }, "properties": { "halo": 0.8, "title": "亚斯托夫文化", "fontsize": 12, "tyid": "304002", "oid": "103:1576575192694", "color": "#262626" }, "geometry": { "type": "Point", "coordinates": [ 10.371094, 53.956086 ] } }
{"year": "BC523",  "type": "Feature", "tippecanoe": { "layer": "2AFCA7FCF0481583918936703", "minzoom": 2, "maxzoom": 8 }, "properties": { "halo": 0.8, "title": "洪斯吕克-埃菲尔文化", "fontsize": 12, "tyid": "304002", "oid": "103:1576575192199", "color": "#262626" }, "geometry": { "type": "Point", "coordinates": [ 7.031250, 49.951220 ] } }
{"year": "BC523",  "type": "Feature", "tippecanoe": { "layer": "2AFCA7FCF0481583918936703", "minzoom": 2, "maxzoom": 8 }, "properties": { "halo": 0.8, "title": "屋瓮文化", "fontsize": 12, "tyid": "304002", "oid": "103:1576575192003", "color": "#262626" }, "geometry": { "type": "Point", "coordinates": [ 10.898438, 51.399206 ] } }
{"year": "BC523",  "type": "Feature", "tippecanoe": { "layer": "2AFCA7FCF0481583918936703", "minzoom": 2, "maxzoom": 8 }, "properties": { "halo": 0.8, "title": "伊勒格泰人", "fontsize": 12, "tyid": "304001", "oid": "103:1576575192000", "color": "#262626" }, "geometry": { "type": "Point", "coordinates": [ 0.351562, 42.228517 ] } }
{"year": "BC523",  "type": "Feature", "tippecanoe": { "layer": "2AFCA7FCF0481583918936703", "minzoom": 2, "maxzoom": 8 }, "properties": { "halo": 0.8, "title": "蕾蒂人", "fontsize": 12, "tyid": "304001", "oid": "103:1576575192458", "color": "#262626" }, "geometry": { "type": "Point", "coordinates": [ 10.546875, 47.100045 ] } }
{"year": "BC523",  "type": "Feature", "tippecanoe": { "layer": "2AFCA7FCF0481583918936703", "minzoom": 2, "maxzoom": 8 }, "properties": { "halo": 0.8, "title": "利古里亚人", "fontsize": 12, "tyid": "304002", "oid": "103:1576575192176", "color": "#262626" }, "geometry": { "type": "Point", "coordinates": [ 8.173828, 44.527843 ] } }
{"year": "BC523",  "type": "Feature", "tippecanoe": { "layer": "2AFCA7FCF0481583918936703", "minzoom": 2, "maxzoom": 8 }, "properties": { "halo": 0.8, "title": "骨壶墓地文化", "fontsize": 12, "tyid": "304002", "oid": "103:1576575192696", "color": "#262626" }, "geometry": { "type": "Point", "coordinates": [ 13.710938, 51.672555 ] } }
{"year": "BC523",  "type": "Feature", "tippecanoe": { "layer": "2AFCA7FCF0481583918936703", "minzoom": 2, "maxzoom": 8 }, "properties": { "halo": 0.8, "title": "西波罗的海坟文化", "fontsize": 12, "tyid": "304002", "oid": "103:1576575192230", "color": "#262626" }, "geometry": { "type": "Point", "coordinates": [ 21.708984, 54.213861 ] } }
{"year": "BC523",  "type": "Feature", "tippecanoe": { "layer": "2AFCA7FCF0481583918936703", "minzoom": 2, "maxzoom": 8 }, "properties": { "halo": 0.8, "title": "威尼蒂人[亚得里亚海]", "fontsize": 12, "tyid": "304001", "oid": "103:1576575192413", "color": "#262626" }, "geometry": { "type": "Point", "coordinates": [ 12.041016, 45.767523 ] } }
{"year": "BC523",  "type": "Feature", "tippecanoe": { "layer": "2AFCA7FCF0481583918936703", "minzoom": 2, "maxzoom": 8 }, "properties": { "halo": 0.8, "title": "伊特鲁里亚文明", "fontsize": 12, "tyid": "304002", "oid": "103:1576575192653", "color": "#262626" }, "geometry": { "type": "Point", "coordinates": [ 11.250000, 43.771094 ] } }
{"year": "BC523",  "type": "Feature", "tippecanoe": { "layer": "2AFCA7FCF0481583918936703", "minzoom": 2, "maxzoom": 8 }, "properties": { "halo": 0.8, "title": "萨莫奈人", "fontsize": 12, "tyid": "304001", "oid": "103:1576575192023", "color": "#262626" }, "geometry": { "type": "Point", "coordinates": [ 14.501953, 41.310824 ] } }
{"year": "BC523",  "type": "Feature", "tippecanoe": { "layer": "2AFCA7FCF0481583918936703", "minzoom": 2, "maxzoom": 8 }, "properties": { "halo": 0.8, "title": "伊利里亚人", "fontsize": 12, "tyid": "304001", "oid": "103:1576575191994", "color": "#262626" }, "geometry": { "type": "Point", "coordinates": [ 17.841797, 43.834527 ] } }
{"year": "BC523",  "type": "Feature", "tippecanoe": { "layer": "2AFCA7FCF0481583918936703", "minzoom": 2, "maxzoom": 8 }, "properties": { "halo": 0.8, "title": "达尔达尼亚人", "fontsize": 12, "tyid": "304001", "oid": "103:1576575192105", "color": "#262626" }, "geometry": { "type": "Point", "coordinates": [ 21.533203, 43.644026 ] } }
{"year": "BC523",  "type": "Feature", "tippecanoe": { "layer": "2AFCA7FCF0481583918936703", "minzoom": 2, "maxzoom": 8 }, "properties": { "halo": 0.8, "title": "古爱沙尼亚人", "fontsize": 12, "tyid": "304001", "oid": "103:1576575192307", "color": "#262626" }, "geometry": { "type": "Point", "coordinates": [ 25.576172, 58.995311 ] } }
{"year": "BC523",  "type": "Feature", "tippecanoe": { "layer": "2AFCA7FCF0481583918936703", "minzoom": 2, "maxzoom": 8 }, "properties": { "halo": 0.8, "title": "利沃尼亚人", "fontsize": 12, "tyid": "304001", "oid": "103:1576575192698", "color": "#262626" }, "geometry": { "type": "Point", "coordinates": [ 26.279297, 57.231503 ] } }
{"year": "BC523",  "type": "Feature", "tippecanoe": { "layer": "2AFCA7FCF0481583918936703", "minzoom": 2, "maxzoom": 8 }, "properties": { "halo": 0.8, "title": "沃茨人", "fontsize": 12, "tyid": "304001", "oid": "103:1576575192688", "color": "#262626" }, "geometry": { "type": "Point", "coordinates": [ 29.794922, 59.040555 ] } }
{"year": "BC523",  "type": "Feature", "tippecanoe": { "layer": "2AFCA7FCF0481583918936703", "minzoom": 2, "maxzoom": 8 }, "properties": { "halo": 0.8, "title": "卡累利阿文化", "fontsize": 12, "tyid": "304002", "oid": "103:1576575192162", "color": "#262626" }, "geometry": { "type": "Point", "coordinates": [ 34.365234, 63.194018 ] } }
{"year": "BC523",  "type": "Feature", "tippecanoe": { "layer": "2AFCA7FCF0481583918936703", "minzoom": 2, "maxzoom": 8 }, "properties": { "halo": 0.8, "title": "阴影陶文化", "fontsize": 12, "tyid": "304002", "oid": "103:1576575192201", "color": "#262626" }, "geometry": { "type": "Point", "coordinates": [ 24.785156, 55.627996 ] } }
{"year": "BC523",  "type": "Feature", "tippecanoe": { "layer": "2AFCA7FCF0481583918936703", "minzoom": 2, "maxzoom": 8 }, "properties": { "halo": 0.8, "title": "盖塔人", "fontsize": 12, "tyid": "304001", "oid": "103:1576575192700", "color": "#262626" }, "geometry": { "type": "Point", "coordinates": [ 27.158203, 44.213710 ] } }
{"year": "BC523",  "type": "Feature", "tippecanoe": { "layer": "2AFCA7FCF0481583918936703", "minzoom": 2, "maxzoom": 8 }, "properties": { "halo": 0.8, "title": "色雷斯人", "fontsize": 12, "tyid": "304001", "oid": "103:1576575192274", "color": "#262626" }, "geometry": { "type": "Point", "coordinates": [ 25.664062, 42.293564 ] } }
{"year": "BC523",  "type": "Feature", "tippecanoe": { "layer": "2AFCA7FCF0481583918936703", "minzoom": 2, "maxzoom": 8 }, "properties": { "halo": 0.8, "title": "上奥卡文化", "fontsize": 12, "tyid": "304002", "oid": "103:1576575192015", "color": "#262626" }, "geometry": { "type": "Point", "coordinates": [ 37.353516, 53.540307 ] } }
{"year": "BC523",  "type": "Feature", "tippecanoe": { "layer": "2AFCA7FCF0481583918936703", "minzoom": 2, "maxzoom": 8 }, "properties": { "halo": 0.8, "title": "梅田人", "fontsize": 12, "tyid": "304001", "oid": "103:1576575192222", "color": "#262626" }, "geometry": { "type": "Point", "coordinates": [ 39.023438, 46.073231 ] } }
{"year": "BC523",  "type": "Feature", "tippecanoe": { "layer": "2AFCA7FCF0481583918936703", "minzoom": 2, "maxzoom": 8 }, "properties": { "halo": 0.8, "title": "辛迪卡", "fontsize": 12, "tyid": "304000", "oid": "103:1576575192227", "color": "#202020" }, "geometry": { "type": "Point", "coordinates": [ 38.408203, 44.777936 ] } }
{"year": "BC523",  "type": "Feature", "tippecanoe": { "layer": "2AFCA7FCF0481583918936703", "minzoom": 2, "maxzoom": 8 }, "properties": { "halo": 0.8, "title": "庞蒂克希腊人", "fontsize": 12, "tyid": "304001", "oid": "103:1576575192330", "color": "#262626" }, "geometry": { "type": "Point", "coordinates": [ 36.562500, 41.046217 ] } }
{"year": "BC523",  "type": "Feature", "tippecanoe": { "layer": "2AFCA7FCF0481583918936703", "minzoom": 2, "maxzoom": 8 }, "properties": { "halo": 0.8, "title": "科尔基斯王国", "fontsize": 12, "tyid": "304000", "oid": "103:1576575192711", "color": "#202020" }, "geometry": { "type": "Point", "coordinates": [ 42.451172, 42.617791 ] } }
{"year": "BC523",  "type": "Feature", "tippecanoe": { "layer": "2AFCA7FCF0481583918936703", "minzoom": 2, "maxzoom": 8 }, "properties": { "halo": 0.8, "title": "迦太基帝国", "fontsize": 12, "tyid": "304000", "oid": "103:1576575192621", "color": "#202020" }, "geometry": { "type": "Point", "coordinates": [ 9.316406, 36.244273 ] } }
{"year": "BC523",  "type": "Feature", "tippecanoe": { "layer": "2AFCA7FCF0481583918936703", "minzoom": 2, "maxzoom": 8 }, "properties": { "halo": 0.8, "title": "奥尼诺特里人", "fontsize": 12, "tyid": "304001", "oid": "103:1576575192204", "color": "#262626" }, "geometry": { "type": "Point", "coordinates": [ 16.083984, 39.707187 ] } }
{"year": "BC523",  "type": "Feature", "tippecanoe": { "layer": "2AFCA7FCF0481583918936703", "minzoom": 2, "maxzoom": 8 }, "properties": { "halo": 0.8, "title": "马其顿王国", "fontsize": 12, "tyid": "304000", "oid": "103:1576575192068", "color": "#202020" }, "geometry": { "type": "Point", "coordinates": [ 22.148438, 40.713956 ] } }
{"year": "BC523",  "type": "Feature", "tippecanoe": { "layer": "2AFCA7FCF0481583918936703", "minzoom": 2, "maxzoom": 8 }, "properties": { "halo": 0.8, "title": "爱奥尼亚人", "fontsize": 12, "tyid": "304001", "oid": "103:1576575192645", "color": "#262626" }, "geometry": { "type": "Point", "coordinates": [ 22.060547, 39.095963 ] } }
{"year": "BC523",  "type": "Feature", "tippecanoe": { "layer": "2AFCA7FCF0481583918936703", "minzoom": 2, "maxzoom": 8 }, "properties": { "halo": 0.8, "title": "约鲁巴人", "fontsize": 12, "tyid": "304001", "oid": "103:1576575192658", "color": "#262626" }, "geometry": { "type": "Point", "coordinates": [ 3.427734, 7.536764 ] } }
{"year": "BC523",  "type": "Feature", "tippecanoe": { "layer": "2AFCA7FCF0481583918936703", "minzoom": 2, "maxzoom": 8 }, "properties": { "halo": 0.8, "title": "伊博人", "fontsize": 12, "tyid": "304001", "oid": "103:1576575192657", "color": "#262626" }, "geometry": { "type": "Point", "coordinates": [ 7.998047, 5.965754 ] } }
{"year": "BC523",  "type": "Feature", "tippecanoe": { "layer": "2AFCA7FCF0481583918936703", "minzoom": 2, "maxzoom": 8 }, "properties": { "halo": 0.8, "title": "奥罗尼王朝", "fontsize": 12, "tyid": "304000", "oid": "103:1576575192494", "color": "#202020" }, "geometry": { "type": "Point", "coordinates": [ 43.857422, 40.780541 ] } }
{"year": "BC523",  "type": "Feature", "tippecanoe": { "layer": "2AFCA7FCF0481583918936703", "minzoom": 2, "maxzoom": 8 }, "properties": { "halo": 0.8, "title": "布雷米耶国", "fontsize": 12, "tyid": "304001", "oid": "103:1576575192478", "color": "#262626" }, "geometry": { "type": "Point", "coordinates": [ 34.628906, 22.105999 ] } }
{"year": "BC523",  "type": "Feature", "tippecanoe": { "layer": "2AFCA7FCF0481583918936703", "minzoom": 2, "maxzoom": 8 }, "properties": { "halo": 0.8, "title": "达姆特王国", "fontsize": 12, "tyid": "304000", "oid": "103:1576575192662", "color": "#202020" }, "geometry": { "type": "Point", "coordinates": [ 38.759766, 15.368950 ] } }
{"year": "BC523",  "type": "Feature", "tippecanoe": { "layer": "2AFCA7FCF0481583918936703", "minzoom": 2, "maxzoom": 8 }, "properties": { "halo": 0.8, "title": "迈因王国", "fontsize": 12, "tyid": "304000", "oid": "103:1576575192366", "color": "#202020" }, "geometry": { "type": "Point", "coordinates": [ 44.824219, 16.299051 ] } }
{"year": "BC523",  "type": "Feature", "tippecanoe": { "layer": "2AFCA7FCF0481583918936703", "minzoom": 2, "maxzoom": 8 }, "properties": { "halo": 0.8, "title": "塞巴王国", "fontsize": 12, "tyid": "304000", "oid": "103:1576575192660", "color": "#202020" }, "geometry": { "type": "Point", "coordinates": [ 44.208984, 14.604847 ] } }
{"year": "BC523",  "type": "Feature", "tippecanoe": { "layer": "2AFCA7FCF0481583918936703", "minzoom": 2, "maxzoom": 8 }, "properties": { "halo": 0.8, "title": "安纳尼诺文化", "fontsize": 12, "tyid": "304002", "oid": "103:1576575192498", "color": "#262626" }, "geometry": { "type": "Point", "coordinates": [ 50.537109, 56.413901 ] } }
{"year": "BC523",  "type": "Feature", "tippecanoe": { "layer": "2AFCA7FCF0481583918936703", "minzoom": 2, "maxzoom": 8 }, "properties": { "halo": 0.8, "title": "巴泽雷克文化", "fontsize": 12, "tyid": "304002", "oid": "103:1576575192488", "color": "#262626" }, "geometry": { "type": "Point", "coordinates": [ 86.923828, 50.513427 ] } }
{"year": "BC523",  "type": "Feature", "tippecanoe": { "layer": "2AFCA7FCF0481583918936703", "minzoom": 2, "maxzoom": 8 }, "properties": { "halo": 0.8, "title": "索墩布拉克文化", "fontsize": 12, "tyid": "304002", "oid": "103:1576575192433", "color": "#262626" }, "geometry": { "type": "Point", "coordinates": [ 81.738281, 43.325178 ] } }
{"year": "BC523",  "type": "Feature", "tippecanoe": { "layer": "2AFCA7FCF0481583918936703", "minzoom": 2, "maxzoom": 8 }, "properties": { "halo": 0.8, "title": "大益人", "fontsize": 12, "tyid": "304001", "oid": "103:1576575192311", "color": "#262626" }, "geometry": { "type": "Point", "coordinates": [ 55.019531, 40.580585 ] } }
{"year": "BC523",  "type": "Feature", "tippecanoe": { "layer": "2AFCA7FCF0481583918936703", "minzoom": 2, "maxzoom": 8 }, "properties": { "halo": 0.8, "title": "格拉", "fontsize": 12, "tyid": "304002", "oid": "103:1576575192250", "color": "#262626" }, "geometry": { "type": "Point", "coordinates": [ 51.152344, 25.244696 ] } }
{"year": "BC523",  "type": "Feature", "tippecanoe": { "layer": "2AFCA7FCF0481583918936703", "minzoom": 2, "maxzoom": 8 }, "properties": { "halo": 0.8, "title": "马干", "fontsize": 12, "tyid": "304002", "oid": "103:1576575192712", "color": "#262626" }, "geometry": { "type": "Point", "coordinates": [ 58.798828, 22.512557 ] } }
{"year": "BC523",  "type": "Feature", "tippecanoe": { "layer": "2AFCA7FCF0481583918936703", "minzoom": 2, "maxzoom": 8 }, "properties": { "halo": 0.8, "title": "奥桑王国", "fontsize": 12, "tyid": "304000", "oid": "103:1576575192721", "color": "#202020" }, "geometry": { "type": "Point", "coordinates": [ 46.142578, 13.923404 ] } }
{"year": "BC523",  "type": "Feature", "tippecanoe": { "layer": "2AFCA7FCF0481583918936703", "minzoom": 2, "maxzoom": 8 }, "properties": { "halo": 0.8, "title": "阿德王国", "fontsize": 12, "tyid": "304000", "oid": "103:1576575192713", "color": "#202020" }, "geometry": { "type": "Point", "coordinates": [ 52.382812, 18.729502 ] } }
{"year": "BC523",  "type": "Feature", "tippecanoe": { "layer": "2AFCA7FCF0481583918936703", "minzoom": 2, "maxzoom": 8 }, "properties": { "halo": 0.8, "title": "哈德拉毛王国", "fontsize": 12, "tyid": "304000", "oid": "103:1576575192249", "color": "#202020" }, "geometry": { "type": "Point", "coordinates": [ 50.976562, 16.299051 ] } }
{"year": "BC523",  "type": "Feature", "tippecanoe": { "layer": "2AFCA7FCF0481583918936703", "minzoom": 2, "maxzoom": 8 }, "properties": { "halo": 0.8, "title": "剑浮沙国", "fontsize": 12, "tyid": "304000", "oid": "103:1576575192143", "color": "#202020" }, "geometry": { "type": "Point", "coordinates": [ 71.630859, 34.234512 ] } }
{"year": "BC523",  "type": "Feature", "tippecanoe": { "layer": "2AFCA7FCF0481583918936703", "minzoom": 2, "maxzoom": 8 }, "properties": { "halo": 0.8, "title": "阿比萨雷斯人", "fontsize": 12, "tyid": "304001", "oid": "103:1576575192327", "color": "#262626" }, "geometry": { "type": "Point", "coordinates": [ 73.564453, 32.546813 ] } }
{"year": "BC523",  "type": "Feature", "tippecanoe": { "layer": "2AFCA7FCF0481583918936703", "minzoom": 2, "maxzoom": 8 }, "properties": { "halo": 0.8, "title": "哥兰迪亚王朝", "fontsize": 12, "tyid": "304000", "oid": "103:1576575192465", "color": "#202020" }, "geometry": { "type": "Point", "coordinates": [ 74.970703, 34.016242 ] } }
{"year": "BC523",  "type": "Feature", "tippecanoe": { "layer": "2AFCA7FCF0481583918936703", "minzoom": 2, "maxzoom": 8 }, "properties": { "halo": 0.8, "title": "信度古王国", "fontsize": 12, "tyid": "304000", "oid": "103:1576575192430", "color": "#202020" }, "geometry": { "type": "Point", "coordinates": [ 68.466797, 26.824071 ] } }
{"year": "BC523",  "type": "Feature", "tippecanoe": { "layer": "2AFCA7FCF0481583918936703", "minzoom": 2, "maxzoom": 8 }, "properties": { "halo": 0.8, "title": "俱卢国", "fontsize": 12, "tyid": "304000", "oid": "103:1576575192057", "color": "#202020" }, "geometry": { "type": "Point", "coordinates": [ 76.904297, 29.688053 ] } }
{"year": "BC523",  "type": "Feature", "tippecanoe": { "layer": "2AFCA7FCF0481583918936703", "minzoom": 2, "maxzoom": 8 }, "properties": { "halo": 0.8, "title": "摩差国", "fontsize": 12, "tyid": "304000", "oid": "103:1576575192173", "color": "#202020" }, "geometry": { "type": "Point", "coordinates": [ 75.410156, 26.745610 ] } }
{"year": "BC523",  "type": "Feature", "tippecanoe": { "layer": "2AFCA7FCF0481583918936703", "minzoom": 2, "maxzoom": 8 }, "properties": { "halo": 0.8, "title": "苏罗娑国", "fontsize": 12, "tyid": "304000", "oid": "103:1576575192139", "color": "#202020" }, "geometry": { "type": "Point", "coordinates": [ 77.783203, 26.509905 ] } }
{"year": "BC523",  "type": "Feature", "tippecanoe": { "layer": "2AFCA7FCF0481583918936703", "minzoom": 2, "maxzoom": 8 }, "properties": { "halo": 0.8, "title": "般遮罗国", "fontsize": 12, "tyid": "304000", "oid": "103:1576575192513", "color": "#202020" }, "geometry": { "type": "Point", "coordinates": [ 79.189453, 27.839076 ] } }
{"year": "BC523",  "type": "Feature", "tippecanoe": { "layer": "2AFCA7FCF0481583918936703", "minzoom": 2, "maxzoom": 8 }, "properties": { "halo": 0.8, "title": "克拉底王国", "fontsize": 12, "tyid": "304000", "oid": "103:1576575192532", "color": "#202020" }, "geometry": { "type": "Point", "coordinates": [ 84.199219, 28.071980 ] } }
{"year": "BC523",  "type": "Feature", "tippecanoe": { "layer": "2AFCA7FCF0481583918936703", "minzoom": 2, "maxzoom": 8 }, "properties": { "halo": 0.8, "title": "车底国", "fontsize": 12, "tyid": "304000", "oid": "103:1576575192062", "color": "#202020" }, "geometry": { "type": "Point", "coordinates": [ 79.716797, 24.766785 ] } }
{"year": "BC523",  "type": "Feature", "tippecanoe": { "layer": "2AFCA7FCF0481583918936703", "minzoom": 2, "maxzoom": 8 }, "properties": { "halo": 0.8, "title": "拘萨罗国", "fontsize": 12, "tyid": "304000", "oid": "103:1576575192150", "color": "#202020" }, "geometry": { "type": "Point", "coordinates": [ 82.089844, 26.745610 ] } }
{"year": "BC523",  "type": "Feature", "tippecanoe": { "layer": "2AFCA7FCF0481583918936703", "minzoom": 2, "maxzoom": 8 }, "properties": { "halo": 0.8, "title": "末罗国", "fontsize": 12, "tyid": "304000", "oid": "103:1576575192160", "color": "#202020" }, "geometry": { "type": "Point", "coordinates": [ 83.847656, 26.431228 ] } }
{"year": "BC523",  "type": "Feature", "tippecanoe": { "layer": "2AFCA7FCF0481583918936703", "minzoom": 2, "maxzoom": 8 }, "properties": { "halo": 0.8, "title": "跋阇国", "fontsize": 12, "tyid": "304000", "oid": "103:1576575192422", "color": "#202020" }, "geometry": { "type": "Point", "coordinates": [ 85.341797, 26.588527 ] } }
{"year": "BC523",  "type": "Feature", "tippecanoe": { "layer": "2AFCA7FCF0481583918936703", "minzoom": 2, "maxzoom": 8 }, "properties": { "halo": 0.8, "title": "摩揭陀诃黎王朝", "fontsize": 12, "tyid": "304000", "oid": "103:1576575192334", "color": "#202020" },