{"year": "BC539",  "type": "Feature", "tippecanoe": { "layer": "2AFCA89988281583918957812", "minzoom": 2, "maxzoom": 8 }, "properties": { "halo": 1.6, "title": "阿普克斯文化", "fontsize": 12, "tyid": "304002", "oid": "103:1559046782774", "color": "#0056E7" }, "geometry": { "type": "Point", "coordinates": [ -104.677734, 39.504041 ] } }
{"year": "BC539",  "type": "Feature", "tippecanoe": { "layer": "2AFCA89988281583918957812", "minzoom": 2, "maxzoom": 8 }, "properties": { "halo": 1.6, "title": "米斯特克人", "fontsize": 12, "tyid": "304001", "oid": "103:1559046782266", "color": "#0056E7" }, "geometry": { "type": "Point", "coordinates": [ -98.349609, 17.224758 ] } }
{"year": "BC539",  "type": "Feature", "tippecanoe": { "layer": "2AFCA89988281583918957812", "minzoom": 2, "maxzoom": 8 }, "properties": { "halo": 1.6, "title": "特里克人", "fontsize": 12, "tyid": "304001", "oid": "103:1559046782240", "color": "#0056E7" }, "geometry": { "type": "Point", "coordinates": [ -97.294922, 17.644022 ] } }
{"year": "BC539",  "type": "Feature", "tippecanoe": { "layer": "2AFCA89988281583918957812", "minzoom": 2, "maxzoom": 8 }, "properties": { "halo": 1.6, "title": "麦克斯人", "fontsize": 12, "tyid": "304001", "oid": "103:1559046782092", "color": "#0056E7" }, "geometry": { "type": "Point", "coordinates": [ -96.064453, 17.727759 ] } }
{"year": "BC539",  "type": "Feature", "tippecanoe": { "layer": "2AFCA89988281583918957812", "minzoom": 2, "maxzoom": 8 }, "properties": { "halo": 1.6, "title": "祖赫人", "fontsize": 12, "tyid": "304001", "oid": "103:1559046782204", "color": "#0056E7" }, "geometry": { "type": "Point", "coordinates": [ -92.021484, 16.045813 ] } }
{"year": "BC539",  "type": "Feature", "tippecanoe": { "layer": "2AFCA89988281583918957812", "minzoom": 2, "maxzoom": 8 }, "properties": { "halo": 1.6, "title": "基切人", "fontsize": 12, "tyid": "304001", "oid": "103:1559046782855", "color": "#0056E7" }, "geometry": { "type": "Point", "coordinates": [ -90.966797, 15.029686 ] } }
{"year": "BC539",  "type": "Feature", "tippecanoe": { "layer": "2AFCA89988281583918957812", "minzoom": 2, "maxzoom": 8 }, "properties": { "halo": 1.6, "title": "阿尔托山文化", "fontsize": 12, "tyid": "304002", "oid": "103:1559046782391", "color": "#0056E7" }, "geometry": { "type": "Point", "coordinates": [ -91.054688, 14.349548 ] } }
{"year": "BC539",  "type": "Feature", "tippecanoe": { "layer": "2AFCA89988281583918957812", "minzoom": 2, "maxzoom": 8 }, "properties": { "halo": 1.6, "title": "贝尔格莱德文化", "fontsize": 12, "tyid": "304002", "oid": "103:1559046782171", "color": "#0056E7" }, "geometry": { "type": "Point", "coordinates": [ -80.859375, 27.137368 ] } }
{"year": "BC539",  "type": "Feature", "tippecanoe": { "layer": "2AFCA89988281583918957812", "minzoom": 2, "maxzoom": 8 }, "properties": { "halo": 1.6, "title": "第纳尔特时期", "fontsize": 12, "tyid": "304002", "oid": "103:1559046782846", "color": "#0056E7" }, "geometry": { "type": "Point", "coordinates": [ -85.605469, 11.523088 ] } }
{"year": "BC539",  "type": "Feature", "tippecanoe": { "layer": "2AFCA89988281583918957812", "minzoom": 2, "maxzoom": 8 }, "properties": { "halo": 1.6, "title": "格兰科克勒文化", "fontsize": 12, "tyid": "304002", "oid": "103:1559046782446", "color": "#0056E7" }, "geometry": { "type": "Point", "coordinates": [ -80.507812, 8.581021 ] } }
{"year": "BC539",  "type": "Feature", "tippecanoe": { "layer": "2AFCA89988281583918957812", "minzoom": 2, "maxzoom": 8 }, "properties": { "halo": 1.6, "title": "伊拉玛文化", "fontsize": 12, "tyid": "304002", "oid": "103:1559046781995", "color": "#0056E7" }, "geometry": { "type": "Point", "coordinates": [ -76.376953, 3.951941 ] } }
{"year": "BC539",  "type": "Feature", "tippecanoe": { "layer": "2AFCA89988281583918957812", "minzoom": 2, "maxzoom": 8 }, "properties": { "halo": 1.6, "title": "阿伯里亚文化", "fontsize": 12, "tyid": "304002", "oid": "103:1559046782499", "color": "#0056E7" }, "geometry": { "type": "Point", "coordinates": [ -74.179688, 4.740675 ] } }
{"year": "BC539",  "type": "Feature", "tippecanoe": { "layer": "2AFCA89988281583918957812", "minzoom": 2, "maxzoom": 8 }, "properties": { "halo": 1.6, "title": "科罗索文化", "fontsize": 12, "tyid": "304002", "oid": "103:1559046782837", "color": "#0056E7" }, "geometry": { "type": "Point", "coordinates": [ -66.533203, 18.229351 ] } }
{"year": "BC539",  "type": "Feature", "tippecanoe": { "layer": "2AFCA89988281583918957812", "minzoom": 2, "maxzoom": 8 }, "properties": { "halo": 1.6, "title": "克鲁姆湾文化", "fontsize": 12, "tyid": "304002", "oid": "103:1559046782857", "color": "#0056E7" }, "geometry": { "type": "Point", "coordinates": [ -64.775391, 17.811456 ] } }
{"year": "BC539",  "type": "Feature", "tippecanoe": { "layer": "2AFCA89988281583918957812", "minzoom": 2, "maxzoom": 8 }, "properties": { "halo": 1.6, "title": "奥托罗伊德人", "fontsize": 12, "tyid": "304001", "oid": "103:1559046782901", "color": "#0056E7" }, "geometry": { "type": "Point", "coordinates": [ -61.347656, 10.487812 ] } }
{"year": "BC539",  "type": "Feature", "tippecanoe": { "layer": "2AFCA89988281583918957812", "minzoom": 2, "maxzoom": 8 }, "properties": { "halo": 1.6, "title": "巴斯克人", "fontsize": 12, "tyid": "304001", "oid": "103:1559046782985", "color": "#0056E7" }, "geometry": { "type": "Point", "coordinates": [ -1.494141, 42.811522 ] } }
{"year": "BC539",  "type": "Feature", "tippecanoe": { "layer": "2AFCA89988281583918957812", "minzoom": 2, "maxzoom": 8 }, "properties": { "halo": 1.6, "title": "伊塞塔尼人", "fontsize": 12, "tyid": "304001", "oid": "103:1559046781988", "color": "#0056E7" }, "geometry": { "type": "Point", "coordinates": [ -0.966797, 42.423457 ] } }
{"year": "BC539",  "type": "Feature", "tippecanoe": { "layer": "2AFCA89988281583918957812", "minzoom": 2, "maxzoom": 8 }, "properties": { "halo": 1.6, "title": "关切人", "fontsize": 12, "tyid": "304001", "oid": "103:1559046782684", "color": "#0056E7" }, "geometry": { "type": "Point", "coordinates": [ -16.611328, 28.304381 ] } }
{"year": "BC539",  "type": "Feature", "tippecanoe": { "layer": "2AFCA89988281583918957812", "minzoom": 2, "maxzoom": 8 }, "properties": { "halo": 1.6, "title": "伊利尔卡沃尼人", "fontsize": 12, "tyid": "304001", "oid": "103:1559046781998", "color": "#0056E7" }, "geometry": { "type": "Point", "coordinates": [ -0.263672, 40.847060 ] } }
{"year": "BC539",  "type": "Feature", "tippecanoe": { "layer": "2AFCA89988281583918957812", "minzoom": 2, "maxzoom": 8 }, "properties": { "halo": 1.6, "title": "埃德塔尼人", "fontsize": 12, "tyid": "304001", "oid": "103:1559046782193", "color": "#0056E7" }, "geometry": { "type": "Point", "coordinates": [ -0.966797, 39.639538 ] } }
{"year": "BC539",  "type": "Feature", "tippecanoe": { "layer": "2AFCA89988281583918957812", "minzoom": 2, "maxzoom": 8 }, "properties": { "halo": 1.6, "title": "康斯塔尼人", "fontsize": 12, "tyid": "304001", "oid": "103:1559046782121", "color": "#0056E7" }, "geometry": { "type": "Point", "coordinates": [ -0.878906, 38.685510 ] } }
{"year": "BC539",  "type": "Feature", "tippecanoe": { "layer": "2AFCA89988281583918957812", "minzoom": 2, "maxzoom": 8 }, "properties": { "halo": 1.6, "title": "科特克拉文化", "fontsize": 12, "tyid": "304002", "oid": "103:1559046782456", "color": "#0056E7" }, "geometry": { "type": "Point", "coordinates": [ -78.398438, -0.351560 ] } }
{"year": "BC539",  "type": "Feature", "tippecanoe": { "layer": "2AFCA89988281583918957812", "minzoom": 2, "maxzoom": 8 }, "properties": { "halo": 1.6, "title": "查文文化", "fontsize": 12, "tyid": "304002", "oid": "103:1559046782481", "color": "#0056E7" }, "geometry": { "type": "Point", "coordinates": [ -77.783203, -8.494105 ] } }
{"year": "BC539",  "type": "Feature", "tippecanoe": { "layer": "2AFCA89988281583918957812", "minzoom": 2, "maxzoom": 8 }, "properties": { "halo": 1.6, "title": "卡斯马-赛钦文化", "fontsize": 12, "tyid": "304002", "oid": "103:1559046782512", "color": "#0056E7" }, "geometry": { "type": "Point", "coordinates": [ -77.958984, -9.622414 ] } }
{"year": "BC539",  "type": "Feature", "tippecanoe": { "layer": "2AFCA89988281583918957812", "minzoom": 2, "maxzoom": 8 }, "properties": { "halo": 1.6, "title": "帕拉卡斯文化", "fontsize": 12, "tyid": "304002", "oid": "103:1559046782448", "color": "#0056E7" }, "geometry": { "type": "Point", "coordinates": [ -75.673828, -14.179186 ] } }
{"year": "BC539",  "type": "Feature", "tippecanoe": { "layer": "2AFCA89988281583918957812", "minzoom": 2, "maxzoom": 8 }, "properties": { "halo": 1.6, "title": "卡鲁尤文化", "fontsize": 12, "tyid": "304002", "oid": "103:1559046782739", "color": "#0056E7" }, "geometry": { "type": "Point", "coordinates": [ -70.136719, -15.114553 ] } }
{"year": "BC539",  "type": "Feature", "tippecanoe": { "layer": "2AFCA89988281583918957812", "minzoom": 2, "maxzoom": 8 }, "properties": { "halo": 1.6, "title": "豪什人", "fontsize": 12, "tyid": "304001", "oid": "103:1559046782459", "color": "#0056E7" }, "geometry": { "type": "Point", "coordinates": [ -65.917969, -54.724620 ] } }
{"year": "BC539",  "type": "Feature", "tippecanoe": { "layer": "2AFCA89988281583918957812", "minzoom": 2, "maxzoom": 8 }, "properties": { "halo": 1.6, "title": "拉塞塔尼人", "fontsize": 12, "tyid": "304001", "oid": "103:1559046782969", "color": "#0056E7" }, "geometry": { "type": "Point", "coordinates": [ 1.054688, 41.442726 ] } }
{"year": "BC539",  "type": "Feature", "tippecanoe": { "layer": "2AFCA89988281583918957812", "minzoom": 2, "maxzoom": 8 }, "properties": { "halo": 1.6, "title": "英迪格人", "fontsize": 12, "tyid": "304001", "oid": "103:1559046782963", "color": "#0056E7" }, "geometry": { "type": "Point", "coordinates": [ 2.285156, 42.163403 ] } }
{"year": "BC539",  "type": "Feature", "tippecanoe": { "layer": "2AFCA89988281583918957812", "minzoom": 2, "maxzoom": 8 }, "properties": { "halo": 1.8, "title": "马萨利亚", "fontsize": 12, "tyid": "304000", "oid": "103:1559046782803", "color": "#0056E7" }, "geometry": { "type": "Point", "coordinates": [ 5.449219, 43.325178 ] } }
{"year": "BC539",  "type": "Feature", "tippecanoe": { "layer": "2AFCA89988281583918957812", "minzoom": 2, "maxzoom": 8 }, "properties": { "halo": 1.8, "title": "帕莱波利斯", "fontsize": 12, "tyid": "304000", "oid": "103:1559046782807", "color": "#0056E7" }, "geometry": { "type": "Point", "coordinates": [ 3.076172, 42.163403 ] } }
{"year": "BC539",  "type": "Feature", "tippecanoe": { "layer": "2AFCA89988281583918957812", "minzoom": 2, "maxzoom": 8 }, "properties": { "halo": 1.6, "title": "格拉塞卡文化", "fontsize": 12, "tyid": "304001", "oid": "103:1559046782919", "color": "#0056E7" }, "geometry": { "type": "Point", "coordinates": [ 9.492188, 45.460131 ] } }
{"year": "BC539",  "type": "Feature", "tippecanoe": { "layer": "2AFCA89988281583918957812", "minzoom": 2, "maxzoom": 8 }, "properties": { "halo": 1.6, "title": "卡莫尼卡人", "fontsize": 12, "tyid": "304001", "oid": "103:1559046782300", "color": "#0056E7" }, "geometry": { "type": "Point", "coordinates": [ 10.283203, 46.012224 ] } }
{"year": "BC539",  "type": "Feature", "tippecanoe": { "layer": "2AFCA89988281583918957812", "minzoom": 2, "maxzoom": 8 }, "properties": { "halo": 1.8, "title": "摩诺伊科", "fontsize": 12, "tyid": "304000", "oid": "103:1559046782421", "color": "#0056E7" }, "geometry": { "type": "Point", "coordinates": [ 7.382812, 43.771094 ] } }
{"year": "BC539",  "type": "Feature", "tippecanoe": { "layer": "2AFCA89988281583918957812", "minzoom": 2, "maxzoom": 8 }, "properties": { "halo": 1.8, "title": "阿拉利亚", "fontsize": 12, "tyid": "304000", "oid": "103:1559046782682", "color": "#0056E7" }, "geometry": { "type": "Point", "coordinates": [ 9.404297, 42.098222 ] } }
{"year": "BC539",  "type": "Feature", "tippecanoe": { "layer": "2AFCA89988281583918957812", "minzoom": 2, "maxzoom": 8 }, "properties": { "halo": 1.6, "title": "科西人", "fontsize": 12, "tyid": "304001", "oid": "103:1559046783019", "color": "#0056E7" }, "geometry": { "type": "Point", "coordinates": [ 9.228516, 41.112469 ] } }
{"year": "BC539",  "type": "Feature", "tippecanoe": { "layer": "2AFCA89988281583918957812", "minzoom": 2, "maxzoom": 8 }, "properties": { "halo": 1.8, "title": "罗马王政时代", "fontsize": 12, "tyid": "304000", "oid": "103:1559046782735", "color": "#0056E7" }, "geometry": { "type": "Point", "coordinates": [ 12.480469, 41.902277 ] } }
{"year": "BC539",  "type": "Feature", "tippecanoe": { "layer": "2AFCA89988281583918957812", "minzoom": 2, "maxzoom": 8 }, "properties": { "halo": 1.6, "title": "翁布里亚人", "fontsize": 12, "tyid": "304001", "oid": "103:1559046782397", "color": "#0056E7" }, "geometry": { "type": "Point", "coordinates": [ 12.832031, 42.811522 ] } }
{"year": "BC539",  "type": "Feature", "tippecanoe": { "layer": "2AFCA89988281583918957812", "minzoom": 2, "maxzoom": 8 }, "properties": { "halo": 1.6, "title": "萨宾人", "fontsize": 12, "tyid": "304001", "oid": "103:1559046782053", "color": "#0056E7" }, "geometry": { "type": "Point", "coordinates": [ 12.656250, 42.098222 ] } }
{"year": "BC539",  "type": "Feature", "tippecanoe": { "layer": "2AFCA89988281583918957812", "minzoom": 2, "maxzoom": 8 }, "properties": { "halo": 1.6, "title": "皮森特人", "fontsize": 12, "tyid": "304001", "oid": "103:1559046782291", "color": "#0056E7" }, "geometry": { "type": "Point", "coordinates": [ 13.535156, 43.004647 ] } }
{"year": "BC539",  "type": "Feature", "tippecanoe": { "layer": "2AFCA89988281583918957812", "minzoom": 2, "maxzoom": 8 }, "properties": { "halo": 1.6, "title": "拉丁人", "fontsize": 12, "tyid": "304001", "oid": "103:1559046782084", "color": "#0056E7" }, "geometry": { "type": "Point", "coordinates": [ 12.832031, 41.640078 ] } }
{"year": "BC539",  "type": "Feature", "tippecanoe": { "layer": "2AFCA89988281583918957812", "minzoom": 2, "maxzoom": 8 }, "properties": { "halo": 1.6, "title": "奥斯坎人", "fontsize": 12, "tyid": "304001", "oid": "103:1559046782389", "color": "#0056E7" }, "geometry": { "type": "Point", "coordinates": [ 13.447266, 41.442726 ] } }
{"year": "BC539",  "type": "Feature", "tippecanoe": { "layer": "2AFCA89988281583918957812", "minzoom": 2, "maxzoom": 8 }, "properties": { "halo": 1.6, "title": "道尼人", "fontsize": 12, "tyid": "304001", "oid": "103:1559046782579", "color": "#0056E7" }, "geometry": { "type": "Point", "coordinates": [ 15.292969, 41.705729 ] } }
{"year": "BC539",  "type": "Feature", "tippecanoe": { "layer": "2AFCA89988281583918957812", "minzoom": 2, "maxzoom": 8 }, "properties": { "halo": 1.6, "title": "佩乌克提伊人", "fontsize": 12, "tyid": "304001", "oid": "103:1559046782294", "color": "#0056E7" }, "geometry": { "type": "Point", "coordinates": [ 16.347656, 41.046217 ] } }
{"year": "BC539",  "type": "Feature", "tippecanoe": { "layer": "2AFCA89988281583918957812", "minzoom": 2, "maxzoom": 8 }, "properties": { "halo": 1.6, "title": "培奥尼亚人", "fontsize": 12, "tyid": "304001", "oid": "103:1559046782255", "color": "#0056E7" }, "geometry": { "type": "Point", "coordinates": [ 22.148438, 41.771312 ] } }
{"year": "BC539",  "type": "Feature", "tippecanoe": { "layer": "2AFCA89988281583918957812", "minzoom": 2, "maxzoom": 8 }, "properties": { "halo": 1.8, "title": "阿布德拉", "fontsize": 12, "tyid": "304000", "oid": "103:1559046782993", "color": "#0056E7" }, "geometry": { "type": "Point", "coordinates": [ 24.960938, 41.046217 ] } }
{"year": "BC539",  "type": "Feature", "tippecanoe": { "layer": "2AFCA89988281583918957812", "minzoom": 2, "maxzoom": 8 }, "properties": { "halo": 1.8, "title": "奥德索斯", "fontsize": 12, "tyid": "304000", "oid": "103:1559046782766", "color": "#0056E7" }, "geometry": { "type": "Point", "coordinates": [ 27.861328, 43.261206 ] } }
{"year": "BC539",  "type": "Feature", "tippecanoe": { "layer": "2AFCA89988281583918957812", "minzoom": 2, "maxzoom": 8 }, "properties": { "halo": 1.8, "title": "阿波罗尼亚·潘提卡", "fontsize": 12, "tyid": "304000", "oid": "103:1559046782696", "color": "#0056E7" }, "geometry": { "type": "Point", "coordinates": [ 27.685547, 42.423457 ] } }
{"year": "BC539",  "type": "Feature", "tippecanoe": { "layer": "2AFCA89988281583918957812", "minzoom": 2, "maxzoom": 8 }, "properties": { "halo": 1.8, "title": "提拉斯", "fontsize": 12, "tyid": "304000", "oid": "103:1559046783095", "color": "#0056E7" }, "geometry": { "type": "Point", "coordinates": [ 30.234375, 46.134170 ] } }
{"year": "BC539",  "type": "Feature", "tippecanoe": { "layer": "2AFCA89988281583918957812", "minzoom": 2, "maxzoom": 8 }, "properties": { "halo": 1.8, "title": "敖德萨", "fontsize": 12, "tyid": "304000", "oid": "103:1559046782849", "color": "#0056E7" }, "geometry": { "type": "Point", "coordinates": [ 30.585938, 46.498392 ] } }
{"year": "BC539",  "type": "Feature", "tippecanoe": { "layer": "2AFCA89988281583918957812", "minzoom": 2, "maxzoom": 8 }, "properties": { "halo": 1.6, "title": "奥里维亚", "fontsize": 12, "tyid": "304002", "oid": "103:1559046782322", "color": "#0056E7" }, "geometry": { "type": "Point", "coordinates": [ 31.816406, 46.679594 ] } }
{"year": "BC539",  "type": "Feature", "tippecanoe": { "layer": "2AFCA89988281583918957812", "minzoom": 2, "maxzoom": 8 }, "properties": { "halo": 1.8, "title": "希斯特里亚", "fontsize": 12, "tyid": "304000", "oid": "103:1559046783093", "color": "#0056E7" }, "geometry": { "type": "Point", "coordinates": [ 28.740234, 44.527843 ] } }
{"year": "BC539",  "type": "Feature", "tippecanoe": { "layer": "2AFCA89988281583918957812", "minzoom": 2, "maxzoom": 8 }, "properties": { "halo": 1.8, "title": "托米斯", "fontsize": 12, "tyid": "304000", "oid": "103:1559046782899", "color": "#0056E7" }, "geometry": { "type": "Point", "coordinates": [ 28.476562, 44.213710 ] } }
{"year": "BC539",  "type": "Feature", "tippecanoe": { "layer": "2AFCA89988281583918957812", "minzoom": 2, "maxzoom": 8 }, "properties": { "halo": 1.8, "title": "埃吉索斯", "fontsize": 12, "tyid": "304000", "oid": "103:1559046782334", "color": "#0056E7" }, "geometry": { "type": "Point", "coordinates": [ 29.355469, 45.026950 ] } }
{"year": "BC539",  "type": "Feature", "tippecanoe": { "layer": "2AFCA89988281583918957812", "minzoom": 2, "maxzoom": 8 }, "properties": { "halo": 1.8, "title": "卡拉提斯", "fontsize": 12, "tyid": "304000", "oid": "103:1559046783090", "color": "#0056E7" }, "geometry": { "type": "Point", "coordinates": [ 28.564453, 43.834527 ] } }
{"year": "BC539",  "type": "Feature", "tippecanoe": { "layer": "2AFCA89988281583918957812", "minzoom": 2, "maxzoom": 8 }, "properties": { "halo": 1.6, "title": "拜占庭", "fontsize": 12, "tyid": "304002", "oid": "103:1559046782664", "color": "#0056E7" }, "geometry": { "type": "Point", "coordinates": [ 28.828125, 41.112469 ] } }
{"year": "BC539",  "type": "Feature", "tippecanoe": { "layer": "2AFCA89988281583918957812", "minzoom": 2, "maxzoom": 8 }, "properties": { "halo": 1.8, "title": "克森尼索", "fontsize": 12, "tyid": "304000", "oid": "103:1559046783098", "color": "#0056E7" }, "geometry": { "type": "Point", "coordinates": [ 33.486328, 44.590467 ] } }
{"year": "BC539",  "type": "Feature", "tippecanoe": { "layer": "2AFCA89988281583918957812", "minzoom": 2, "maxzoom": 8 }, "properties": { "halo": 1.8, "title": "迈尔梅基翁", "fontsize": 12, "tyid": "304000", "oid": "103:1559046782104", "color": "#0056E7" }, "geometry": { "type": "Point", "coordinates": [ 36.298828, 45.398450 ] } }
{"year": "BC539",  "type": "Feature", "tippecanoe": { "layer": "2AFCA89988281583918957812", "minzoom": 2, "maxzoom": 8 }, "properties": { "halo": 1.8, "title": "潘提卡彭", "fontsize": 12, "tyid": "304000", "oid": "103:1559046782666", "color": "#0056E7" }, "geometry": { "type": "Point", "coordinates": [ 36.386719, 45.398450 ] } }
{"year": "BC539",  "type": "Feature", "tippecanoe": { "layer": "2AFCA89988281583918957812", "minzoom": 2, "maxzoom": 8 }, "properties": { "halo": 1.8, "title": "尼菲恩", "fontsize": 12, "tyid": "304000", "oid": "103:1559046783103", "color": "#0056E7" }, "geometry": { "type": "Point", "coordinates": [ 36.298828, 45.274886 ] } }
{"year": "BC539",  "type": "Feature", "tippecanoe": { "layer": "2AFCA89988281583918957812", "minzoom": 2, "maxzoom": 8 }, "properties": { "halo": 1.8, "title": "泰里塔克", "fontsize": 12, "tyid": "304000", "oid": "103:1559046783101", "color": "#0056E7" }, "geometry": { "type": "Point", "coordinates": [ 36.386719, 45.336702 ] } }
{"year": "BC539",  "type": "Feature", "tippecanoe": { "layer": "2AFCA89988281583918957812", "minzoom": 2, "maxzoom": 8 }, "properties": { "halo": 1.8, "title": "赫尔莫纳萨", "fontsize": 12, "tyid": "304000", "oid": "103:1559046782094", "color": "#0056E7" }, "geometry": { "type": "Point", "coordinates": [ 36.650391, 45.213004 ] } }
{"year": "BC539",  "type": "Feature", "tippecanoe": { "layer": "2AFCA89988281583918957812", "minzoom": 2, "maxzoom": 8 }, "properties": { "halo": 1.8, "title": "帕纳戈里亚", "fontsize": 12, "tyid": "304000", "oid": "103:1559046782418", "color": "#0056E7" }, "geometry": { "type": "Point", "coordinates": [ 36.914062, 45.336702 ] } }
{"year": "BC539",  "type": "Feature", "tippecanoe": { "layer": "2AFCA89988281583918957812", "minzoom": 2, "maxzoom": 8 }, "properties": { "halo": 1.8, "title": "克波伊", "fontsize": 12, "tyid": "304000", "oid": "103:1559046782732", "color": "#0056E7" }, "geometry": { "type": "Point", "coordinates": [ 37.001953, 45.336702 ] } }
{"year": "BC539",  "type": "Feature", "tippecanoe": { "layer": "2AFCA89988281583918957812", "minzoom": 2, "maxzoom": 8 }, "properties": { "halo": 1.6, "title": "杜林人", "fontsize": 12, "tyid": "304001", "oid": "103:1559046782700", "color": "#0056E7" }, "geometry": { "type": "Point", "coordinates": [ 34.453125, 44.964798 ] } }
{"year": "BC539",  "type": "Feature", "tippecanoe": { "layer": "2AFCA89988281583918957812", "minzoom": 2, "maxzoom": 8 }, "properties": { "halo": 1.8, "title": "西奥多西亚", "fontsize": 12, "tyid": "304000", "oid": "103:1559046782844", "color": "#0056E7" }, "geometry": { "type": "Point", "coordinates": [ 35.332031, 45.089036 ] } }
{"year": "BC539",  "type": "Feature", "tippecanoe": { "layer": "2AFCA89988281583918957812", "minzoom": 2, "maxzoom": 8 }, "properties": { "halo": 1.8, "title": "戈尔吉皮亚", "fontsize": 12, "tyid": "304000", "oid": "103:1559046782570", "color": "#0056E7" }, "geometry": { "type": "Point", "coordinates": [ 37.265625, 44.902578 ] } }
{"year": "BC539",  "type": "Feature", "tippecanoe": { "layer": "2AFCA89988281583918957812", "minzoom": 2, "maxzoom": 8 }, "properties": { "halo": 1.8, "title": "特里格莱特", "fontsize": 12, "tyid": "304000", "oid": "103:1559046782612", "color": "#0056E7" }, "geometry": { "type": "Point", "coordinates": [ 40.253906, 43.261206 ] } }
{"year": "BC539",  "type": "Feature", "tippecanoe": { "layer": "2AFCA89988281583918957812", "minzoom": 2, "maxzoom": 8 }, "properties": { "halo": 1.8, "title": "狄奥斯库里亚", "fontsize": 12, "tyid": "304000", "oid": "103:1559046782805", "color": "#0056E7" }, "geometry": { "type": "Point", "coordinates": [ 40.957031, 43.068888 ] } }
{"year": "BC539",  "type": "Feature", "tippecanoe": { "layer": "2AFCA89988281583918957812", "minzoom": 2, "maxzoom": 8 }, "properties": { "halo": 1.8, "title": "费西斯", "fontsize": 12, "tyid": "304000", "oid": "103:1559046782525", "color": "#0056E7" }, "geometry": { "type": "Point", "coordinates": [ 41.660156, 42.163403 ] } }
{"year": "BC539",  "type": "Feature", "tippecanoe": { "layer": "2AFCA89988281583918957812", "minzoom": 2, "maxzoom": 8 }, "properties": { "halo": 1.8, "title": "巴斯", "fontsize": 12, "tyid": "304000", "oid": "103:1559046782756", "color": "#0056E7" }, "geometry": { "type": "Point", "coordinates": [ 41.660156, 41.640078 ] } }
{"year": "BC539",  "type": "Feature", "tippecanoe": { "layer": "2AFCA89988281583918957812", "minzoom": 2, "maxzoom": 8 }, "properties": { "halo": 1.6, "title": "巴拉雷人", "fontsize": 12, "tyid": "304001", "oid": "103:1559046782530", "color": "#0056E7" }, "geometry": { "type": "Point", "coordinates": [ 9.052734, 40.580585 ] } }
{"year": "BC539",  "type": "Feature", "tippecanoe": { "layer": "2AFCA89988281583918957812", "minzoom": 2, "maxzoom": 8 }, "properties": { "halo": 1.6, "title": "西古里人", "fontsize": 12, "tyid": "304001", "oid": "103:1559046782603", "color": "#0056E7" }, "geometry": { "type": "Point", "coordinates": [ 14.501953, 37.509726 ] } }
{"year": "BC539",  "type": "Feature", "tippecanoe": { "layer": "2AFCA89988281583918957812", "minzoom": 2, "maxzoom": 8 }, "properties": { "halo": 1.6, "title": "梅萨皮伊人", "fontsize": 12, "tyid": "304001", "oid": "103:1559046782776", "color": "#0056E7" }, "geometry": { "type": "Point", "coordinates": [ 17.490234, 40.647304 ] } }
{"year": "BC539",  "type": "Feature", "tippecanoe": { "layer": "2AFCA89988281583918957812", "minzoom": 2, "maxzoom": 8 }, "properties": { "halo": 1.8, "title": "大希腊", "fontsize": 12, "tyid": "304000", "oid": "103:1559046782150", "color": "#0056E7" }, "geometry": { "type": "Point", "coordinates": [ 16.875000, 39.232253 ] } }
{"year": "BC539",  "type": "Feature", "tippecanoe": { "layer": "2AFCA89988281583918957812", "minzoom": 2, "maxzoom": 8 }, "properties": { "halo": 1.6, "title": "查乌内斯人", "fontsize": 12, "tyid": "304001", "oid": "103:1559046782229", "color": "#0056E7" }, "geometry": { "type": "Point", "coordinates": [ 20.126953, 40.713956 ] } }
{"year": "BC539",  "type": "Feature", "tippecanoe": { "layer": "2AFCA89988281583918957812", "minzoom": 2, "maxzoom": 8 }, "properties": { "halo": 1.6, "title": "莫洛西人", "fontsize": 12, "tyid": "304001", "oid": "103:1559046782072", "color": "#0056E7" }, "geometry": { "type": "Point", "coordinates": [ 20.478516, 39.977120 ] } }
{"year": "BC539",  "type": "Feature", "tippecanoe": { "layer": "2AFCA89988281583918957812", "minzoom": 2, "maxzoom": 8 }, "properties": { "halo": 1.6, "title": "塞斯普罗蒂人", "fontsize": 12, "tyid": "304001", "oid": "103:1559046782359", "color": "#0056E7" }, "geometry": { "type": "Point", "coordinates": [ 20.917969, 39.436193 ] } }
{"year": "BC539",  "type": "Feature", "tippecanoe": { "layer": "2AFCA89988281583918957812", "minzoom": 2, "maxzoom": 8 }, "properties": { "halo": 1.8, "title": "厄利斯", "fontsize": 12, "tyid": "304000", "oid": "103:1559046782832", "color": "#0056E7" }, "geometry": { "type": "Point", "coordinates": [ 21.269531, 37.857507 ] } }
{"year": "BC539",  "type": "Feature", "tippecanoe": { "layer": "2AFCA89988281583918957812", "minzoom": 2, "maxzoom": 8 }, "properties": { "halo": 1.6, "title": "阿凯亚人", "fontsize": 12, "tyid": "304001", "oid": "103:1559046783008", "color": "#0056E7" }, "geometry": { "type": "Point", "coordinates": [ 21.884766, 38.203655 ] } }
{"year": "BC539",  "type": "Feature", "tippecanoe": { "layer": "2AFCA89988281583918957812", "minzoom": 2, "maxzoom": 8 }, "properties": { "halo": 1.6, "title": "阿卡迪亚人", "fontsize": 12, "tyid": "304001", "oid": "103:1559046782593", "color": "#0056E7" }, "geometry": { "type": "Point", "coordinates": [ 21.972656, 37.718590 ] } }
{"year": "BC539",  "type": "Feature", "tippecanoe": { "layer": "2AFCA89988281583918957812", "minzoom": 2, "maxzoom": 8 }, "properties": { "halo": 1.8, "title": "特吉亚", "fontsize": 12, "tyid": "304000", "oid": "103:1559046782829", "color": "#0056E7" }, "geometry": { "type": "Point", "coordinates": [ 22.412109, 37.509726 ] } }
{"year": "BC539",  "type": "Feature", "tippecanoe": { "layer": "2AFCA89988281583918957812", "minzoom": 2, "maxzoom": 8 }, "properties": { "halo": 1.8, "title": "斯巴达", "fontsize": 12, "tyid": "304000", "oid": "103:1559046782415", "color": "#0056E7" }, "geometry": { "type": "Point", "coordinates": [ 22.324219, 37.020098 ] } }
{"year": "BC539",  "type": "Feature", "tippecanoe": { "layer": "2AFCA89988281583918957812", "minzoom": 2, "maxzoom": 8 }, "properties": { "halo": 1.8, "title": "昔兰尼", "fontsize": 12, "tyid": "304000", "oid": "103:1559046782988", "color": "#0056E7" }, "geometry": { "type": "Point", "coordinates": [ 21.533203, 32.546813 ] } }
{"year": "BC539",  "type": "Feature", "tippecanoe": { "layer": "2AFCA89988281583918957812", "minzoom": 2, "maxzoom": 8 }, "properties": { "halo": 1.8, "title": "斯塔吉乌斯", "fontsize": 12, "tyid": "304000", "oid": "103:1559046782799", "color": "#0056E7" }, "geometry": { "type": "Point", "coordinates": [ 23.642578, 40.647304 ] } }
{"year": "BC539",  "type": "Feature", "tippecanoe": { "layer": "2AFCA89988281583918957812", "minzoom": 2, "maxzoom": 8 }, "properties": { "halo": 1.8, "title": "奥林索斯", "fontsize": 12, "tyid": "304000", "oid": "103:1559046782851", "color": "#0056E7" }, "geometry": { "type": "Point", "coordinates": [ 23.291016, 40.313043 ] } }
{"year": "BC539",  "type": "Feature", "tippecanoe": { "layer": "2AFCA89988281583918957812", "minzoom": 2, "maxzoom": 8 }, "properties": { "halo": 1.8, "title": "波提狄亚", "fontsize": 12, "tyid": "304000", "oid": "103:1559046782492", "color": "#0056E7" }, "geometry": { "type": "Point", "coordinates": [ 23.291016, 40.245992 ] } }
{"year": "BC539",  "type": "Feature", "tippecanoe": { "layer": "2AFCA89988281583918957812", "minzoom": 2, "maxzoom": 8 }, "properties": { "halo": 1.8, "title": "安菲提斯", "fontsize": 12, "tyid": "304000", "oid": "103:1559046782649", "color": "#0056E7" }, "geometry": { "type": "Point", "coordinates": [ 23.378906, 40.111689 ] } }
{"year": "BC539",  "type": "Feature", "tippecanoe": { "layer": "2AFCA89988281583918957812", "minzoom": 2, "maxzoom": 8 }, "properties": { "halo": 1.8, "title": "蒙德", "fontsize": 12, "tyid": "304000", "oid": "103:1559046782426", "color": "#0056E7" }, "geometry": { "type": "Point", "coordinates": [ 23.378906, 40.044438 ] } }
{"year": "BC539",  "type": "Feature", "tippecanoe": { "layer": "2AFCA89988281583918957812", "minzoom": 2, "maxzoom": 8 }, "properties": { "halo": 1.8, "title": "阿卡索斯", "fontsize": 12, "tyid": "304000", "oid": "103:1559046782515", "color": "#0056E7" }, "geometry": { "type": "Point", "coordinates": [ 23.818359, 40.446947 ] } }
{"year": "BC539",  "type": "Feature", "tippecanoe": { "layer": "2AFCA89988281583918957812", "minzoom": 2, "maxzoom": 8 }, "properties": { "halo": 1.8, "title": "塞内", "fontsize": 12, "tyid": "304000", "oid": "103:1559046782033", "color": "#0056E7" }, "geometry": { "type": "Point", "coordinates": [ 23.906250, 40.380028 ] } }
{"year": "BC539",  "type": "Feature", "tippecanoe": { "layer": "2AFCA89988281583918957812", "minzoom": 2, "maxzoom": 8 }, "properties": { "halo": 1.8, "title": "托洛尼", "fontsize": 12, "tyid": "304000", "oid": "103:1559046782859", "color": "#0056E7" }, "geometry": { "type": "Point", "coordinates": [ 23.906250, 40.044438 ] } }
{"year": "BC539",  "type": "Feature", "tippecanoe": { "layer": "2AFCA89988281583918957812", "minzoom": 2, "maxzoom": 8 }, "properties": { "halo": 1.8, "title": "皮斯图鲁斯", "fontsize": 12, "tyid": "304000", "oid": "103:1559046782864", "color": "#0056E7" }, "geometry": { "type": "Point", "coordinates": [ 24.609375, 40.979898 ] } }
{"year": "BC539",  "type": "Feature", "tippecanoe": { "layer": "2AFCA89988281583918957812", "minzoom": 2, "maxzoom": 8 }, "properties": { "halo": 1.8, "title": "萨索斯", "fontsize": 12, "tyid": "304000", "oid": "103:1559046782044", "color": "#0056E7" }, "geometry": { "type": "Point", "coordinates": [ 24.609375, 40.713956 ] } }
{"year": "BC539",  "type": "Feature", "tippecanoe": { "layer": "2AFCA89988281583918957812", "minzoom": 2, "maxzoom": 8 }, "properties": { "halo": 1.8, "title": "利姆诺斯", "fontsize": 12, "tyid": "304000", "oid": "103:1559046782834", "color": "#0056E7" }, "geometry": { "type": "Point", "coordinates": [ 25.048828, 39.977120 ] } }
{"year": "BC539",  "type": "Feature", "tippecanoe": { "layer": "2AFCA89988281583918957812", "minzoom": 2, "maxzoom": 8 }, "properties": { "halo": 1.8, "title": "西锡安", "fontsize": 12, "tyid": "304000", "oid": "103:1559046782519", "color": "#0056E7" }, "geometry": { "type": "Point", "coordinates": [ 22.587891, 37.926868 ] } }
{"year": "BC539",  "type": "Feature", "tippecanoe": { "layer": "2AFCA89988281583918957812", "minzoom": 2, "maxzoom": 8 }, "properties": { "halo": 1.8, "title": "科林斯", "fontsize": 12, "tyid": "304000", "oid": "103:1559046782439", "color": "#0056E7" }, "geometry": { "type": "Point", "coordinates": [ 22.851562, 37.926868 ] } }
{"year": "BC539",  "type": "Feature", "tippecanoe": { "layer": "2AFCA89988281583918957812", "minzoom": 2, "maxzoom": 8 }, "properties": { "halo": 1.8, "title": "彼奥提亚同盟", "fontsize": 12, "tyid": "304000", "oid": "103:1559046783001", "color": "#0056E7" }, "geometry": { "type": "Point", "coordinates": [ 23.203125, 38.410558 ] } }
{"year": "BC539",  "type": "Feature", "tippecanoe": { "layer": "2AFCA89988281583918957812", "minzoom": 2, "maxzoom": 8 }, "properties": { "halo": 1.8, "title": "哈尔基斯", "fontsize": 12, "tyid": "304000", "oid": "103:1559046782998", "color": "#0056E7" }, "geometry": { "type": "Point", "coordinates": [ 23.642578, 38.479395 ] } }
{"year": "BC539",  "type": "Feature", "tippecanoe": { "layer": "2AFCA89988281583918957812", "minzoom": 2, "maxzoom": 8 }, "properties": { "halo": 1.8, "title": "埃雷特里亚", "fontsize": 12, "tyid": "304000", "oid": "103:1559046782710", "color": "#0056E7" }, "geometry": { "type": "Point", "coordinates": [ 23.818359, 38.479395 ] } }
{"year": "BC539",  "type": "Feature", "tippecanoe": { "layer": "2AFCA89988281583918957812", "minzoom": 2, "maxzoom": 8 }, "properties": { "halo": 1.8, "title": "墨伽勒", "fontsize": 12, "tyid": "304000", "oid": "103:1559046782840", "color": "#0056E7" }, "geometry": { "type": "Point", "coordinates": [ 23.291016, 38.134557 ] } }
{"year": "BC539",  "type": "Feature", "tippecanoe": { "layer": "2AFCA89988281583918957812", "minzoom": 2, "maxzoom": 8 }, "properties": { "halo": 1.8, "title": "雅典", "fontsize": 12, "tyid": "304000", "oid": "103:1559046783013", "color": "#0056E7" }, "geometry": { "type": "Point", "coordinates": [ 23.730469, 38.065392 ] } }
{"year": "BC539",  "type": "Feature", "tippecanoe": { "layer": "2AFCA89988281583918957812", "minzoom": 2, "maxzoom": 8 }, "properties": { "halo": 1.8, "title": "阿尔戈斯", "fontsize": 12, "tyid": "304000", "oid": "103:1559046782489", "color": "#0056E7" }, "geometry": { "type": "Point", "coordinates": [ 22.675781, 37.718590 ] } }
{"year": "BC539",  "type": "Feature", "tippecanoe": { "layer": "2AFCA89988281583918957812", "minzoom": 2, "maxzoom": 8 }, "properties": { "halo": 1.8, "title": "安德罗斯", "fontsize": 12, "tyid": "304000", "oid": "103:1559046782885", "color": "#0056E7" }, "geometry": { "type": "Point", "coordinates": [ 24.785156, 37.926868 ] } }
{"year": "BC539",  "type": "Feature", "tippecanoe": { "layer": "2AFCA89988281583918957812", "minzoom": 2, "maxzoom": 8 }, "properties": { "halo": 1.8, "title": "萨莫色雷斯", "fontsize": 12, "tyid": "304000", "oid": "103:1559046782042", "color": "#0056E7" }, "geometry": { "type": "Point", "coordinates": [ 25.576172, 40.513799 ] } }
{"year": "BC539",  "type": "Feature", "tippecanoe": { "layer": "2AFCA89988281583918957812", "minzoom": 2, "maxzoom": 8 }, "properties": { "halo": 1.6, "title": "伊奥尼亚人", "fontsize": 12, "tyid": "304001", "oid": "103:1559046782995", "color": "#0056E7" }, "geometry": { "type": "Point", "coordinates": [ 25.664062, 40.913513 ] } }
{"year": "BC539",  "type": "Feature", "tippecanoe": { "layer": "2AFCA89988281583918957812", "minzoom": 2, "maxzoom": 8 }, "properties": { "halo": 1.8, "title": "阿尼诺斯", "fontsize": 12, "tyid": "304000", "oid": "103:1559046782990", "color": "#0056E7" }, "geometry": { "type": "Point", "coordinates": [ 26.191406, 40.713956 ] } }
{"year": "BC539",  "type": "Feature", "tippecanoe": { "layer": "2AFCA89988281583918957812", "minzoom": 2, "maxzoom": 8 }, "properties": { "halo": 1.8, "title": "阿罗珀克尼萨斯", "fontsize": 12, "tyid": "304000", "oid": "103:1559046782486", "color": "#0056E7" }, "geometry": { "type": "Point", "coordinates": [ 26.279297, 40.313043 ] } }
{"year": "BC539",  "type": "Feature", "tippecanoe": { "layer": "2AFCA89988281583918957812", "minzoom": 2, "maxzoom": 8 }, "properties": { "halo": 1.8, "title": "塞斯托斯", "fontsize": 12, "tyid": "304000", "oid": "103:1559046782080", "color": "#0056E7" }, "geometry": { "type": "Point", "coordinates": [ 26.279297, 40.245992 ] } }
{"year": "BC539",  "type": "Feature", "tippecanoe": { "layer": "2AFCA89988281583918957812", "minzoom": 2, "maxzoom": 8 }, "properties": { "halo": 1.8, "title": "马第都斯", "fontsize": 12, "tyid": "304000", "oid": "103:1559046782539", "color": "#0056E7" }, "geometry": { "type": "Point", "coordinates": [ 26.279297, 40.245992 ] } }
{"year": "BC539",  "type": "Feature", "tippecanoe": { "layer": "2AFCA89988281583918957812", "minzoom": 2, "maxzoom": 8 }, "properties": { "halo": 1.8, "title": "爱鲁乌斯", "fontsize": 12, "tyid": "304000", "oid": "103:1559046782386", "color": "#0056E7" }, "geometry": { "type": "Point", "coordinates": [ 26.191406, 40.111689 ] } }
{"year": "BC539",  "type": "Feature", "tippecanoe": { "layer": "2AFCA89988281583918957812", "minzoom": 2, "maxzoom": 8 }, "properties": { "halo": 1.8, "title": "克里萨", "fontsize": 12, "tyid": "304000", "oid": "103:1559046782871", "color": "#0056E7" }, "geometry": { "type": "Point", "coordinates": [ 26.542969, 40.446947 ] } }
{"year": "BC539",  "type": "Feature", "tippecanoe": { "layer": "2AFCA89988281583918957812", "minzoom": 2, "maxzoom": 8 }, "properties": { "halo": 1.8, "title": "伊哥斯波塔米", "fontsize": 12, "tyid": "304000", "oid": "103:1559046782908", "color": "#0056E7" }, "geometry": { "type": "Point", "coordinates": [ 26.542969, 40.380028 ] } }
{"year": "BC539",  "type": "Feature", "tippecanoe": { "layer": "2AFCA89988281583918957812", "minzoom": 2, "maxzoom": 8 }, "properties": { "halo": 1.8, "title": "加里波利斯", "fontsize": 12, "tyid": "304000", "oid": "103:1559046782542", "color": "#0056E7" }, "geometry": { "type": "Point", "coordinates": [ 26.630859, 40.446947 ] } }
{"year": "BC539",  "type": "Feature", "tippecanoe": { "layer": "2AFCA89988281583918957812", "minzoom": 2, "maxzoom": 8 }, "properties": { "halo": 1.8, "title": "克瑞沃德", "fontsize": 12, "tyid": "304000", "oid": "103:1559046782517", "color": "#0056E7" }, "geometry": { "type": "Point", "coordinates": [ 26.630859, 40.446947 ] } }
{"year": "BC539",  "type": "Feature", "tippecanoe": { "layer": "2AFCA89988281583918957812", "minzoom": 2, "maxzoom": 8 }, "properties": { "halo": 1.8, "title": "卡尔迪亚", "fontsize": 12, "tyid": "304000", "oid": "103:1559046782564", "color": "#0056E7" }, "geometry": { "type": "Point", "coordinates": [ 26.718750, 40.580585 ] } }
{"year": "BC539",  "type": "Feature", "tippecanoe": { "layer": "2AFCA89988281583918957812", "minzoom": 2, "maxzoom": 8 }, "properties": { "halo": 1.8, "title": "帕克杜耶", "fontsize": 12, "tyid": "304000", "oid": "103:1559046782082", "color": "#0056E7" }, "geometry": { "type": "Point", "coordinates": [ 26.806641, 40.513799 ] } }
{"year": "BC539",  "type": "Feature", "tippecanoe": { "layer": "2AFCA89988281583918957812", "minzoom": 2, "maxzoom": 8 }, "properties": { "halo": 1.6, "title": "多利安人", "fontsize": 12, "tyid": "304001", "oid": "103:1559046783010", "color": "#0056E7" }, "geometry": { "type": "Point", "coordinates": [ 24.785156, 35.245619 ] } }
{"year": "BC539",  "type": "Feature", "tippecanoe": { "layer": "2AFCA89988281583918957812", "minzoom": 2, "maxzoom": 8 }, "properties": { "halo": 1.6, "title": "腓尼基人", "fontsize": 12, "tyid": "304001", "oid": "103:1559046782468", "color": "#0056E7" }, "geometry": { "type": "Point", "coordinates": [ 35.332031, 33.358062 ] } }
{"year": "BC539",  "type": "Feature", "tippecanoe": { "layer": "2AFCA89988281583918957812", "minzoom": 2, "maxzoom": 8 }, "properties": { "halo": 1.8, "title": "亚扪王国", "fontsize": 12, "tyid": "304000", "oid": "103:1559046782928", "color": "#0056E7" }, "geometry": { "type": "Point", "coordinates": [ 36.123047, 32.175612 ] } }
{"year": "BC539",  "type": "Feature", "tippecanoe": { "layer": "2AFCA89988281583918957812", "minzoom": 2, "maxzoom": 8 }, "properties": { "halo": 1.8, "title": "摩押王国", "fontsize": 12, "tyid": "304000", "oid": "103:1559046782926", "color": "#0056E7" }, "geometry": { "type": "Point", "coordinates": [ 35.859375, 31.353637 ] } }
{"year": "BC539",  "type": "Feature", "tippecanoe": { "layer": "2AFCA89988281583918957812", "minzoom": 2, "maxzoom": 8 }, "properties": { "halo": 1.8, "title": "以东王国", "fontsize": 12, "tyid": "304000", "oid": "103:1559046782090", "color": "#0056E7" }, "geometry": { "type": "Point", "coordinates": [ 35.244141, 30.448674 ] } }
{"year": "BC539",  "type": "Feature", "tippecanoe": { "layer": "2AFCA89988281583918957812", "minzoom": 2, "maxzoom": 8 }, "properties": { "halo": 1.6, "title": "察吾呼文化", "fontsize": 12, "tyid": "304002", "oid": "103:1559046782532", "color": "#0056E7" }, "geometry": { "type": "Point", "coordinates": [ 86.396484, 42.228517 ] } }
{"year": "BC539",  "type": "Feature", "tippecanoe": { "layer": "2AFCA89988281583918957812", "minzoom": 2, "maxzoom": 8 }, "properties": { "halo": 1.6, "title": "流水墓地文化", "fontsize": 12, "tyid": "304002", "oid": "103:1559046782903", "color": "#0056E7" }, "geometry": { "type": "Point", "coordinates": [ 81.562500, 36.456636 ] } }
{"year": "BC539",  "type": "Feature", "tippecanoe": { "layer": "2AFCA89988281583918957812", "minzoom": 2, "maxzoom": 8 }, "properties": { "halo": 1.8, "title": "且末国", "fontsize": 12, "tyid": "304000", "oid": "103:1559046782399", "color": "#0056E7" }, "geometry": { "type": "Point", "coordinates": [ 85.605469, 38.203655 ] } }
{"year": "BC539",  "type": "Feature", "tippecanoe": { "layer": "2AFCA89988281583918957812", "minzoom": 2, "maxzoom": 8 }, "properties": { "halo": 1.8, "title": "释迦国", "fontsize": 12, "tyid": "304000", "oid": "103:1559046782548", "color": "#0056E7" }, "geometry": { "type": "Point", "coordinates": [ 83.496094, 27.605671 ] } }
{"year": "BC539",  "type": "Feature", "tippecanoe": { "layer": "2AFCA89988281583918957812", "minzoom": 2, "maxzoom": 8 }, "properties": { "halo": 1.8, "title": "跋蹉国", "fontsize": 12, "tyid": "304000", "oid": "103:1559046782642", "color": "#0056E7" }, "geometry": { "type": "Point", "coordinates": [ 80.859375, 26.115986 ] } }
{"year": "BC539",  "type": "Feature", "tippecanoe": { "layer": "2AFCA89988281583918957812", "minzoom": 2, "maxzoom": 8 }, "properties": { "halo": 1.8, "title": "蓝摩国", "fontsize": 12, "tyid": "304000", "oid": "103:1559046782637", "color": "#0056E7" }, "geometry": { "type": "Point", "coordinates": [ 84.375000, 27.605671 ] } }
{"year": "BC539",  "type": "Feature", "tippecanoe": { "layer": "2AFCA89988281583918957812", "minzoom": 2, "maxzoom": 8 }, "properties": { "halo": 1.6, "title": "焉不拉克文化", "fontsize": 12, "tyid": "304002", "oid": "103:1559046782891", "color": "#0056E7" }, "geometry": { "type": "Point", "coordinates": [ 93.779297, 42.875964 ] } }
{"year": "BC539",  "type": "Feature", "tippecanoe": { "layer": "2AFCA89988281583918957812", "minzoom": 2, "maxzoom": 8 }, "properties": { "halo": 1.6, "title": "西团山文化", "fontsize": 12, "tyid": "304002", "oid": "103:1559046782628", "color": "#0056E7" }, "geometry": { "type": "Point", "coordinates": [ 126.826172, 43.452919 ] } }
{"year": "BC539",  "type": "Feature", "tippecanoe": { "layer": "2AFCA89988281583918957812", "minzoom": 2, "maxzoom": 8 }, "properties": { "halo": 1.8, "title": "狄戎", "fontsize": 12, "tyid": "304000", "oid": "103:1559046782473", "color": "#0056E7" }, "geometry": { "type": "Point", "coordinates": [ 103.271484, 35.317366 ] } }
{"year": "BC539",  "type": "Feature", "tippecanoe": { "layer": "2AFCA89988281583918957812", "minzoom": 2, "maxzoom": 8 }, "properties": { "halo": 1.8, "title": "豲戎", "fontsize": 12, "tyid": "304000", "oid": "103:1559046782728", "color": "#0056E7" }, "geometry": { "type": "Point", "coordinates": [ 104.501953, 34.741612 ] } }
{"year": "BC539",  "type": "Feature", "tippecanoe": { "layer": "2AFCA89988281583918957812", "minzoom": 2, "maxzoom": 8 }, "properties": { "halo": 1.8, "title": "绵诸", "fontsize": 12, "tyid": "304000", "oid": "103:1559046782559", "color": "#0056E7" }, "geometry": { "type": "Point", "coordinates": [ 105.468750, 35.101934 ] } }
{"year": "BC539",  "type": "Feature", "tippecanoe": { "layer": "2AFCA89988281583918957812", "minzoom": 2, "maxzoom": 8 }, "properties": { "halo": 1.8, "title": "昔阝", "fontsize": 12, "tyid": "304000", "oid": "103:1559046782914", "color": "#0056E7" }, "geometry": { "type": "Point", "coordinates": [ 106.347656, 32.472695 ] } }
{"year": "BC539",  "type": "Feature", "tippecanoe": { "layer": "2AFCA89988281583918957812", "minzoom": 2, "maxzoom": 8 }, "properties": { "halo": 1.8, "title": "大荔", "fontsize": 12, "tyid": "304000", "oid": "103:1559046782155", "color": "#0056E7" }, "geometry": { "type": "Point", "coordinates": [ 110.126953, 34.813803 ] } }
{"year": "BC539",  "type": "Feature", "tippecanoe": { "layer": "2AFCA89988281583918957812", "minzoom": 2, "maxzoom": 8 }, "properties": { "halo": 1.8, "title": "毛", "fontsize": 12, "tyid": "304000", "oid": "103:1559046782429", "color": "#0056E7" }, "geometry": { "type": "Point", "coordinates": [ 111.972656, 34.524661 ] } }
{"year": "BC539",  "type": "Feature", "tippecanoe": { "layer": "2AFCA89988281583918957812", "minzoom": 2, "maxzoom": 8 }, "properties": { "halo": 1.8, "title": "尹", "fontsize": 12, "tyid": "304000", "oid": "103:1559046782935", "color": "#0056E7" }, "geometry": { "type": "Point", "coordinates": [ 112.148438, 34.741612 ] } }
{"year": "BC539",  "type": "Feature", "tippecanoe": { "layer": "2AFCA89988281583918957812", "minzoom": 2, "maxzoom": 8 }, "properties": { "halo": 1.8, "title": "单", "fontsize": 12, "tyid": "304000", "oid": "103:1559046782939", "color": "#0056E7" }, "geometry": { "type": "Point", "coordinates": [ 112.412109, 34.885931 ] } }
{"year": "BC539",  "type": "Feature", "tippecanoe": { "layer": "2AFCA89988281583918957812", "minzoom": 2, "maxzoom": 8 }, "properties": { "halo": 1.8, "title": "东周", "fontsize": 12, "tyid": "304000", "oid": "103:1559046782471", "color": "#0056E7" }, "geometry": { "type": "Point", "coordinates": [ 112.412109, 34.741612 ] } }
{"year": "BC539",  "type": "Feature", "tippecanoe": { "layer": "2AFCA89988281583918957812", "minzoom": 2, "maxzoom": 8 }, "properties": { "halo": 1.8, "title": "伊洛戎", "fontsize": 12, "tyid": "304000", "oid": "103:1559046782285", "color": "#0056E7" }, "geometry": { "type": "Point", "coordinates": [ 111.445312, 34.161818 ] } }
{"year": "BC539",  "type": "Feature", "tippecanoe": { "layer": "2AFCA89988281583918957812", "minzoom": 2, "maxzoom": 8 }, "properties": { "halo": 1.8, "title": "陆浑戎", "fontsize": 12, "tyid": "304000", "oid": "103:1559046782454", "color": "#0056E7" }, "geometry": { "type": "Point", "coordinates": [ 111.884766, 33.870416 ] } }
{"year": "BC539",  "type": "Feature", "tippecanoe": { "layer": "2AFCA89988281583918957812", "minzoom": 2, "maxzoom": 8 }, "properties": { "halo": 1.8, "title": "冉駹羌", "fontsize": 12, "tyid": "304000", "oid": "103:1559046782723", "color": "#0056E7" }, "geometry": { "type": "Point", "coordinates": [ 103.623047, 31.503629 ] } }
{"year": "BC539",  "type": "Feature", "tippecanoe": { "layer": "2AFCA89988281583918957812", "minzoom": 2, "maxzoom": 8 }, "properties": { "halo": 1.8, "title": "平周", "fontsize": 12, "tyid": "304000", "oid": "103:1559046782557", "color": "#0056E7" }, "geometry": { "type": "Point", "coordinates": [ 105.996094, 31.952162 ] } }
{"year": "BC539",  "type": "Feature", "tippecanoe": { "layer": "2AFCA89988281583918957812", "minzoom": 2, "maxzoom": 8 }, "properties": { "halo": 1.8, "title": "充", "fontsize": 12, "tyid": "304000", "oid": "103:1559046782477", "color": "#0056E7" }, "geometry": { "type": "Point", "coordinates": [ 105.996094, 31.128199 ] } }
{"year": "BC539",  "type": "Feature", "tippecanoe": { "layer": "2AFCA89988281583918957812", "minzoom": 2, "maxzoom": 8 }, "properties": { "halo": 1.6, "title": "东山文化", "fontsize": 12, "tyid": "304002", "oid": "103:1559046782788", "color": "#0056E7" }, "geometry": { "type": "Point", "coordinates": [ 105.292969, 21.698265 ] } }
{"year": "BC539",  "type": "Feature", "tippecanoe": { "layer": "2AFCA89988281583918957812", "minzoom": 2, "maxzoom": 8 }, "properties": { "halo": 1.8, "title": "代国", "fontsize": 12, "tyid": "304000", "oid": "103:1559046782153", "color": "#0056E7" }, "geometry": { "type": "Point", "coordinates": [ 114.785156, 40.044438 ] } }
{"year": "BC539",  "type": "Feature", "tippecanoe": { "layer": "2AFCA89988281583918957812", "minzoom": 2, "maxzoom": 8 }, "properties": { "halo": 1.6, "title": "仇由", "fontsize": 12, "tyid": "304001", "oid": "103:1559046782669", "color": "#0056E7" }, "geometry": { "type": "Point", "coordinates": [ 113.554688, 38.134557 ] } }
{"year": "BC539",  "type": "Feature", "tippecanoe": { "layer": "2AFCA89988281583918957812", "minzoom": 2, "maxzoom": 8 }, "properties": { "halo": 1.8, "title": "肥", "fontsize": 12, "tyid": "304000", "oid": "103:1559046782730", "color": "#0056E7" }, "geometry": { "type": "Point", "coordinates": [ 115.048828, 37.509726 ] } }
{"year": "BC539",  "type": "Feature", "tippecanoe": { "layer": "2AFCA89988281583918957812", "minzoom": 2, "maxzoom": 8 }, "properties": { "halo": 1.8, "title": "鼓", "fontsize": 12, "tyid": "304000", "oid": "103:1559046782827", "color": "#0056E7" }, "geometry": { "type": "Point", "coordinates": [ 115.400391, 37.996163 ] } }
{"year": "BC539",  "type": "Feature", "tippecanoe": { "layer": "2AFCA89988281583918957812", "minzoom": 2, "maxzoom": 8 }, "properties": { "halo": 1.8, "title": "刘", "fontsize": 12, "tyid": "304000", "oid": "103:1559046782932", "color": "#0056E7" }, "geometry": { "type": "Point", "coordinates": [ 112.675781, 34.597042 ] } }
{"year": "BC539",  "type": "Feature", "tippecanoe": { "layer": "2AFCA89988281583918957812", "minzoom": 2, "maxzoom": 8 }, "properties": { "halo": 1.8, "title": "巩", "fontsize": 12, "tyid": "304000", "oid": "103:1559046782836", "color": "#0056E7" }, "geometry": { "type": "Point", "coordinates": [ 113.027344, 34.741612 ] } }
{"year": "BC539",  "type": "Feature", "tippecanoe": { "layer": "2AFCA89988281583918957812", "minzoom": 2, "maxzoom": 8 }, "properties": { "halo": 1.8, "title": "卫", "fontsize": 12, "tyid": "304000", "oid": "103:1559046782011", "color": "#0056E7" }, "geometry": { "type": "Point", "coordinates": [ 114.960938, 35.817813 ] } }
{"year": "BC539",  "type": "Feature", "tippecanoe": { "layer": "2AFCA89988281583918957812", "minzoom": 2, "maxzoom": 8 }, "properties": { "halo": 1.8, "title": "甘", "fontsize": 12, "tyid": "304000", "oid": "103:1559046782887", "color": "#0056E7" }, "geometry": { "type": "Point", "coordinates": [ 113.994141, 35.101934 ] } }
{"year": "BC539",  "type": "Feature", "tippecanoe": { "layer": "2AFCA89988281583918957812", "minzoom": 2, "maxzoom": 8 }, "properties": { "halo": 1.8, "title": "南燕[春秋]", "fontsize": 12, "tyid": "304000", "oid": "103:1576922412711", "color": "#0056E7" }, "geometry": { "type": "Point", "coordinates": [ 114.257812, 35.317366 ] } }
{"year": "BC539",  "type": "Feature", "tippecanoe": { "layer": "2AFCA89988281583918957812", "minzoom": 2, "maxzoom": 8 }, "properties": { "halo": 1.8, "title": "戎蛮子国", "fontsize": 12, "tyid": "304000", "oid": "103:1559046782058", "color": "#0056E7" }, "geometry": { "type": "Point", "coordinates": [ 112.763672, 34.161818 ] } }
{"year": "BC539",  "type": "Feature", "tippecanoe": { "layer": "2AFCA89988281583918957812", "minzoom": 2, "maxzoom": 8 }, "properties": { "halo": 1.8, "title": "许", "fontsize": 12, "tyid": "304000", "oid": "103:1559046782937", "color": "#0056E7" }, "geometry": { "type": "Point", "coordinates": [ 112.675781, 33.797409 ] } }
{"year": "BC539",  "type": "Feature", "tippecanoe": { "layer": "2AFCA89988281583918957812", "minzoom": 2, "maxzoom": 8 }, "properties": { "halo": 1.8, "title": "不羹", "fontsize": 12, "tyid": "304000", "oid": "103:1559046782866", "color": "#0056E7" }, "geometry": { "type": "Point", "coordinates": [ 113.554688, 33.578015 ] } }
{"year": "BC539",  "type": "Feature", "tippecanoe": { "layer": "2AFCA89988281583918957812", "minzoom": 2, "maxzoom": 8 }, "properties": { "halo": 1.8, "title": "房", "fontsize": 12, "tyid": "304000", "oid": "103:1559046782671", "color": "#0056E7" }, "geometry": { "type": "Point", "coordinates": [ 113.818359, 33.211116 ] } }
{"year": "BC539",  "type": "Feature", "tippecanoe": { "layer": "2AFCA89988281583918957812", "minzoom": 2, "maxzoom": 8 }, "properties": { "halo": 1.8, "title": "唐[春秋]", "fontsize": 12, "tyid": "304000", "oid": "103:1576922412717", "color": "#0056E7" }, "geometry": { "type": "Point", "coordinates": [ 112.851562, 32.398516 ] } }
{"year": "BC539",  "type": "Feature", "tippecanoe": { "layer": "2AFCA89988281583918957812", "minzoom": 2, "maxzoom": 8 }, "properties": { "halo": 1.8, "title": "陈", "fontsize": 12, "tyid": "304000", "oid": "103:1559046782341", "color": "#0056E7" }, "geometry": { "type": "Point", "coordinates": [ 115.136719, 33.797409 ] } }
{"year": "BC539",  "type": "Feature", "tippecanoe": { "layer": "2AFCA89988281583918957812", "minzoom": 2, "maxzoom": 8 }, "properties": { "halo": 1.8, "title": "顿", "fontsize": 12, "tyid": "304000", "oid": "103:1559046782889", "color": "#0056E7" }, "geometry": { "type": "Point", "coordinates": [ 114.697266, 33.358062 ] } }
{"year": "BC539",  "type": "Feature", "tippecanoe": { "layer": "2AFCA89988281583918957812", "minzoom": 2, "maxzoom": 8 }, "properties": { "halo": 1.8, "title": "沈", "fontsize": 12, "tyid": "304000", "oid": "103:1559046782479", "color": "#0056E7" }, "geometry": { "type": "Point", "coordinates": [ 115.224609, 33.211116 ] } }
{"year": "BC539",  "type": "Feature", "tippecanoe": { "layer": "2AFCA89988281583918957812", "minzoom": 2, "maxzoom": 8 }, "properties": { "halo": 1.8, "title": "蔡", "fontsize": 12, "tyid": "304000", "oid": "103:1559046782588", "color": "#0056E7" }, "geometry": { "type": "Point", "coordinates": [ 114.521484, 32.990236 ] } }
{"year": "BC539",  "type": "Feature", "tippecanoe": { "layer": "2AFCA89988281583918957812", "minzoom": 2, "maxzoom": 8 }, "properties": { "halo": 1.8, "title": "戎国", "fontsize": 12, "tyid": "304000", "oid": "103:1559046782924", "color": "#0056E7" }, "geometry": { "type": "Point", "coordinates": [ 115.312500, 34.957995 ] } }
{"year": "BC539",  "type": "Feature", "tippecanoe": { "layer": "2AFCA89988281583918957812", "minzoom": 2, "maxzoom": 8 }, "properties": { "halo": 1.8, "title": "曹", "fontsize": 12, "tyid": "304000", "oid": "103:1559046782315", "color": "#0056E7" }, "geometry": { "type": "Point", "coordinates": [ 115.488281, 35.173808 ] } }
{"year": "BC539",  "type": "Feature", "tippecanoe": { "layer": "2AFCA89988281583918957812", "minzoom": 2, "maxzoom": 8 }, "properties": { "halo": 1.8, "title": "茅", "fontsize": 12, "tyid": "304000", "oid": "103:1559046782877", "color": "#0056E7" }, "geometry": { "type": "Point", "coordinates": [ 115.927734, 35.173808 ] } }
{"year": "BC539",  "type": "Feature", "tippecanoe": { "layer": "2AFCA89988281583918957812", "minzoom": 2, "maxzoom": 8 }, "properties": { "halo": 1.8, "title": "任", "fontsize": 12, "tyid": "304000", "oid": "103:1559046782060", "color": "#0056E7" }, "geometry": { "type": "Point", "coordinates": [ 116.630859, 35.389050 ] } }
{"year": "BC539",  "type": "Feature", "tippecanoe": { "layer": "2AFCA89988281583918957812", "minzoom": 2, "maxzoom": 8 }, "properties": { "halo": 1.8, "title": "牟", "fontsize": 12, "tyid": "304000", "oid": "103:1559046782262", "color": "#0056E7" }, "geometry": { "type": "Point", "coordinates": [ 117.773438, 36.244273 ] } }
{"year": "BC539",  "type": "Feature", "tippecanoe": { "layer": "2AFCA89988281583918957812", "minzoom": 2, "maxzoom": 8 }, "properties": { "halo": 1.8, "title": "颛臾", "fontsize": 12, "tyid": "304000", "oid": "103:1559046782896", "color": "#0056E7" }, "geometry": { "type": "Point", "coordinates": [ 117.685547, 35.532226 ] } }
{"year": "BC539",  "type": "Feature", "tippecanoe": { "layer": "2AFCA89988281583918957812", "minzoom": 2, "maxzoom": 8 }, "properties": { "halo": 1.8, "title": "滕", "fontsize": 12, "tyid": "304000", "oid": "103:1559046782675", "color": "#0056E7" }, "geometry": { "type": "Point", "coordinates": [ 116.982422, 35.101934 ] } }
{"year": "BC539",  "type": "Feature", "tippecanoe": { "layer": "2AFCA89988281583918957812", "minzoom": 2, "maxzoom": 8 }, "properties": { "halo": 1.8, "title": "邾", "fontsize": 12, "tyid": "304000", "oid": "103:1559046782394", "color": "#0056E7" }, "geometry": { "type": "Point", "coordinates": [ 117.158203, 35.245619 ] } }
{"year": "BC539",  "type": "Feature", "tippecanoe": { "layer": "2AFCA89988281583918957812", "minzoom": 2, "maxzoom": 8 }, "properties": { "halo": 1.8, "title": "滥", "fontsize": 12, "tyid": "304000", "oid": "103:1559046782673", "color": "#0056E7" }, "geometry": { "type": "Point", "coordinates": [ 117.246094, 35.029996 ] } }
{"year": "BC539",  "type": "Feature", "tippecanoe": { "layer": "2AFCA89988281583918957812", "minzoom": 2, "maxzoom": 8 }, "properties": { "halo": 1.8, "title": "薛", "fontsize": 12, "tyid": "304000", "oid": "103:1559046782626", "color": "#0056E7" }, "geometry": { "type": "Point", "coordinates": [ 117.246094, 34.813803 ] } }
{"year": "BC539",  "type": "Feature", "tippecanoe": { "layer": "2AFCA89988281583918957812", "minzoom": 2, "maxzoom": 8 }, "properties": { "halo": 1.8, "title": "小邾", "fontsize": 12, "tyid": "304000", "oid": "103:1559046782537", "color": "#0056E7" }, "geometry": { "type": "Point", "coordinates": [ 117.421875, 35.173808 ] } }
{"year": "BC539",  "type": "Feature", "tippecanoe": { "layer": "2AFCA89988281583918957812", "minzoom": 2, "maxzoom": 8 }, "properties": { "halo": 1.8, "title": "费", "fontsize": 12, "tyid": "304000", "oid": "103:1559046782931", "color": "#0056E7" }, "geometry": { "type": "Point", "coordinates": [ 117.949219, 35.389050 ] } }
{"year": "BC539",  "type": "Feature", "tippecanoe": { "layer": "2AFCA89988281583918957812", "minzoom": 2, "maxzoom": 8 }, "properties": { "halo": 1.8, "title": "厉", "fontsize": 12, "tyid": "304000", "oid": "103:1559046782635", "color": "#0056E7" }, "geometry": { "type": "Point", "coordinates": [ 115.488281, 34.016242 ] } }
{"year": "BC539",  "type": "Feature", "tippecanoe": { "layer": "2AFCA89988281583918957812", "minzoom": 2, "maxzoom": 8 }, "properties": { "halo": 1.8, "title": "胡[归姓]", "fontsize": 12, "tyid": "304000", "oid": "103:1576922412509", "color": "#0056E7" }, "geometry": { "type": "Point", "coordinates": [ 115.839844, 32.916485 ] } }
{"year": "BC539",  "type": "Feature", "tippecanoe": { "layer": "2AFCA89988281583918957812", "minzoom": 2, "maxzoom": 8 }, "properties": { "halo": 1.8, "title": "潘", "fontsize": 12, "tyid": "304000", "oid": "103:1559046782067", "color": "#0056E7" }, "geometry": { "type": "Point", "coordinates": [ 115.751953, 32.324276 ] } }
{"year": "BC539",  "type": "Feature", "tippecanoe": { "layer": "2AFCA89988281583918957812", "minzoom": 2, "maxzoom": 8 }, "properties": { "halo": 1.8, "title": "邳", "fontsize": 12, "tyid": "304000", "oid": "103:1559046782365", "color": "#0056E7" }, "geometry": { "type": "Point", "coordinates": [ 117.861328, 34.234512 ] } }
{"year": "BC539",  "type": "Feature", "tippecanoe": { "layer": "2AFCA89988281583918957812", "minzoom": 2, "maxzoom": 8 }, "properties": { "halo": 1.8, "title": "钟离", "fontsize": 12, "tyid": "304000", "oid": "103:1559046782816", "color": "#0056E7" }, "geometry": { "type": "Point", "coordinates": [ 117.773438, 33.063924 ] } }
{"year": "BC539",  "type": "Feature", "tippecanoe": { "layer": "2AFCA89988281583918957812", "minzoom": 2, "maxzoom": 8 }, "properties": { "halo": 1.6, "title": "屠何", "fontsize": 12, "tyid": "304001", "oid": "103:1559046782546", "color": "#0056E7" }, "geometry": { "type": "Point", "coordinates": [ 120.322266, 40.847060 ] } }
{"year": "BC539",  "type": "Feature", "tippecanoe": { "layer": "2AFCA89988281583918957812", "minzoom": 2, "maxzoom": 8 }, "properties": { "halo": 1.8, "title": "杞", "fontsize": 12, "tyid": "304000", "oid": "103:1559046782853", "color": "#0056E7" }, "geometry": { "type": "Point", "coordinates": [ 119.003906, 36.385913 ] } }
{"year": "BC539",  "type": "Feature", "tippecanoe": { "layer": "2AFCA89988281583918957812", "minzoom": 2, "maxzoom": 8 }, "properties": { "halo": 1.8, "title": "莒", "fontsize": 12, "tyid": "304000", "oid": "103:1559046782742", "color": "#0056E7" }, "geometry": { "type": "Point", "coordinates": [ 119.355469, 35.675147 ] } }
{"year": "BC539",  "type": "Feature", "tippecanoe": { "layer": "2AFCA89988281583918957812", "minzoom": 2, "maxzoom": 8 }, "properties": { "halo": 1.8, "title": "鄅", "fontsize": 12, "tyid": "304000", "oid": "103:1559046782882", "color": "#0056E7" }, "geometry": { "type": "Point", "coordinates": [ 118.300781, 35.245619 ] } }
{"year": "BC539",  "type": "Feature", "tippecanoe": { "layer": "2AFCA89988281583918957812", "minzoom": 2, "maxzoom": 8 }, "properties": { "halo": 1.8, "title": "郯", "fontsize": 12, "tyid": "304000", "oid": "103:1559046782353", "color": "#0056E7" }, "geometry": { "type": "Point", "coordinates": [ 118.212891, 34.597042 ] } }
{"year": "BC539",  "type": "Feature", "tippecanoe": { "layer": "2AFCA89988281583918957812", "minzoom": 2, "maxzoom": 8 }, "properties": { "halo": 1.8, "title": "钟吾", "fontsize": 12, "tyid": "304000", "oid": "103:1559046782275", "color": "#0056E7" }, "geometry": { "type": "Point", "coordinates": [ 118.388672, 34.089061 ] } }
{"year": "BC539",  "type": "Feature", "tippecanoe": { "layer": "2AFCA89988281583918957812", "minzoom": 2, "maxzoom": 8 }, "properties": { "halo": 1.8, "title": "徐", "fontsize": 12, "tyid": "304000", "oid": "103:1559046782280", "color": "#0056E7" }, "geometry": { "type": "Point", "coordinates": [ 118.125000, 33.504759 ] } }
{"year": "BC539",  "type": "Feature", "tippecanoe": { "layer": "2AFCA89988281583918957812", "minzoom": 2, "maxzoom": 8 }, "properties": { "halo": 1.6, "title": "淮夷", "fontsize": 12, "tyid": "304001", "oid": "103:1559046782880", "color": "#0056E7" }, "geometry": { "type": "Point", "coordinates": [ 119.091797, 34.161818 ] } }
{"year": "BC539",  "type": "Feature", "tippecanoe": { "layer": "2AFCA89988281583918957812", "minzoom": 2, "maxzoom": 8 }, "properties": { "halo": 1.8, "title": "邗", "fontsize": 12, "tyid": "304000", "oid": "103:1559046782906", "color": "#0056E7" }, "geometry": { "type": "Point", "coordinates": [ 119.443359, 32.546813 ] } }
{"year": "BC539",  "type": "Feature", "tippecanoe": { "layer": "2AFCA89988281583918957812", "minzoom": 2, "maxzoom": 8 }, "properties": { "halo": 1.8, "title": "随", "fontsize": 12, "tyid": "304000", "oid": "103:1559046782692", "color": "#0056E7" }, "geometry": { "type": "Point", "coordinates": [ 113.203125, 31.802893 ] } }
{"year": "BC539",  "type": "Feature", "tippecanoe": { "layer": "2AFCA89988281583918957812", "minzoom": 2, "maxzoom": 8 }, "properties": { "halo": 1.6, "title": "夷虎", "fontsize": 12, "tyid": "304001", "oid": "103:1559046782698", "color": "#0056E7" }, "geometry": { "type": "Point", "coordinates": [ 117.070312, 31.952162 ] } }
{"year": "BC539",  "type": "Feature", "tippecanoe": { "layer": "2AFCA89988281583918957812", "minzoom": 2, "maxzoom": 8 }, "properties": { "halo": 1.8, "title": "桐", "fontsize": 12, "tyid": "304000", "oid": "103:1559046782209", "color": "#0056E7" }, "geometry": { "type": "Point", "coordinates": [ 116.718750, 30.977609 ] } }
{"year": "BC539",  "type": "Feature", "tippecanoe": { "layer": "2AFCA89988281583918957812", "minzoom": 2, "maxzoom": 8 }, "properties": { "halo": 1.8, "title": "巢", "fontsize": 12, "tyid": "304000", "oid": "103:1559046782313", "color": "#0056E7" }, "geometry": { "type": "Point", "coordinates": [ 117.685547, 31.728167 ] } }
{"year": "BC539",  "type": "Feature", "tippecanoe": { "layer": "2AFCA89988281583918957812", "minzoom": 2, "maxzoom": 8 }, "properties": { "halo": 1.8, "title": "缚娄", "fontsize": 12, "tyid": "304000", "oid": "103:1559046783049", "color": "#0056E7" }, "geometry": { "type": "Point", "coordinates": [ 114.345703, 23.160563 ] } }
{"year": "BC539",  "type": "Feature", "tippecanoe": { "layer": "2AFCA89988281583918957812", "minzoom": 2, "maxzoom": 8 }, "properties": { "halo": 1.6, "title": "营埔文化", "fontsize": 12, "tyid": "304002", "oid": "103:1568109446266", "color": "#0056E7" }, "geometry": { "type": "Point", "coordinates": [ 120.673828, 24.367114 ] } }
{"year": "BC539",  "type": "Feature", "tippecanoe": { "layer": "2AFCA89988281583918957812", "minzoom": 2, "maxzoom": 8 }, "properties": { "halo": 1.6, "title": "卑南文化", "fontsize": 12, "tyid": "304002", "oid": "103:1559046782527", "color": "#0056E7" }, "geometry": { "type": "Point", "coordinates": [ 120.761719, 22.674847 ] } }
{"year": "BC539",  "type": "Feature", "tippecanoe": { "layer": "2AFCA89988281583918957812", "minzoom": 2, "maxzoom": 8 }, "properties": { "halo": 1.6, "title": "圆山文化", "fontsize": 12, "tyid": "304002", "oid": "103:1568109446269", "color": "#0056E7" }, "geometry": { "type": "Point", "coordinates": [ 121.289062, 24.926295 ] } }
{"year": "BC539",  "type": "Feature", "tippecanoe": { "layer": "2AFCA89988281583918957812", "minzoom": 2, "maxzoom": 8 }, "properties": { "halo": 1.6, "title": "麒麟文化", "fontsize": 12, "tyid": "304002", "oid": "103:1568109446272", "color": "#0056E7" }, "geometry": { "type": "Point", "coordinates": [ 121.289062, 23.563987 ] } }
{"year": "BC539",  "type": "Feature", "tippecanoe": { "layer": "2AFCA89988281583918957812", "minzoom": 2, "maxzoom": 8 }, "properties": { "halo": 1.6, "title": "弥生人", "fontsize": 12, "tyid": "304001", "oid": "103:1559046782786", "color": "#0056E7" }, "geometry": { "type": "Point", "coordinates": [ 130.517578, 33.504759 ] } }
{"year": "BC539",  "type": "Feature", "tippecanoe": { "layer": "2AFCA89988281583918957812", "minzoom": 2, "maxzoom": 8 }, "properties": { "halo": 1.6, "title": "托雷斯海峡岛民", "fontsize": 12, "tyid": "304001", "oid": "103:1559046783040", "color": "#0056E7" }, "geometry": { "type": "Point", "coordinates": [ 142.382812, -11.264612 ] } }
{"year": "BC539",  "type": "Feature", "tippecanoe": { "layer": "2AFCA899DB001583918957815", "minzoom": 2, "maxzoom": 8 }, "properties": { "halo": 0.8, "title": "诺顿文化", "fontsize": 12, "tyid": "304002", "oid": "103:1559046782069", "color": "#262626" }, "geometry": { "type": "Point", "coordinates": [ -162.949219, 68.752315 ] } }
{"year": "BC539",  "type": "Feature", "tippecanoe": { "layer": "2AFCA899DB001583918957815", "minzoom": 2, "maxzoom": 8 }, "properties": { "halo": 0.8, "title": "因纽特人", "fontsize": 12, "tyid": "304001", "oid": "103:1559046782779", "color": "#262626" }, "geometry": { "type": "Point", "coordinates": [ -90.791016, 67.272043 ] } }
{"year": "BC539",  "type": "Feature", "tippecanoe": { "layer": "2AFCA899DB001583918957815", "minzoom": 2, "maxzoom": 8 }, "properties": { "halo": 0.8, "title": "尤皮克人", "fontsize": 12, "tyid": "304001", "oid": "103:1559046782955", "color": "#262626" }, "geometry": { "type": "Point", "coordinates": [ -155.654297, 62.267923 ] } }
{"year": "BC539",  "type": "Feature", "tippecanoe": { "layer": "2AFCA899DB001583918957815", "minzoom": 2, "maxzoom": 8 }, "properties": { "halo": 0.8, "title": "因纽皮雅特人", "fontsize": 12, "tyid": "304001", "oid": "103:1559046782099", "color": "#262626" }, "geometry": { "type": "Point", "coordinates": [ -149.501953, 65.219894 ] } }
{"year": "BC539",  "type": "Feature", "tippecanoe": { "layer": "2AFCA899DB001583918957815", "minzoom": 2, "maxzoom": 8 }, "properties": { "halo": 0.8, "title": "阿留申人", "fontsize": 12, "tyid": "304001", "oid": "103:1559046782410", "color": "#262626" }, "geometry": { "type": "Point", "coordinates": [ -152.226562, 61.312452 ] } }
{"year": "BC539",  "type": "Feature", "tippecanoe": { "layer": "2AFCA899DB001583918957815", "minzoom": 2, "maxzoom": 8 }, "properties": { "halo": 0.8, "title": "泰萨勒页岩文化", "fontsize": 12, "tyid": "304002", "oid": "103:1559046782725", "color": "#262626" }, "geometry": { "type": "Point", "coordinates": [ -99.843750, 56.511018 ] } }
{"year": "BC539",  "type": "Feature", "tippecanoe": { "layer": "2AFCA899DB001583918957815", "minzoom": 2, "maxzoom": 8 }, "properties": { "halo": 0.8, "title": "坎贝尔文化", "fontsize": 12, "tyid": "304002", "oid": "103:1559046782507", "color": "#262626" }, "geometry": { "type": "Point", "coordinates": [ -121.289062, 38.685510 ] } }
{"year": "BC539",  "type": "Feature", "tippecanoe": { "layer": "2AFCA899DB001583918957815", "minzoom": 2, "maxzoom": 8 }, "properties": { "halo": 0.8, "title": "圣迪基图文化", "fontsize": 12, "tyid": "304002", "oid": "103:1559046782952", "color": "#262626" }, "geometry": { "type": "Point", "coordinates": [ -115.839844, 34.016242 ] } }
{"year": "BC539",  "type": "Feature", "tippecanoe": { "layer": "2AFCA899DB001583918957815", "minzoom": 2, "maxzoom": 8 }, "properties": { "halo": 0.8, "title": "独立二期文化", "fontsize": 12, "tyid": "304002", "oid": "103:1559046782961", "color": "#262626" }, "geometry": { "type": "Point", "coordinates": [ -41.220703, 81.960148 ] } }
{"year": "BC539",  "type": "Feature", "tippecanoe": { "layer": "2AFCA899DB001583918957815", "minzoom": 2, "maxzoom": 8 }, "properties": { "halo": 0.8, "title": "红赭人", "fontsize": 12, "tyid": "304001", "oid": "103:1559046782372", "color": "#262626" }, "geometry": { "type": "Point", "coordinates": [ -87.363281, 41.244772 ] } }
{"year": "BC539",  "type": "Feature", "tippecanoe": { "layer": "2AFCA899DB001583918957815", "minzoom": 2, "maxzoom": 8 }, "properties": { "halo": 0.8, "title": "波茵特半岛文化", "fontsize": 12, "tyid": "304002", "oid": "103:1559046782168", "color": "#262626" }, "geometry": { "type": "Point", "coordinates": [ -76.816406, 45.336702 ] } }
{"year": "BC539",  "type": "Feature", "tippecanoe": { "layer": "2AFCA899DB001583918957815", "minzoom": 2, "maxzoom": 8 }, "properties": { "halo": 0.8, "title": "古海洋文化", "fontsize": 12, "tyid": "304002", "oid": "103:1559046782958", "color": "#262626" }, "geometry": { "type": "Point", "coordinates": [ -66.972656, 46.920255 ] } }
{"year": "BC539",  "type": "Feature", "tippecanoe": { "layer": "2AFCA899DB001583918957815", "minzoom": 2, "maxzoom": 8 }, "properties": { "halo": 0.8, "title": "阿登纳文化", "fontsize": 12, "tyid": "304002", "oid": "103:1559046782595", "color": "#262626" }, "geometry": { "type": "Point", "coordinates": [ -81.826172, 40.513799 ] } }
{"year": "BC539",  "type": "Feature", "tippecanoe": { "layer": "2AFCA899DB001583918957815", "minzoom": 2, "maxzoom": 8 }, "properties": { "halo": 0.8, "title": "巴富尔人", "fontsize": 12, "tyid": "304001", "oid": "103:1559046782647", "color": "#262626" }, "geometry": { "type": "Point", "coordinates": [ -8.261719, 22.917923 ] } }
{"year": "BC539",  "type": "Feature", "tippecanoe": { "layer": "2AFCA899DB001583918957815", "minzoom": 2, "maxzoom": 8 }, "properties": { "halo": 0.8, "title": "索宁克人", "fontsize": 12, "tyid": "304001", "oid": "103:1559046782658", "color": "#262626" }, "geometry": { "type": "Point", "coordinates": [ -8.964844, 14.944785 ] } }
{"year": "BC539",  "type": "Feature", "tippecanoe": { "layer": "2AFCA899DB001583918957815", "minzoom": 2, "maxzoom": 8 }, "properties": { "halo": 0.8, "title": "昌戈人", "fontsize": 12, "tyid": "304001", "oid": "103:1559046782166", "color": "#262626" }, "geometry": { "type": "Point", "coordinates": [ -70.136719, -24.926295 ] } }
{"year": "BC539",  "type": "Feature", "tippecanoe": { "layer": "2AFCA899DB001583918957815", "minzoom": 2, "maxzoom": 8 }, "properties": { "halo": 0.8, "title": "图皮人", "fontsize": 12, "tyid": "304001", "oid": "103:1559046782232", "color": "#262626" }, "geometry": { "type": "Point", "coordinates": [ -38.320312, -9.709057 ] } }
{"year": "BC539",  "type": "Feature", "tippecanoe": { "layer": "2AFCA899DB001583918957815", "minzoom": 2, "maxzoom": 8 }, "properties": { "halo": 0.8, "title": "原始日耳曼人", "fontsize": 12, "tyid": "304001", "oid": "103:1559046783073", "color": "#262626" }, "geometry": { "type": "Point", "coordinates": [ 13.623047, 62.021528 ] } }
{"year": "BC539",  "type": "Feature", "tippecanoe": { "layer": "2AFCA899DB001583918957815", "minzoom": 2, "maxzoom": 8 }, "properties": { "halo": 0.8, "title": "凯尔特人", "fontsize": 12, "tyid": "304001", "oid": "103:1559046782965", "color": "#262626" }, "geometry": { "type": "Point", "coordinates": [ 2.285156, 46.980252 ] } }
{"year": "BC539",  "type": "Feature", "tippecanoe": { "layer": "2AFCA899DB001583918957815", "minzoom": 2, "maxzoom": 8 }, "properties": { "halo": 0.8, "title": "波美拉尼亚文化", "fontsize": 12, "tyid": "304002", "oid": "103:1559046782744", "color": "#262626" }, "geometry": { "type": "Point", "coordinates": [ 20.039062, 51.124213 ] } }
{"year": "BC539",  "type": "Feature", "tippecanoe": { "layer": "2AFCA899DB001583918957815", "minzoom": 2, "maxzoom": 8 }, "properties": { "halo": 0.8, "title": "哈尔施塔特文化D期", "fontsize": 12, "tyid": "304002", "oid": "103:1559046782132", "color": "#262626" }, "geometry": { "type": "Point", "coordinates": [ 14.326172, 48.806863 ] } }
{"year": "BC539",  "type": "Feature", "tippecanoe": { "layer": "2AFCA899DB001583918957815", "minzoom": 2, "maxzoom": 8 }, "properties": { "halo": 0.8, "title": "石棉陶文化", "fontsize": 12, "tyid": "304002", "oid": "103:1559046783076", "color": "#262626" }, "geometry": { "type": "Point", "coordinates": [ 28.740234, 65.476508 ] } }
{"year": "BC539",  "type": "Feature", "tippecanoe": { "layer": "2AFCA899DB001583918957815", "minzoom": 2, "maxzoom": 8 }, "properties": { "halo": 0.8, "title": "迪亚科夫文化", "fontsize": 12, "tyid": "304002", "oid": "103:1559046782146", "color": "#262626" }, "geometry": { "type": "Point", "coordinates": [ 37.968750, 56.800878 ] } }
{"year": "BC539",  "type": "Feature", "tippecanoe": { "layer": "2AFCA899DB001583918957815", "minzoom": 2, "maxzoom": 8 }, "properties": { "halo": 0.8, "title": "米洛格勒文化", "fontsize": 12, "tyid": "304002", "oid": "103:1559046782623", "color": "#262626" }, "geometry": { "type": "Point", "coordinates": [ 27.949219, 51.835778 ] } }
{"year": "BC539",  "type": "Feature", "tippecanoe": { "layer": "2AFCA899DB001583918957815", "minzoom": 2, "maxzoom": 8 }, "properties": { "halo": 0.8, "title": "第聂伯河与德维纳河文化", "fontsize": 12, "tyid": "304001", "oid": "103:1559046782143", "color": "#262626" }, "geometry": { "type": "Point", "coordinates": [ 31.728516, 55.578345 ] } }
{"year": "BC539",  "type": "Feature", "tippecanoe": { "layer": "2AFCA899DB001583918957815", "minzoom": 2, "maxzoom": 8 }, "properties": { "halo": 0.8, "title": "达契亚人", "fontsize": 12, "tyid": "304001", "oid": "103:1559046782158", "color": "#262626" }, "geometry": { "type": "Point", "coordinates": [ 25.400391, 46.195042 ] } }
{"year": "BC539",  "type": "Feature", "tippecanoe": { "layer": "2AFCA899DB001583918957815", "minzoom": 2, "maxzoom": 8 }, "properties": { "halo": 0.8, "title": "戈罗杰茨文化", "fontsize": 12, "tyid": "304002", "oid": "103:1559046782910", "color": "#262626" }, "geometry": { "type": "Point", "coordinates": [ 44.033203, 53.956086 ] } }
{"year": "BC539",  "type": "Feature", "tippecanoe": { "layer": "2AFCA899DB001583918957815", "minzoom": 2, "maxzoom": 8 }, "properties": { "halo": 0.8, "title": "柏柏尔人诸部", "fontsize": 12, "tyid": "304001", "oid": "103:1559046782221", "color": "#262626" }, "geometry": { "type": "Point", "coordinates": [ 2.636719, 26.431228 ] } }
{"year": "BC539",  "type": "Feature", "tippecanoe": { "layer": "2AFCA899DB001583918957815", "minzoom": 2, "maxzoom": 8 }, "properties": { "halo": 0.8, "title": "加拉曼特人", "fontsize": 12, "tyid": "304001", "oid": "103:1559046782258", "color": "#262626" }, "geometry": { "type": "Point", "coordinates": [ 16.347656, 28.304381 ] } }
{"year": "BC539",  "type": "Feature", "tippecanoe": { "layer": "2AFCA899DB001583918957815", "minzoom": 2, "maxzoom": 8 }, "properties": { "halo": 0.8, "title": "曼德人", "fontsize": 12, "tyid": "304001", "oid": "103:1559046782451", "color": "#262626" }, "geometry": { "type": "Point", "coordinates": [ 0.175781, 12.726084 ] } }
{"year": "BC539",  "type": "Feature", "tippecanoe": { "layer": "2AFCA899DB001583918957815", "minzoom": 2, "maxzoom": 8 }, "properties": { "halo": 0.8, "title": "诺克文化", "fontsize": 12, "tyid": "304002", "oid": "103:1559046782873", "color": "#262626" }, "geometry": { "type": "Point", "coordinates": [ 7.119141, 10.574222 ] } }
{"year": "BC539",  "type": "Feature", "tippecanoe": { "layer": "2AFCA899DB001583918957815", "minzoom": 2, "maxzoom": 8 }, "properties": { "halo": 0.8, "title": "萨奥文明", "fontsize": 12, "tyid": "304002", "oid": "103:1559046782055", "color": "#262626" }, "geometry": { "type": "Point", "coordinates": [ 15.029297, 13.496473 ] } }
{"year": "BC539",  "type": "Feature", "tippecanoe": { "layer": "2AFCA899DB001583918957815", "minzoom": 2, "maxzoom": 8 }, "properties": { "halo": 0.8, "title": "巴卡人", "fontsize": 12, "tyid": "304001", "oid": "103:1559046782680", "color": "#262626" }, "geometry": { "type": "Point", "coordinates": [ 18.105469, 5.441022 ] } }
{"year": "BC539",  "type": "Feature", "tippecanoe": { "layer": "2AFCA899DB001583918957815", "minzoom": 2, "maxzoom": 8 }, "properties": { "halo": 0.8, "title": "古埃及第二十六王朝", "fontsize": 12, "tyid": "304000", "oid": "103:1576922412431", "color": "#202020" }, "geometry": { "type": "Point", "coordinates": [ 30.937500, 29.611670 ] } }
{"year": "BC539",  "type": "Feature", "tippecanoe": { "layer": "2AFCA899DB001583918957815", "minzoom": 2, "maxzoom": 8 }, "properties": { "halo": 0.8, "title": "新巴比伦帝国", "fontsize": 12, "tyid": "304000", "oid": "103:1559046782003", "color": "#202020" }, "geometry": { "type": "Point", "coordinates": [ 39.023438, 33.504759 ] } }
{"year": "BC539",  "type": "Feature", "tippecanoe": { "layer": "2AFCA899DB001583918957815", "minzoom": 2, "maxzoom": 8 }, "properties": { "halo": 0.8, "title": "利黑延王国", "fontsize": 12, "tyid": "304000", "oid": "103:1559046782434", "color": "#202020" }, "geometry": { "type": "Point", "coordinates": [ 38.144531, 26.431228 ] } }
{"year": "BC539",  "type": "Feature", "tippecanoe": { "layer": "2AFCA899DB001583918957815", "minzoom": 2, "maxzoom": 8 }, "properties": { "halo": 0.8, "title": "凯达尔联盟", "fontsize": 12, "tyid": "304001", "oid": "103:1559046782442", "color": "#262626" }, "geometry": { "type": "Point", "coordinates": [ 42.802734, 29.535230 ] } }
{"year": "BC539",  "type": "Feature", "tippecanoe": { "layer": "2AFCA899DB001583918957815", "minzoom": 2, "maxzoom": 8 }, "properties": { "halo": 0.8, "title": "北非贝都因人", "fontsize": 12, "tyid": "304001", "oid": "103:1559046782383", "color": "#262626" }, "geometry": { "type": "Point", "coordinates": [ 23.027344, 20.385825 ] } }
{"year": "BC539",  "type": "Feature", "tippecanoe": { "layer": "2AFCA899DB001583918957815", "minzoom": 2, "maxzoom": 8 }, "properties": { "halo": 0.8, "title": "富尔人", "fontsize": 12, "tyid": "304001", "oid": "103:1559046782572", "color": "#262626" }, "geometry": { "type": "Point", "coordinates": [ 26.015625, 12.983148 ] } }
{"year": "BC539",  "type": "Feature", "tippecanoe": { "layer": "2AFCA899DB001583918957815", "minzoom": 2, "maxzoom": 8 }, "properties": { "halo": 0.8, "title": "库施王国", "fontsize": 12, "tyid": "304000", "oid": "103:1559046782869", "color": "#202020" }, "geometry": { "type": "Point", "coordinates": [ 32.167969, 18.396230 ] } }
{"year": "BC539",  "type": "Feature", "tippecanoe": { "layer": "2AFCA899DB001583918957815", "minzoom": 2, "maxzoom": 8 }, "properties": { "halo": 0.8, "title": "尼罗特人", "fontsize": 12, "tyid": "304001", "oid": "103:1559046782818", "color": "#262626" }, "geometry": { "type": "Point", "coordinates": [ 33.310547, 1.318243 ] } }
{"year": "BC539",  "type": "Feature", "tippecanoe": { "layer": "2AFCA899DB001583918957815", "minzoom": 2, "maxzoom": 8 }, "properties": { "halo": 0.8, "title": "贝扎人", "fontsize": 12, "tyid": "304001", "oid": "103:1559046782318", "color": "#262626" }, "geometry": { "type": "Point", "coordinates": [ 36.035156, 16.888660 ] } }
{"year": "BC539",  "type": "Feature", "tippecanoe": { "layer": "2AFCA899DB001583918957815", "minzoom": 2, "maxzoom": 8 }, "properties": { "halo": 0.8, "title": "赛莫德人", "fontsize": 12, "tyid": "304001", "oid": "103:1559046782708", "color": "#262626" }, "geometry": { "type": "Point", "coordinates": [ 42.626953, 21.698265 ] } }
{"year": "BC539",  "type": "Feature", "tippecanoe": { "layer": "2AFCA899DB001583918957815", "minzoom": 2, "maxzoom": 8 }, "properties": { "halo": 0.8, "title": "卢欧诸部", "fontsize": 12, "tyid": "304001", "oid": "103:1559046782111", "color": "#262626" }, "geometry": { "type": "Point", "coordinates": [ 36.826172, 9.275622 ] } }
{"year": "BC539",  "type": "Feature", "tippecanoe": { "layer": "2AFCA899DB001583918957815", "minzoom": 2, "maxzoom": 8 }, "properties": { "halo": 0.8, "title": "库希特人", "fontsize": 12, "tyid": "304001", "oid": "103:1559046782407", "color": "#262626" }, "geometry": { "type": "Point", "coordinates": [ 44.121094, 4.477856 ] } }
{"year": "BC539",  "type": "Feature", "tippecanoe": { "layer": "2AFCA899DB001583918957815", "minzoom": 2, "maxzoom": 8 }, "properties": { "halo": 0.8, "title": "彼尔姆人", "fontsize": 12, "tyid": "304001", "oid": "103:1559046782747", "color": "#262626" }, "geometry": { "type": "Point", "coordinates": [ 55.371094, 57.844751 ] } }
{"year": "BC539",  "type": "Feature", "tippecanoe": { "layer": "2AFCA899DB001583918957815", "minzoom": 2, "maxzoom": 8 }, "properties": { "halo": 0.8, "title": "东马扎尔人", "fontsize": 12, "tyid": "304001", "oid": "103:1559046782689", "color": "#262626" }, "geometry": { "type": "Point", "coordinates": [ 59.238281, 61.396719 ] } }
{"year": "BC539",  "type": "Feature", "tippecanoe": { "layer": "2AFCA899DB001583918957815", "minzoom": 2, "maxzoom": 8 }, "properties": { "halo": 0.8, "title": "萨尔马提亚人", "fontsize": 12, "tyid": "304001", "oid": "103:1559046782049", "color": "#262626" }, "geometry": { "type": "Point", "coordinates": [ 52.734375, 52.589701 ] } }
{"year": "BC539",  "type": "Feature", "tippecanoe": { "layer": "2AFCA899DB001583918957815", "minzoom": 2, "maxzoom": 8 }, "properties": { "halo": 0.8, "title": "斯基泰人", "fontsize": 12, "tyid": "304001", "oid": "103:1559046782023", "color": "#262626" }, "geometry": { "type": "Point", "coordinates": [ 53.525391, 48.980217 ] } }
{"year": "BC539",  "type": "Feature", "tippecanoe": { "layer": "2AFCA899DB001583918957815", "minzoom": 2, "maxzoom": 8 }, "properties": { "halo": 0.8, "title": "萨迦蒂安文化", "fontsize": 12, "tyid": "304002", "oid": "103:1559046782046", "color": "#262626" }, "geometry": { "type": "Point", "coordinates": [ 65.566406, 55.279115 ] } }
{"year": "BC539",  "type": "Feature", "tippecanoe": { "layer": "2AFCA899DB001583918957815", "minzoom": 2, "maxzoom": 8 }, "properties": { "halo": 0.8, "title": "塞迦人", "fontsize": 12, "tyid": "304001", "oid": "103:1559046782030", "color": "#262626" }, "geometry": { "type": "Point", "coordinates": [ 60.292969, 42.098222 ] } }
{"year": "BC539",  "type": "Feature", "tippecanoe": { "layer": "2AFCA899DB001583918957815", "minzoom": 2, "maxzoom": 8 }, "properties": { "halo": 0.8, "title": "马萨格泰人", "fontsize": 12, "tyid": "304001", "oid": "103:1559046782431", "color": "#262626" }, "geometry": { "type": "Point", "coordinates": [ 62.402344, 46.134170 ] } }
{"year": "BC539",  "type": "Feature", "tippecanoe": { "layer": "2AFCA899DB001583918957815", "minzoom": 2, "maxzoom": 8 }, "properties": { "halo": 0.8, "title": "乌戈尔人", "fontsize": 12, "tyid": "304001", "oid": "103:1559046782282", "color": "#262626" }, "geometry": { "type": "Point", "coordinates": [ 77.080078, 57.088515 ] } }
{"year": "BC539",  "type": "Feature", "tippecanoe": { "layer": "2AFCA899DB001583918957815", "minzoom": 2, "maxzoom": 8 }, "properties": { "halo": 0.8, "title": "塔斯莫拉文化", "fontsize": 12, "tyid": "304002", "oid": "103:1559046782916", "color": "#262626" }, "geometry": { "type": "Point", "coordinates": [ 74.970703, 48.690960 ] } }
{"year": "BC539",  "type": "Feature", "tippecanoe": { "layer": "2AFCA899DB001583918957815", "minzoom": 2, "maxzoom": 8 }, "properties": { "halo": 0.8, "title": "塔加尔文化", "fontsize": 12, "tyid": "304002", "oid": "103:1559046782615", "color": "#262626" }, "geometry": { "type": "Point", "coordinates": [ 88.505859, 54.265224 ] } }
{"year": "BC539",  "type": "Feature", "tippecanoe": { "layer": "2AFCA899DB001583918957815", "minzoom": 2, "maxzoom": 8 }, "properties": { "halo": 0.8, "title": "切木尔切克文化", "fontsize": 12, "tyid": "304002", "oid": "103:1559046782550", "color": "#262626" }, "geometry": { "type": "Point", "coordinates": [ 87.011719, 48.166085 ] } }
{"year": "BC539",  "type": "Feature", "tippecanoe": { "layer": "2AFCA899DB001583918957815", "minzoom": 2, "maxzoom": 8 }, "properties": { "halo": 0.8, "title": "阿契美尼德帝国", "fontsize": 12, "tyid": "304000", "oid": "103:1559046783032", "color": "#202020" }, "geometry": { "type": "Point", "coordinates": [ 51.240234, 34.452218 ] } }
{"year": "BC539",  "type": "Feature", "tippecanoe": { "layer": "2AFCA899DB001583918957815", "minzoom": 2, "maxzoom": 8 }, "properties": { "halo": 0.8, "title": "贝都因人", "fontsize": 12, "tyid": "304001", "oid": "103:1559046782174", "color": "#262626" }, "geometry": { "type": "Point", "coordinates": [ 49.218750, 21.861499 ] } }
{"year": "BC539",  "type": "Feature", "tippecanoe": { "layer": "2AFCA899DB001583918957815", "minzoom": 2, "maxzoom": 8 }, "properties": { "halo": 0.8, "title": "马克鲁比亚王国", "fontsize": 12, "tyid": "304000", "oid": "103:1559046782782", "color": "#202020" }, "geometry": { "type": "Point", "coordinates": [ 48.251953, 9.449062 ] } }
{"year": "BC539",  "type": "Feature", "tippecanoe": { "layer": "2AFCA899DB001583918957815", "minzoom": 2, "maxzoom": 8 }, "properties": { "halo": 0.8, "title": "粟特人", "fontsize": 12, "tyid": "304001", "oid": "103:1559046782660", "color": "#262626" }, "geometry": { "type": "Point", "coordinates": [ 69.169922, 40.580585 ] } }
{"year": "BC539",  "type": "Feature", "tippecanoe": { "layer": "2AFCA899DB001583918957815", "minzoom": 2, "maxzoom": 8 }, "properties": { "halo": 0.8, "title": "阿槃提国", "fontsize": 12, "tyid": "304000", "oid": "103:1559046782310", "color": "#202020" }, "geometry": { "type": "Point", "coordinates": [ 76.113281, 23.483401 ] } }
{"year": "BC539",  "type": "Feature", "tippecanoe": { "layer": "2AFCA899DB001583918957815", "minzoom": 2, "maxzoom": 8 }, "properties": { "halo": 0.8, "title": "吐火罗人", "fontsize": 12, "tyid": "304001", "oid": "103:1559046782288", "color": "#262626" }, "geometry": { "type": "Point", "coordinates": [ 84.199219, 40.313043 ] } }
{"year": "BC539",  "type": "Feature", "tippecanoe": { "layer": "2AFCA899DB001583918957815", "minzoom": 2, "maxzoom": 8 }, "properties": { "halo": 0.8, "title": "北方打磨黑陶文化", "fontsize": 12, "tyid": "304002", "oid": "103:1559046783036", "color": "#262626" }, "geometry": { "type": "Point", "coordinates": [ 82.353516, 22.431340 ] } }
{"year": "BC539",  "type": "Feature", "tippecanoe": { "layer": "2AFCA899DB001583918957815", "minzoom": 2, "maxzoom": 8 }, "properties": { "halo": 0.8, "title": "乌斯季米尔文化", "fontsize": 12, "tyid": "304002", "oid": "103:1559046782606", "color": "#262626" }, "geometry": { "type": "Point", "coordinates": [ 133.066406, 68.301905 ] } }
{"year": "BC539",  "type": "Feature", "tippecanoe": { "layer": "2AFCA899DB001583918957815", "minzoom": 2, "maxzoom": 8 }, "properties": { "halo": 0.8, "title": "乌尤克文化", "fontsize": 12, "tyid": "304000", "oid": "103:1559046782811", "color": "#202020" }, "geometry": { "type": "Point", "coordinates": [ 93.076172, 49.553726 ] } }
{"year": "BC539",  "type": "Feature", "tippecanoe": { "layer": "2AFCA899DB001583918957815", "minzoom": 2, "maxzoom": 8 }, "properties": { "halo": 0.8, "title": "石板墓文化", "fontsize": 12, "tyid": "304002", "oid": "103:1559046782356", "color": "#262626" }, "geometry": { "type": "Point", "coordinates": [ 108.017578, 48.806863 ] } }
{"year": "BC539",  "type": "Feature", "tippecanoe": { "layer": "2AFCA899DB001583918957815", "minzoom": 2, "maxzoom": 8 }, "properties": { "halo": 0.8, "title": "通古斯人", "fontsize": 12, "tyid": "304001", "oid": "103:1559046782271", "color": "#262626" }, "geometry": { "type": "Point", "coordinates": [ 116.718750, 60.152442 ] } }
{"year": "BC539",  "type": "Feature", "tippecanoe": { "layer": "2AFCA899DB001583918957815", "minzoom": 2, "maxzoom": 8 }, "properties": { "halo": 0.8, "title": "东胡", "fontsize": 12, "tyid": "304001", "oid": "103:1559046782784", "color": "#262626" }, "geometry": { "type": "Point", "coordinates": [ 117.949219, 43.325178 ] } }
{"year": "BC539",  "type": "Feature", "tippecanoe": { "layer": "2AFCA899DB001583918957815", "minzoom": 2, "maxzoom": 8 }, "properties": { "halo": 0.8, "title": "濊貊", "fontsize": 12, "tyid": "304001", "oid": "103:1559046783064", "color": "#262626" }, "geometry": { "type": "Point", "coordinates": [ 125.947266, 41.771312 ] } }
{"year": "BC539",  "type": "Feature", "tippecanoe": { "layer": "2AFCA899DB001583918957815", "minzoom": 2, "maxzoom": 8 }, "properties": { "halo": 0.8, "title": "肃慎", "fontsize": 12, "tyid": "304001", "oid": "103:1559046782790", "color": "#262626" }, "geometry": { "type": "Point", "coordinates": [ 132.275391, 47.040182 ] } }
{"year": "BC539",  "type": "Feature", "tippecanoe": { "layer": "2AFCA899DB001583918957815", "minzoom": 2, "maxzoom": 8 }, "properties": { "halo": 0.8, "title": "古羌人", "fontsize": 12, "tyid": "304001", "oid": "103:1559046782135", "color": "#262626" }, "geometry": { "type": "Point", "coordinates": [ 90.615234, 33.211116 ] } }
{"year": "BC539",  "type": "Feature", "tippecanoe": { "layer": "2AFCA899DB001583918957815", "minzoom": 2, "maxzoom": 8 }, "properties": { "halo": 0.8, "title": "月氏", "fontsize": 12, "tyid": "304001", "oid": "103:1559046782502", "color": "#262626" }, "geometry": { "type": "Point", "coordinates": [ 99.755859, 39.232253 ] } }
{"year": "BC539",  "type": "Feature", "tippecanoe": { "layer": "2AFCA899DB001583918957815", "minzoom": 2, "maxzoom": 8 }, "properties": { "halo": 0.8, "title": "百濮", "fontsize": 12, "tyid": "304001", "oid": "103:1559046782177", "color": "#262626" }, "geometry": { "type": "Point", "coordinates": [ 102.568359, 25.878994 ] } }
{"year": "BC539",  "type": "Feature", "tippecanoe": { "layer": "2AFCA899DB001583918957815", "minzoom": 2, "maxzoom": 8 }, "properties": { "halo": 0.8, "title": "西瓯", "fontsize": 12, "tyid": "304001", "oid": "103:1559046782601", "color": "#262626" }, "geometry": { "type": "Point", "coordinates": [ 108.720703, 23.644524 ] } }
{"year": "BC539",  "type": "Feature", "tippecanoe": { "layer": "2AFCA899DB001583918957815", "minzoom": 2, "maxzoom": 8 }, "properties": { "halo": 0.8, "title": "楚", "fontsize": 12, "tyid": "304000", "oid": "103:1559046782163", "color": "#202020" }, "geometry": { "type": "Point", "coordinates": [ 114.169922, 31.578535 ] } }
{"year": "BC539",  "type": "Feature", "tippecanoe": { "layer": "2AFCA899DB001583918957815", "minzoom": 2, "maxzoom": 8 }, "properties": { "halo": 0.8, "title": "南岛人", "fontsize": 12, "tyid": "304001", "oid": "103:1559046783043", "color": "#262626" }, "geometry": { "type": "Point", "coordinates": [ 114.169922, 0.878872 ] } }
{"year": "BC539",  "type": "Feature", "tippecanoe": { "layer": "2AFCA899DB001583918957815", "minzoom": 2, "maxzoom": 8 }, "properties": { "halo": 0.8, "title": "尤卡吉尔人", "fontsize": 12, "tyid": "304001", "oid": "103:1559046782237", "color": "#262626" }, "geometry": { "type": "Point", "coordinates": [ 155.214844, 64.886265 ] } }
{"year": "BC539",  "type": "Feature", "tippecanoe": { "layer": "2AFCA899DB001583918957815", "minzoom": 2, "maxzoom": 8 }, "properties": { "halo": 0.8, "title": "尼夫赫人", "fontsize": 12, "tyid": "304001", "oid": "103:1559046783066", "color": "#262626" }, "geometry": { "type": "Point", "coordinates": [ 138.779297, 51.890054 ] } }
{"year": "BC539",  "type": "Feature", "tippecanoe": { "layer": "2AFCA899DB001583918957815", "minzoom": 2, "maxzoom": 8 }, "properties": { "halo": 0.8, "title": "科里亚克族", "fontsize": 12, "tyid": "304001", "oid": "103:1559046783069", "color": "#262626" }, "geometry": { "type": "Point", "coordinates": [ 164.882812, 61.814664 ] } }
{"year": "BC539",  "type": "Feature", "tippecanoe": { "layer": "2AFCA899DB001583918957815", "minzoom": 2, "maxzoom": 8 }, "properties": { "halo": 0.8, "title": "楚科奇人", "fontsize": 12, "tyid": "304001", "oid": "103:1559046782584", "color": "#262626" }, "geometry": { "type": "Point", "coordinates": [ 171.035156, 66.443107 ] } }
{"year": "BC539",  "type": "Feature", "tippecanoe": { "layer": "2AFCA899DB001583918957815", "minzoom": 2, "maxzoom": 8 }, "properties": { "halo": 0.8, "title": "绳文人", "fontsize": 12, "tyid": "304001", "oid": "103:1559046782025", "color": "#262626" }, "geometry": { "type": "Point", "coordinates": [ 139.218750, 36.668419 ] } }
{"year": "BC539",  "type": "Feature", "tippecanoe": { "layer": "2AFCA899DB001583918957815", "minzoom": 2, "maxzoom": 8 }, "properties": { "halo": 0.8, "title": "西北班图人诸部", "fontsize": 12, "tyid": "304001", "oid": "103:1559046782351", "color": "#262626" }, "geometry": { "type": "Point", "coordinates": [ 20.742188, -0.527336 ] } }
{"year": "BC539",  "type": "Feature", "tippecanoe": { "layer": "2AFCA899DB001583918957815", "minzoom": 2, "maxzoom": 8 }, "properties": { "halo": 0.8, "title": "西班图人诸部", "fontsize": 12, "tyid": "304001", "oid": "103:1559046782720", "color": "#262626" }, "geometry": { "type": "Point", "coordinates": [ 19.951172, -7.449624 ] } }
{"year": "BC539",  "type": "Feature", "tippecanoe": { "layer": "2AFCA899DB001583918957815", "minzoom": 2, "maxzoom": 8 }, "properties": { "halo": 0.8, "title": "东班图人诸部", "fontsize": 12, "tyid": "304001", "oid": "103:1559046782639", "color": "#262626" }, "geometry": { "type": "Point", "coordinates": [ 31.728516, -5.178482 ] } }
{"year": "BC539",  "type": "Feature", "tippecanoe": { "layer": "2AFCA899DB001583918957815", "minzoom": 2, "maxzoom": 8 }, "properties": { "halo": 0.8, "title": "科伊桑人", "fontsize": 12, "tyid": "304001", "oid": "103:1559046782435", "color": "#262626" }, "geometry": { "type": "Point", "coordinates": [ 27.070312, -16.467695 ] } }
{"year": "BC539",  "type": "Feature", "tippecanoe": { "layer": "2AFCA899DB001583918957815", "minzoom": 2, "maxzoom": 8 }, "properties": { "halo": 0.8, "title": "澳洲原住民", "fontsize": 12, "tyid": "304001", "oid": "103:1559046782760", "color": "#262626" }, "geometry": { "type": "Point", "coordinates": [ 134.296875, -25.562265 ] } }
{"year": "BC539",  "type": "Feature", "tippecanoe": { "layer": "2AFCA899DB001583918957815", "minzoom": 2, "maxzoom": 8 }, "properties": { "halo": 0.8, "title": "巴布亚人", "fontsize": 12, "tyid": "304001", "oid": "103:1559046782320", "color": "#262626" }, "geometry": { "type": "Point", "coordinates": [ 140.888672, -5.266008 ] } }
{"year": "BC539",  "type": "Feature", "tippecanoe": { "layer": "2AFCA89A03901583918957797", "minzoom": 2, "maxzoom": 8 }, "properties": { "halo": 0.8, "title": "阿普克斯文化", "fontsize": 12, "tyid": "304002", "oid": "103:1559046782774", "color": "#262626" }, "geometry": { "type": "Point", "coordinates": [ -104.677734, 39.504041 ] } }
{"year": "BC539",  "type": "Feature", "tippecanoe": { "layer": "2AFCA89A03901583918957797", "minzoom": 2, "maxzoom": 8 }, "properties": { "halo": 0.8, "title": "米斯特克人", "fontsize": 12, "tyid": "304001", "oid": "103:1559046782266", "color": "#262626" }, "geometry": { "type": "Point", "coordinates": [ -98.349609, 17.224758 ] } }
{"year": "BC539",  "type": "Feature", "tippecanoe": { "layer": "2AFCA89A03901583918957797", "minzoom": 2, "maxzoom": 8 }, "properties": { "halo": 0.8, "title": "特里克人", "fontsize": 12, "tyid": "304001", "oid": "103:1559046782240", "color": "#262626" }, "geometry": { "type": "Point", "coordinates": [ -97.294922, 17.644022 ] } }
{"year": "BC539",  "type": "Feature", "tippecanoe": { "layer": "2AFCA89A03901583918957797", "minzoom": 2, "maxzoom": 8 }, "properties": { "halo": 0.8, "title": "麦克斯人", "fontsize": 12, "tyid": "304001", "oid": "103:1559046782092", "color": "#262626" }, "geometry": { "type": "Point", "coordinates": [ -96.064453, 17.727759 ] } }
{"year": "BC539",  "type": "Feature", "tippecanoe": { "layer": "2AFCA89A03901583918957797", "minzoom": 2, "maxzoom": 8 }, "properties": { "halo": 0.8, "title": "祖赫人", "fontsize": 12, "tyid": "304001", "oid": "103:1559046782204", "color": "#262626" }, "geometry": { "type": "Point", "coordinates": [ -92.021484, 16.045813 ] } }
{"year": "BC539",  "type": "Feature", "tippecanoe": { "layer": "2AFCA89A03901583918957797", "minzoom": 2, "maxzoom": 8 }, "properties": { "halo": 0.8, "title": "基切人", "fontsize": 12, "tyid": "304001", "oid": "103:1559046782855", "color": "#262626" }, "geometry": { "type": "Point", "coordinates": [ -90.966797, 15.029686 ] } }
{"year": "BC539",  "type": "Feature", "tippecanoe": { "layer": "2AFCA89A03901583918957797", "minzoom": 2, "maxzoom": 8 }, "properties": { "halo": 0.8, "title": "阿尔托山文化", "fontsize": 12, "tyid": "304002", "oid": "103:1559046782391", "color": "#262626" }, "geometry": { "type": "Point", "coordinates": [ -91.054688, 14.349548 ] } }
{"year": "BC539",  "type": "Feature", "tippecanoe": { "layer": "2AFCA89A03901583918957797", "minzoom": 2, "maxzoom": 8 }, "properties": { "halo": 0.8, "title": "贝尔格莱德文化", "fontsize": 12, "tyid": "304002", "oid": "103:1559046782171", "color": "#262626" }, "geometry": { "type": "Point", "coordinates": [ -80.859375, 27.137368 ] } }
{"year": "BC539",  "type": "Feature", "tippecanoe": { "layer": "2AFCA89A03901583918957797", "minzoom": 2, "maxzoom": 8 }, "properties": { "halo": 0.8, "title": "第纳尔特时期", "fontsize": 12, "tyid": "304002", "oid": "103:1559046782846", "color": "#262626" }, "geometry": { "type": "Point", "coordinates": [ -85.605469, 11.523088 ] } }
{"year": "BC539",  "type": "Feature", "tippecanoe": { "layer": "2AFCA89A03901583918957797", "minzoom": 2, "maxzoom": 8 }, "properties": { "halo": 0.8, "title": "格兰科克勒文化", "fontsize": 12, "tyid": "304002", "oid": "103:1559046782446", "color": "#262626" }, "geometry": { "type": "Point", "coordinates": [ -80.507812, 8.581021 ] } }
{"year": "BC539",  "type": "Feature", "tippecanoe": { "layer": "2AFCA89A03901583918957797", "minzoom": 2, "maxzoom": 8 }, "properties": { "halo": 0.8, "title": "伊拉玛文化", "fontsize": 12, "tyid": "304002", "oid": "103:1559046781995", "color": "#262626" }, "geometry": { "type": "Point", "coordinates": [ -76.376953, 3.951941 ] } }
{"year": "BC539",  "type": "Feature", "tippecanoe": { "layer": "2AFCA89A03901583918957797", "minzoom": 2, "maxzoom": 8 }, "properties": { "halo": 0.8, "title": "阿伯里亚文化", "fontsize": 12, "tyid": "304002", "oid": "103:1559046782499", "color": "#262626" }, "geometry": { "type": "Point", "coordinates": [ -74.179688, 4.740675 ] } }
{"year": "BC539",  "type": "Feature", "tippecanoe": { "layer": "2AFCA89A03901583918957797", "minzoom": 2, "maxzoom": 8 }, "properties": { "halo": 0.8, "title": "科罗索文化", "fontsize": 12, "tyid": "304002", "oid": "103:1559046782837", "color": "#262626" }, "geometry": { "type": "Point", "coordinates": [ -66.533203, 18.229351 ] } }
{"year": "BC539",  "type": "Feature", "tippecanoe": { "layer": "2AFCA89A03901583918957797", "minzoom": 2, "maxzoom": 8 }, "properties": { "halo": 0.8, "title": "克鲁姆湾文化", "fontsize": 12, "tyid": "304002", "oid": "103:1559046782857", "color": "#262626" }, "geometry": { "type": "Point", "coordinates": [ -64.775391, 17.811456 ] } }
{"year": "BC539",  "type": "Feature", "tippecanoe": { "layer": "2AFCA89A03901583918957797", "minzoom": 2, "maxzoom": 8 }, "properties": { "halo": 0.8, "title": "奥托罗伊德人", "fontsize": 12, "tyid": "304001", "oid": "103:1559046782901", "color": "#262626" }, "geometry": { "type": "Point", "coordinates": [ -61.347656, 10.487812 ] } }
{"year": "BC539",  "type": "Feature", "tippecanoe": { "layer": "2AFCA89A03901583918957797", "minzoom": 2, "maxzoom": 8 }, "properties": { "halo": 0.8, "title": "巴斯克人", "fontsize": 12, "tyid": "304001", "oid": "103:1559046782985", "color": "#262626" }, "geometry": { "type": "Point", "coordinates": [ -1.494141, 42.811522 ] } }
{"year": "BC539",  "type": "Feature", "tippecanoe": { "layer": "2AFCA89A03901583918957797", "minzoom": 2, "maxzoom": 8 }, "properties": { "halo": 0.8, "title": "伊塞塔尼人", "fontsize": 12, "tyid": "304001", "oid": "103:1559046781988", "color": "#262626" }, "geometry": { "type": "Point", "coordinates": [ -0.966797, 42.423457 ] } }
{"year": "BC539",  "type": "Feature", "tippecanoe": { "layer": "2AFCA89A03901583918957797", "minzoom": 2, "maxzoom": 8 }, "properties": { "halo": 0.8, "title": "关切人", "fontsize": 12, "tyid": "304001", "oid": "103:1559046782684", "color": "#262626" }, "geometry": { "type": "Point", "coordinates": [ -16.611328, 28.304381 ] } }
{"year": "BC539",  "type": "Feature", "tippecanoe": { "layer": "2AFCA89A03901583918957797", "minzoom": 2, "maxzoom": 8 },