{"year": "BC570",  "type": "Feature", "tippecanoe": { "layer": "2AFCA05304E01583919000303", "minzoom": 2, "maxzoom": 8 }, "properties": { "halo": 0.8, "title": "阿普克斯文化", "fontsize": 12, "tyid": "304002", "oid": "103:1555587279606", "color": "#262626" }, "geometry": { "type": "Point", "coordinates": [ -104.677734, 39.504041 ] } }
{"year": "BC570",  "type": "Feature", "tippecanoe": { "layer": "2AFCA05304E01583919000303", "minzoom": 2, "maxzoom": 8 }, "properties": { "halo": 0.8, "title": "米斯特克人", "fontsize": 12, "tyid": "304001", "oid": "103:1555587279885", "color": "#262626" }, "geometry": { "type": "Point", "coordinates": [ -98.349609, 17.224758 ] } }
{"year": "BC570",  "type": "Feature", "tippecanoe": { "layer": "2AFCA05304E01583919000303", "minzoom": 2, "maxzoom": 8 }, "properties": { "halo": 0.8, "title": "特里克人", "fontsize": 12, "tyid": "304001", "oid": "103:1555587279465", "color": "#262626" }, "geometry": { "type": "Point", "coordinates": [ -97.294922, 17.644022 ] } }
{"year": "BC570",  "type": "Feature", "tippecanoe": { "layer": "2AFCA05304E01583919000303", "minzoom": 2, "maxzoom": 8 }, "properties": { "halo": 0.8, "title": "麦克斯人", "fontsize": 12, "tyid": "304001", "oid": "103:1555587280036", "color": "#262626" }, "geometry": { "type": "Point", "coordinates": [ -96.064453, 17.811456 ] } }
{"year": "BC570",  "type": "Feature", "tippecanoe": { "layer": "2AFCA05304E01583919000303", "minzoom": 2, "maxzoom": 8 }, "properties": { "halo": 0.8, "title": "祖赫人", "fontsize": 12, "tyid": "304001", "oid": "103:1555587279882", "color": "#262626" }, "geometry": { "type": "Point", "coordinates": [ -92.021484, 16.045813 ] } }
{"year": "BC570",  "type": "Feature", "tippecanoe": { "layer": "2AFCA05304E01583919000303", "minzoom": 2, "maxzoom": 8 }, "properties": { "halo": 0.8, "title": "基切人", "fontsize": 12, "tyid": "304001", "oid": "103:1555587279734", "color": "#262626" }, "geometry": { "type": "Point", "coordinates": [ -90.966797, 15.029686 ] } }
{"year": "BC570",  "type": "Feature", "tippecanoe": { "layer": "2AFCA05304E01583919000303", "minzoom": 2, "maxzoom": 8 }, "properties": { "halo": 0.8, "title": "阿尔托山文化", "fontsize": 12, "tyid": "304002", "oid": "103:1555587279700", "color": "#262626" }, "geometry": { "type": "Point", "coordinates": [ -91.054688, 14.349548 ] } }
{"year": "BC570",  "type": "Feature", "tippecanoe": { "layer": "2AFCA05304E01583919000303", "minzoom": 2, "maxzoom": 8 }, "properties": { "halo": 0.8, "title": "贝尔格莱德文化", "fontsize": 12, "tyid": "304002", "oid": "103:1555587279412", "color": "#262626" }, "geometry": { "type": "Point", "coordinates": [ -80.859375, 27.137368 ] } }
{"year": "BC570",  "type": "Feature", "tippecanoe": { "layer": "2AFCA05304E01583919000303", "minzoom": 2, "maxzoom": 8 }, "properties": { "halo": 0.8, "title": "第纳尔特时期", "fontsize": 12, "tyid": "304002", "oid": "103:1555587279459", "color": "#262626" }, "geometry": { "type": "Point", "coordinates": [ -85.605469, 11.523088 ] } }
{"year": "BC570",  "type": "Feature", "tippecanoe": { "layer": "2AFCA05304E01583919000303", "minzoom": 2, "maxzoom": 8 }, "properties": { "halo": 0.8, "title": "格兰科克勒文化", "fontsize": 12, "tyid": "304002", "oid": "103:1555587279972", "color": "#262626" }, "geometry": { "type": "Point", "coordinates": [ -80.507812, 8.581021 ] } }
{"year": "BC570",  "type": "Feature", "tippecanoe": { "layer": "2AFCA05304E01583919000303", "minzoom": 2, "maxzoom": 8 }, "properties": { "halo": 0.8, "title": "伊拉玛文化", "fontsize": 12, "tyid": "304002", "oid": "103:1555587279935", "color": "#262626" }, "geometry": { "type": "Point", "coordinates": [ -76.464844, 3.776559 ] } }
{"year": "BC570",  "type": "Feature", "tippecanoe": { "layer": "2AFCA05304E01583919000303", "minzoom": 2, "maxzoom": 8 }, "properties": { "halo": 0.8, "title": "阿伯里亚文化", "fontsize": 12, "tyid": "304002", "oid": "103:1555587279985", "color": "#262626" }, "geometry": { "type": "Point", "coordinates": [ -74.179688, 4.740675 ] } }
{"year": "BC570",  "type": "Feature", "tippecanoe": { "layer": "2AFCA05304E01583919000303", "minzoom": 2, "maxzoom": 8 }, "properties": { "halo": 0.8, "title": "科罗索文化", "fontsize": 12, "tyid": "304002", "oid": "103:1555587280059", "color": "#262626" }, "geometry": { "type": "Point", "coordinates": [ -66.533203, 18.229351 ] } }
{"year": "BC570",  "type": "Feature", "tippecanoe": { "layer": "2AFCA05304E01583919000303", "minzoom": 2, "maxzoom": 8 }, "properties": { "halo": 0.8, "title": "克鲁姆湾文化", "fontsize": 12, "tyid": "304002", "oid": "103:1555587280081", "color": "#262626" }, "geometry": { "type": "Point", "coordinates": [ -64.775391, 17.811456 ] } }
{"year": "BC570",  "type": "Feature", "tippecanoe": { "layer": "2AFCA05304E01583919000303", "minzoom": 2, "maxzoom": 8 }, "properties": { "halo": 0.8, "title": "奥托罗伊德人", "fontsize": 12, "tyid": "304001", "oid": "103:1555587280153", "color": "#262626" }, "geometry": { "type": "Point", "coordinates": [ -61.347656, 10.487812 ] } }
{"year": "BC570",  "type": "Feature", "tippecanoe": { "layer": "2AFCA05304E01583919000303", "minzoom": 2, "maxzoom": 8 }, "properties": { "halo": 0.8, "title": "巴斯克人", "fontsize": 12, "tyid": "304001", "oid": "103:1555587280306", "color": "#262626" }, "geometry": { "type": "Point", "coordinates": [ -1.494141, 42.811522 ] } }
{"year": "BC570",  "type": "Feature", "tippecanoe": { "layer": "2AFCA05304E01583919000303", "minzoom": 2, "maxzoom": 8 }, "properties": { "halo": 0.8, "title": "伊塞塔尼人", "fontsize": 12, "tyid": "304001", "oid": "103:1555587279226", "color": "#262626" }, "geometry": { "type": "Point", "coordinates": [ -0.966797, 42.423457 ] } }
{"year": "BC570",  "type": "Feature", "tippecanoe": { "layer": "2AFCA05304E01583919000303", "minzoom": 2, "maxzoom": 8 }, "properties": { "halo": 0.8, "title": "关切人", "fontsize": 12, "tyid": "304001", "oid": "103:1555587280099", "color": "#262626" }, "geometry": { "type": "Point", "coordinates": [ -16.611328, 28.304381 ] } }
{"year": "BC570",  "type": "Feature", "tippecanoe": { "layer": "2AFCA05304E01583919000303", "minzoom": 2, "maxzoom": 8 }, "properties": { "halo": 0.8, "title": "伊利尔卡沃尼人", "fontsize": 12, "tyid": "304001", "oid": "103:1555587279511", "color": "#262626" }, "geometry": { "type": "Point", "coordinates": [ -0.263672, 40.847060 ] } }
{"year": "BC570",  "type": "Feature", "tippecanoe": { "layer": "2AFCA05304E01583919000303", "minzoom": 2, "maxzoom": 8 }, "properties": { "halo": 0.8, "title": "埃德塔尼人", "fontsize": 12, "tyid": "304001", "oid": "103:1555587279258", "color": "#262626" }, "geometry": { "type": "Point", "coordinates": [ -0.966797, 39.639538 ] } }
{"year": "BC570",  "type": "Feature", "tippecanoe": { "layer": "2AFCA05304E01583919000303", "minzoom": 2, "maxzoom": 8 }, "properties": { "halo": 0.8, "title": "康斯塔尼人", "fontsize": 12, "tyid": "304001", "oid": "103:1555587279168", "color": "#262626" }, "geometry": { "type": "Point", "coordinates": [ -0.878906, 38.685510 ] } }
{"year": "BC570",  "type": "Feature", "tippecanoe": { "layer": "2AFCA05304E01583919000303", "minzoom": 2, "maxzoom": 8 }, "properties": { "halo": 0.8, "title": "科特克拉文化", "fontsize": 12, "tyid": "304002", "oid": "103:1555587279215", "color": "#262626" }, "geometry": { "type": "Point", "coordinates": [ -78.398438, -0.351560 ] } }
{"year": "BC570",  "type": "Feature", "tippecanoe": { "layer": "2AFCA05304E01583919000303", "minzoom": 2, "maxzoom": 8 }, "properties": { "halo": 0.8, "title": "查文文化", "fontsize": 12, "tyid": "304002", "oid": "103:1555587279772", "color": "#262626" }, "geometry": { "type": "Point", "coordinates": [ -77.958984, -8.320212 ] } }
{"year": "BC570",  "type": "Feature", "tippecanoe": { "layer": "2AFCA05304E01583919000303", "minzoom": 2, "maxzoom": 8 }, "properties": { "halo": 0.8, "title": "卡斯马-赛钦文化", "fontsize": 12, "tyid": "304002", "oid": "103:1555587279443", "color": "#262626" }, "geometry": { "type": "Point", "coordinates": [ -77.958984, -9.622414 ] } }
{"year": "BC570",  "type": "Feature", "tippecanoe": { "layer": "2AFCA05304E01583919000303", "minzoom": 2, "maxzoom": 8 }, "properties": { "halo": 0.8, "title": "帕拉卡斯文化", "fontsize": 12, "tyid": "304002", "oid": "103:1555587279456", "color": "#262626" }, "geometry": { "type": "Point", "coordinates": [ -75.673828, -14.179186 ] } }
{"year": "BC570",  "type": "Feature", "tippecanoe": { "layer": "2AFCA05304E01583919000303", "minzoom": 2, "maxzoom": 8 }, "properties": { "halo": 0.8, "title": "卡鲁尤文化", "fontsize": 12, "tyid": "304002", "oid": "103:1555587279434", "color": "#262626" }, "geometry": { "type": "Point", "coordinates": [ -70.136719, -15.114553 ] } }
{"year": "BC570",  "type": "Feature", "tippecanoe": { "layer": "2AFCA05304E01583919000303", "minzoom": 2, "maxzoom": 8 }, "properties": { "halo": 0.8, "title": "豪什人", "fontsize": 12, "tyid": "304001", "oid": "103:1555587279365", "color": "#262626" }, "geometry": { "type": "Point", "coordinates": [ -65.917969, -54.724620 ] } }
{"year": "BC570",  "type": "Feature", "tippecanoe": { "layer": "2AFCA05304E01583919000303", "minzoom": 2, "maxzoom": 8 }, "properties": { "halo": 0.8, "title": "拉塞塔尼人", "fontsize": 12, "tyid": "304001", "oid": "103:1555587280031", "color": "#262626" }, "geometry": { "type": "Point", "coordinates": [ 1.054688, 41.442726 ] } }
{"year": "BC570",  "type": "Feature", "tippecanoe": { "layer": "2AFCA05304E01583919000303", "minzoom": 2, "maxzoom": 8 }, "properties": { "halo": 0.8, "title": "英迪格人", "fontsize": 12, "tyid": "304001", "oid": "103:1555587279623", "color": "#262626" }, "geometry": { "type": "Point", "coordinates": [ 2.285156, 42.163403 ] } }
{"year": "BC570",  "type": "Feature", "tippecanoe": { "layer": "2AFCA05304E01583919000303", "minzoom": 2, "maxzoom": 8 }, "properties": { "halo": 0.8, "title": "马萨利亚", "fontsize": 12, "tyid": "304000", "oid": "103:1555587279865", "color": "#202020" }, "geometry": { "type": "Point", "coordinates": [ 5.449219, 43.325178 ] } }
{"year": "BC570",  "type": "Feature", "tippecanoe": { "layer": "2AFCA05304E01583919000303", "minzoom": 2, "maxzoom": 8 }, "properties": { "halo": 0.8, "title": "帕莱波利斯", "fontsize": 12, "tyid": "304000", "oid": "103:1555587279339", "color": "#202020" }, "geometry": { "type": "Point", "coordinates": [ 3.076172, 42.163403 ] } }
{"year": "BC570",  "type": "Feature", "tippecanoe": { "layer": "2AFCA05304E01583919000303", "minzoom": 2, "maxzoom": 8 }, "properties": { "halo": 0.8, "title": "格拉塞卡文化", "fontsize": 12, "tyid": "304001", "oid": "103:1555587279440", "color": "#262626" }, "geometry": { "type": "Point", "coordinates": [ 9.492188, 45.460131 ] } }
{"year": "BC570",  "type": "Feature", "tippecanoe": { "layer": "2AFCA05304E01583919000303", "minzoom": 2, "maxzoom": 8 }, "properties": { "halo": 0.8, "title": "卡莫尼卡人", "fontsize": 12, "tyid": "304001", "oid": "103:1555587279462", "color": "#262626" }, "geometry": { "type": "Point", "coordinates": [ 10.195312, 46.012224 ] } }
{"year": "BC570",  "type": "Feature", "tippecanoe": { "layer": "2AFCA05304E01583919000303", "minzoom": 2, "maxzoom": 8 }, "properties": { "halo": 0.8, "title": "塔文化", "fontsize": 12, "tyid": "304002", "oid": "103:1555587279867", "color": "#262626" }, "geometry": { "type": "Point", "coordinates": [ 9.052734, 42.163403 ] } }
{"year": "BC570",  "type": "Feature", "tippecanoe": { "layer": "2AFCA05304E01583919000303", "minzoom": 2, "maxzoom": 8 }, "properties": { "halo": 0.8, "title": "科西人", "fontsize": 12, "tyid": "304001", "oid": "103:1555587279678", "color": "#262626" }, "geometry": { "type": "Point", "coordinates": [ 9.228516, 41.112469 ] } }
{"year": "BC570",  "type": "Feature", "tippecanoe": { "layer": "2AFCA05304E01583919000303", "minzoom": 2, "maxzoom": 8 }, "properties": { "halo": 0.8, "title": "罗马王政时代", "fontsize": 12, "tyid": "304000", "oid": "103:1555587279349", "color": "#202020" }, "geometry": { "type": "Point", "coordinates": [ 12.480469, 41.902277 ] } }
{"year": "BC570",  "type": "Feature", "tippecanoe": { "layer": "2AFCA05304E01583919000303", "minzoom": 2, "maxzoom": 8 }, "properties": { "halo": 0.8, "title": "翁布里亚人", "fontsize": 12, "tyid": "304001", "oid": "103:1555587279915", "color": "#262626" }, "geometry": { "type": "Point", "coordinates": [ 12.832031, 42.811522 ] } }
{"year": "BC570",  "type": "Feature", "tippecanoe": { "layer": "2AFCA05304E01583919000303", "minzoom": 2, "maxzoom": 8 }, "properties": { "halo": 0.8, "title": "萨宾人", "fontsize": 12, "tyid": "304001", "oid": "103:1555587279190", "color": "#262626" }, "geometry": { "type": "Point", "coordinates": [ 12.656250, 42.098222 ] } }
{"year": "BC570",  "type": "Feature", "tippecanoe": { "layer": "2AFCA05304E01583919000303", "minzoom": 2, "maxzoom": 8 }, "properties": { "halo": 0.8, "title": "皮森特人", "fontsize": 12, "tyid": "304001", "oid": "103:1555587279809", "color": "#262626" }, "geometry": { "type": "Point", "coordinates": [ 13.535156, 43.004647 ] } }
{"year": "BC570",  "type": "Feature", "tippecanoe": { "layer": "2AFCA05304E01583919000303", "minzoom": 2, "maxzoom": 8 }, "properties": { "halo": 0.8, "title": "拉丁人", "fontsize": 12, "tyid": "304001", "oid": "103:1555587279829", "color": "#262626" }, "geometry": { "type": "Point", "coordinates": [ 12.832031, 41.640078 ] } }
{"year": "BC570",  "type": "Feature", "tippecanoe": { "layer": "2AFCA05304E01583919000303", "minzoom": 2, "maxzoom": 8 }, "properties": { "halo": 0.8, "title": "奥斯坎人", "fontsize": 12, "tyid": "304001", "oid": "103:1555587279860", "color": "#262626" }, "geometry": { "type": "Point", "coordinates": [ 13.447266, 41.442726 ] } }
{"year": "BC570",  "type": "Feature", "tippecanoe": { "layer": "2AFCA05304E01583919000303", "minzoom": 2, "maxzoom": 8 }, "properties": { "halo": 0.8, "title": "道尼人", "fontsize": 12, "tyid": "304001", "oid": "103:1555587279628", "color": "#262626" }, "geometry": { "type": "Point", "coordinates": [ 15.292969, 41.705729 ] } }
{"year": "BC570",  "type": "Feature", "tippecanoe": { "layer": "2AFCA05304E01583919000303", "minzoom": 2, "maxzoom": 8 }, "properties": { "halo": 0.8, "title": "佩乌克提伊人", "fontsize": 12, "tyid": "304001", "oid": "103:1555587279723", "color": "#262626" }, "geometry": { "type": "Point", "coordinates": [ 16.347656, 41.046217 ] } }
{"year": "BC570",  "type": "Feature", "tippecanoe": { "layer": "2AFCA05304E01583919000303", "minzoom": 2, "maxzoom": 8 }, "properties": { "halo": 0.8, "title": "培奥尼亚人", "fontsize": 12, "tyid": "304001", "oid": "103:1555587279890", "color": "#262626" }, "geometry": { "type": "Point", "coordinates": [ 22.148438, 41.771312 ] } }
{"year": "BC570",  "type": "Feature", "tippecanoe": { "layer": "2AFCA05304E01583919000303", "minzoom": 2, "maxzoom": 8 }, "properties": { "halo": 0.8, "title": "阿布德拉", "fontsize": 12, "tyid": "304000", "oid": "103:1555587279893", "color": "#202020" }, "geometry": { "type": "Point", "coordinates": [ 24.960938, 41.046217 ] } }
{"year": "BC570",  "type": "Feature", "tippecanoe": { "layer": "2AFCA05304E01583919000303", "minzoom": 2, "maxzoom": 8 }, "properties": { "halo": 0.8, "title": "奥德索斯", "fontsize": 12, "tyid": "304000", "oid": "103:1555587279963", "color": "#202020" }, "geometry": { "type": "Point", "coordinates": [ 27.861328, 43.261206 ] } }
{"year": "BC570",  "type": "Feature", "tippecanoe": { "layer": "2AFCA05304E01583919000303", "minzoom": 2, "maxzoom": 8 }, "properties": { "halo": 0.8, "title": "阿波罗尼亚·潘提卡", "fontsize": 12, "tyid": "304000", "oid": "103:1555587279323", "color": "#202020" }, "geometry": { "type": "Point", "coordinates": [ 27.685547, 42.423457 ] } }
{"year": "BC570",  "type": "Feature", "tippecanoe": { "layer": "2AFCA05304E01583919000303", "minzoom": 2, "maxzoom": 8 }, "properties": { "halo": 0.8, "title": "提拉斯", "fontsize": 12, "tyid": "304000", "oid": "103:1555587279645", "color": "#202020" }, "geometry": { "type": "Point", "coordinates": [ 30.234375, 46.134170 ] } }
{"year": "BC570",  "type": "Feature", "tippecanoe": { "layer": "2AFCA05304E01583919000303", "minzoom": 2, "maxzoom": 8 }, "properties": { "halo": 0.8, "title": "奥里维亚", "fontsize": 12, "tyid": "304002", "oid": "103:1555587279598", "color": "#262626" }, "geometry": { "type": "Point", "coordinates": [ 31.816406, 46.679594 ] } }
{"year": "BC570",  "type": "Feature", "tippecanoe": { "layer": "2AFCA05304E01583919000303", "minzoom": 2, "maxzoom": 8 }, "properties": { "halo": 0.8, "title": "希斯特里亚", "fontsize": 12, "tyid": "304000", "oid": "103:1555587279337", "color": "#202020" }, "geometry": { "type": "Point", "coordinates": [ 28.740234, 44.527843 ] } }
{"year": "BC570",  "type": "Feature", "tippecanoe": { "layer": "2AFCA05304E01583919000303", "minzoom": 2, "maxzoom": 8 }, "properties": { "halo": 0.8, "title": "托米斯", "fontsize": 12, "tyid": "304000", "oid": "103:1555587279489", "color": "#202020" }, "geometry": { "type": "Point", "coordinates": [ 28.476562, 44.213710 ] } }
{"year": "BC570",  "type": "Feature", "tippecanoe": { "layer": "2AFCA05304E01583919000303", "minzoom": 2, "maxzoom": 8 }, "properties": { "halo": 0.8, "title": "埃吉索斯", "fontsize": 12, "tyid": "304000", "oid": "103:1555587279319", "color": "#202020" }, "geometry": { "type": "Point", "coordinates": [ 29.355469, 45.026950 ] } }
{"year": "BC570",  "type": "Feature", "tippecanoe": { "layer": "2AFCA05304E01583919000303", "minzoom": 2, "maxzoom": 8 }, "properties": { "halo": 0.8, "title": "拜占庭", "fontsize": 12, "tyid": "304002", "oid": "103:1555587280039", "color": "#262626" }, "geometry": { "type": "Point", "coordinates": [ 28.828125, 41.112469 ] } }
{"year": "BC570",  "type": "Feature", "tippecanoe": { "layer": "2AFCA05304E01583919000303", "minzoom": 2, "maxzoom": 8 }, "properties": { "halo": 0.8, "title": "加尔西顿", "fontsize": 12, "tyid": "304000", "oid": "103:1555587280044", "color": "#202020" }, "geometry": { "type": "Point", "coordinates": [ 29.003906, 41.046217 ] } }
{"year": "BC570",  "type": "Feature", "tippecanoe": { "layer": "2AFCA05304E01583919000303", "minzoom": 2, "maxzoom": 8 }, "properties": { "halo": 0.8, "title": "迈尔梅基翁", "fontsize": 12, "tyid": "304000", "oid": "103:1555587279295", "color": "#202020" }, "geometry": { "type": "Point", "coordinates": [ 36.298828, 45.398450 ] } }
{"year": "BC570",  "type": "Feature", "tippecanoe": { "layer": "2AFCA05304E01583919000303", "minzoom": 2, "maxzoom": 8 }, "properties": { "halo": 0.8, "title": "潘提卡彭", "fontsize": 12, "tyid": "304000", "oid": "103:1555587279842", "color": "#202020" }, "geometry": { "type": "Point", "coordinates": [ 36.386719, 45.398450 ] } }
{"year": "BC570",  "type": "Feature", "tippecanoe": { "layer": "2AFCA05304E01583919000303", "minzoom": 2, "maxzoom": 8 }, "properties": { "halo": 0.8, "title": "尼菲恩", "fontsize": 12, "tyid": "304000", "oid": "103:1555587279812", "color": "#202020" }, "geometry": { "type": "Point", "coordinates": [ 36.298828, 45.274886 ] } }
{"year": "BC570",  "type": "Feature", "tippecanoe": { "layer": "2AFCA05304E01583919000303", "minzoom": 2, "maxzoom": 8 }, "properties": { "halo": 0.8, "title": "克孜尔科巴文化", "fontsize": 12, "tyid": "304002", "oid": "103:1555587279491", "color": "#262626" }, "geometry": { "type": "Point", "coordinates": [ 33.925781, 44.840291 ] } }
{"year": "BC570",  "type": "Feature", "tippecanoe": { "layer": "2AFCA05304E01583919000303", "minzoom": 2, "maxzoom": 8 }, "properties": { "halo": 0.8, "title": "费西斯", "fontsize": 12, "tyid": "304000", "oid": "103:1555587279988", "color": "#202020" }, "geometry": { "type": "Point", "coordinates": [ 41.660156, 42.163403 ] } }
{"year": "BC570",  "type": "Feature", "tippecanoe": { "layer": "2AFCA05304E01583919000303", "minzoom": 2, "maxzoom": 8 }, "properties": { "halo": 0.8, "title": "巴拉雷人", "fontsize": 12, "tyid": "304001", "oid": "103:1555587279308", "color": "#262626" }, "geometry": { "type": "Point", "coordinates": [ 9.052734, 40.580585 ] } }
{"year": "BC570",  "type": "Feature", "tippecanoe": { "layer": "2AFCA05304E01583919000303", "minzoom": 2, "maxzoom": 8 }, "properties": { "halo": 0.8, "title": "大希腊", "fontsize": 12, "tyid": "304000", "oid": "103:1555587280308", "color": "#202020" }, "geometry": { "type": "Point", "coordinates": [ 14.941406, 37.926868 ] } }
{"year": "BC570",  "type": "Feature", "tippecanoe": { "layer": "2AFCA05304E01583919000303", "minzoom": 2, "maxzoom": 8 }, "properties": { "halo": 0.8, "title": "西古里人", "fontsize": 12, "tyid": "304001", "oid": "103:1555587279736", "color": "#262626" }, "geometry": { "type": "Point", "coordinates": [ 14.501953, 37.509726 ] } }
{"year": "BC570",  "type": "Feature", "tippecanoe": { "layer": "2AFCA05304E01583919000303", "minzoom": 2, "maxzoom": 8 }, "properties": { "halo": 0.8, "title": "梅萨皮伊人", "fontsize": 12, "tyid": "304001", "oid": "103:1555587279660", "color": "#262626" }, "geometry": { "type": "Point", "coordinates": [ 17.490234, 40.647304 ] } }
{"year": "BC570",  "type": "Feature", "tippecanoe": { "layer": "2AFCA05304E01583919000303", "minzoom": 2, "maxzoom": 8 }, "properties": { "halo": 0.8, "title": "查乌内斯人", "fontsize": 12, "tyid": "304001", "oid": "103:1555587279754", "color": "#262626" }, "geometry": { "type": "Point", "coordinates": [ 20.126953, 40.713956 ] } }
{"year": "BC570",  "type": "Feature", "tippecanoe": { "layer": "2AFCA05304E01583919000303", "minzoom": 2, "maxzoom": 8 }, "properties": { "halo": 0.8, "title": "莫洛西人", "fontsize": 12, "tyid": "304001", "oid": "103:1555587280120", "color": "#262626" }, "geometry": { "type": "Point", "coordinates": [ 20.478516, 39.977120 ] } }
{"year": "BC570",  "type": "Feature", "tippecanoe": { "layer": "2AFCA05304E01583919000303", "minzoom": 2, "maxzoom": 8 }, "properties": { "halo": 0.8, "title": "塞斯普罗蒂人", "fontsize": 12, "tyid": "304001", "oid": "103:1555587279748", "color": "#262626" }, "geometry": { "type": "Point", "coordinates": [ 20.917969, 39.436193 ] } }
{"year": "BC570",  "type": "Feature", "tippecanoe": { "layer": "2AFCA05304E01583919000303", "minzoom": 2, "maxzoom": 8 }, "properties": { "halo": 0.8, "title": "厄利斯", "fontsize": 12, "tyid": "304000", "oid": "103:1555587279293", "color": "#202020" }, "geometry": { "type": "Point", "coordinates": [ 21.269531, 37.857507 ] } }
{"year": "BC570",  "type": "Feature", "tippecanoe": { "layer": "2AFCA05304E01583919000303", "minzoom": 2, "maxzoom": 8 }, "properties": { "halo": 0.8, "title": "阿凯亚人", "fontsize": 12, "tyid": "304001", "oid": "103:1555587280214", "color": "#262626" }, "geometry": { "type": "Point", "coordinates": [ 21.884766, 38.203655 ] } }
{"year": "BC570",  "type": "Feature", "tippecanoe": { "layer": "2AFCA05304E01583919000303", "minzoom": 2, "maxzoom": 8 }, "properties": { "halo": 0.8, "title": "阿卡迪亚人", "fontsize": 12, "tyid": "304001", "oid": "103:1555587279675", "color": "#262626" }, "geometry": { "type": "Point", "coordinates": [ 21.972656, 37.718590 ] } }
{"year": "BC570",  "type": "Feature", "tippecanoe": { "layer": "2AFCA05304E01583919000303", "minzoom": 2, "maxzoom": 8 }, "properties": { "halo": 0.8, "title": "特吉亚", "fontsize": 12, "tyid": "304000", "oid": "103:1555587279208", "color": "#202020" }, "geometry": { "type": "Point", "coordinates": [ 22.412109, 37.509726 ] } }
{"year": "BC570",  "type": "Feature", "tippecanoe": { "layer": "2AFCA05304E01583919000303", "minzoom": 2, "maxzoom": 8 }, "properties": { "halo": 0.8, "title": "斯巴达", "fontsize": 12, "tyid": "304000", "oid": "103:1555587279844", "color": "#202020" }, "geometry": { "type": "Point", "coordinates": [ 22.324219, 37.020098 ] } }
{"year": "BC570",  "type": "Feature", "tippecanoe": { "layer": "2AFCA05304E01583919000303", "minzoom": 2, "maxzoom": 8 }, "properties": { "halo": 0.8, "title": "昔兰尼", "fontsize": 12, "tyid": "304000", "oid": "103:1555587279317", "color": "#202020" }, "geometry": { "type": "Point", "coordinates": [ 21.533203, 32.546813 ] } }
{"year": "BC570",  "type": "Feature", "tippecanoe": { "layer": "2AFCA05304E01583919000303", "minzoom": 2, "maxzoom": 8 }, "properties": { "halo": 0.8, "title": "斯塔吉乌斯", "fontsize": 12, "tyid": "304000", "oid": "103:1555587279822", "color": "#202020" }, "geometry": { "type": "Point", "coordinates": [ 23.642578, 40.647304 ] } }
{"year": "BC570",  "type": "Feature", "tippecanoe": { "layer": "2AFCA05304E01583919000303", "minzoom": 2, "maxzoom": 8 }, "properties": { "halo": 0.8, "title": "奥林索斯", "fontsize": 12, "tyid": "304000", "oid": "103:1555587279218", "color": "#202020" }, "geometry": { "type": "Point", "coordinates": [ 23.291016, 40.313043 ] } }
{"year": "BC570",  "type": "Feature", "tippecanoe": { "layer": "2AFCA05304E01583919000303", "minzoom": 2, "maxzoom": 8 }, "properties": { "halo": 0.8, "title": "波提狄亚", "fontsize": 12, "tyid": "304000", "oid": "103:1555587279580", "color": "#202020" }, "geometry": { "type": "Point", "coordinates": [ 23.291016, 40.245992 ] } }
{"year": "BC570",  "type": "Feature", "tippecanoe": { "layer": "2AFCA05304E01583919000303", "minzoom": 2, "maxzoom": 8 }, "properties": { "halo": 0.8, "title": "安菲提斯", "fontsize": 12, "tyid": "304000", "oid": "103:1555587279329", "color": "#202020" }, "geometry": { "type": "Point", "coordinates": [ 23.378906, 40.111689 ] } }
{"year": "BC570",  "type": "Feature", "tippecanoe": { "layer": "2AFCA05304E01583919000303", "minzoom": 2, "maxzoom": 8 }, "properties": { "halo": 0.8, "title": "蒙德", "fontsize": 12, "tyid": "304000", "oid": "103:1555587279299", "color": "#202020" }, "geometry": { "type": "Point", "coordinates": [ 23.378906, 40.044438 ] } }
{"year": "BC570",  "type": "Feature", "tippecanoe": { "layer": "2AFCA05304E01583919000303", "minzoom": 2, "maxzoom": 8 }, "properties": { "halo": 0.8, "title": "阿卡索斯", "fontsize": 12, "tyid": "304000", "oid": "103:1555587279613", "color": "#202020" }, "geometry": { "type": "Point", "coordinates": [ 23.818359, 40.446947 ] } }
{"year": "BC570",  "type": "Feature", "tippecanoe": { "layer": "2AFCA05304E01583919000303", "minzoom": 2, "maxzoom": 8 }, "properties": { "halo": 0.8, "title": "塞内", "fontsize": 12, "tyid": "304000", "oid": "103:1555587279287", "color": "#202020" }, "geometry": { "type": "Point", "coordinates": [ 23.906250, 40.380028 ] } }
{"year": "BC570",  "type": "Feature", "tippecanoe": { "layer": "2AFCA05304E01583919000303", "minzoom": 2, "maxzoom": 8 }, "properties": { "halo": 0.8, "title": "托洛尼", "fontsize": 12, "tyid": "304000", "oid": "103:1555587279484", "color": "#202020" }, "geometry": { "type": "Point", "coordinates": [ 23.906250, 40.044438 ] } }
{"year": "BC570",  "type": "Feature", "tippecanoe": { "layer": "2AFCA05304E01583919000303", "minzoom": 2, "maxzoom": 8 }, "properties": { "halo": 0.8, "title": "萨索斯", "fontsize": 12, "tyid": "304000", "oid": "103:1555587279665", "color": "#202020" }, "geometry": { "type": "Point", "coordinates": [ 24.609375, 40.713956 ] } }
{"year": "BC570",  "type": "Feature", "tippecanoe": { "layer": "2AFCA05304E01583919000303", "minzoom": 2, "maxzoom": 8 }, "properties": { "halo": 0.8, "title": "利姆诺斯", "fontsize": 12, "tyid": "304000", "oid": "103:1555587279241", "color": "#202020" }, "geometry": { "type": "Point", "coordinates": [ 25.048828, 39.977120 ] } }
{"year": "BC570",  "type": "Feature", "tippecanoe": { "layer": "2AFCA05304E01583919000303", "minzoom": 2, "maxzoom": 8 }, "properties": { "halo": 0.8, "title": "西锡安", "fontsize": 12, "tyid": "304000", "oid": "103:1555587279667", "color": "#202020" }, "geometry": { "type": "Point", "coordinates": [ 22.587891, 37.926868 ] } }
{"year": "BC570",  "type": "Feature", "tippecanoe": { "layer": "2AFCA05304E01583919000303", "minzoom": 2, "maxzoom": 8 }, "properties": { "halo": 0.8, "title": "科林斯", "fontsize": 12, "tyid": "304000", "oid": "103:1555587279508", "color": "#202020" }, "geometry": { "type": "Point", "coordinates": [ 22.851562, 37.926868 ] } }
{"year": "BC570",  "type": "Feature", "tippecanoe": { "layer": "2AFCA05304E01583919000303", "minzoom": 2, "maxzoom": 8 }, "properties": { "halo": 0.8, "title": "底比斯", "fontsize": 12, "tyid": "304000", "oid": "103:1555587279415", "color": "#202020" }, "geometry": { "type": "Point", "coordinates": [ 23.291016, 38.341656 ] } }
{"year": "BC570",  "type": "Feature", "tippecanoe": { "layer": "2AFCA05304E01583919000303", "minzoom": 2, "maxzoom": 8 }, "properties": { "halo": 0.8, "title": "哈尔基斯", "fontsize": 12, "tyid": "304000", "oid": "103:1555587280221", "color": "#202020" }, "geometry": { "type": "Point", "coordinates": [ 23.466797, 38.410558 ] } }
{"year": "BC570",  "type": "Feature", "tippecanoe": { "layer": "2AFCA05304E01583919000303", "minzoom": 2, "maxzoom": 8 }, "properties": { "halo": 0.8, "title": "埃雷特里亚", "fontsize": 12, "tyid": "304000", "oid": "103:1555587279672", "color": "#202020" }, "geometry": { "type": "Point", "coordinates": [ 23.818359, 38.479395 ] } }
{"year": "BC570",  "type": "Feature", "tippecanoe": { "layer": "2AFCA05304E01583919000303", "minzoom": 2, "maxzoom": 8 }, "properties": { "halo": 0.8, "title": "墨伽勒", "fontsize": 12, "tyid": "304000", "oid": "103:1555587280079", "color": "#202020" }, "geometry": { "type": "Point", "coordinates": [ 23.291016, 38.134557 ] } }
{"year": "BC570",  "type": "Feature", "tippecanoe": { "layer": "2AFCA05304E01583919000303", "minzoom": 2, "maxzoom": 8 }, "properties": { "halo": 0.8, "title": "雅典", "fontsize": 12, "tyid": "304000", "oid": "103:1555587279270", "color": "#202020" }, "geometry": { "type": "Point", "coordinates": [ 23.730469, 38.065392 ] } }
{"year": "BC570",  "type": "Feature", "tippecanoe": { "layer": "2AFCA05304E01583919000303", "minzoom": 2, "maxzoom": 8 }, "properties": { "halo": 0.8, "title": "阿尔戈斯", "fontsize": 12, "tyid": "304000", "oid": "103:1555587279693", "color": "#202020" }, "geometry": { "type": "Point", "coordinates": [ 22.675781, 37.718590 ] } }
{"year": "BC570",  "type": "Feature", "tippecanoe": { "layer": "2AFCA05304E01583919000303", "minzoom": 2, "maxzoom": 8 }, "properties": { "halo": 0.8, "title": "安德罗斯", "fontsize": 12, "tyid": "304000", "oid": "103:1555587279515", "color": "#202020" }, "geometry": { "type": "Point", "coordinates": [ 24.785156, 37.926868 ] } }
{"year": "BC570",  "type": "Feature", "tippecanoe": { "layer": "2AFCA05304E01583919000303", "minzoom": 2, "maxzoom": 8 }, "properties": { "halo": 0.8, "title": "萨莫色雷斯", "fontsize": 12, "tyid": "304000", "oid": "103:1555587279531", "color": "#202020" }, "geometry": { "type": "Point", "coordinates": [ 25.576172, 40.513799 ] } }
{"year": "BC570",  "type": "Feature", "tippecanoe": { "layer": "2AFCA05304E01583919000303", "minzoom": 2, "maxzoom": 8 }, "properties": { "halo": 0.8, "title": "伊奥尼亚人", "fontsize": 12, "tyid": "304001", "oid": "103:1555587280130", "color": "#262626" }, "geometry": { "type": "Point", "coordinates": [ 26.103516, 40.913513 ] } }
{"year": "BC570",  "type": "Feature", "tippecanoe": { "layer": "2AFCA05304E01583919000303", "minzoom": 2, "maxzoom": 8 }, "properties": { "halo": 0.8, "title": "阿尼诺斯", "fontsize": 12, "tyid": "304000", "oid": "103:1555587279928", "color": "#202020" }, "geometry": { "type": "Point", "coordinates": [ 26.191406, 40.713956 ] } }
{"year": "BC570",  "type": "Feature", "tippecanoe": { "layer": "2AFCA05304E01583919000303", "minzoom": 2, "maxzoom": 8 }, "properties": { "halo": 0.8, "title": "阿罗珀克尼萨斯", "fontsize": 12, "tyid": "304000", "oid": "103:1555587279309", "color": "#202020" }, "geometry": { "type": "Point", "coordinates": [ 26.279297, 40.313043 ] } }
{"year": "BC570",  "type": "Feature", "tippecanoe": { "layer": "2AFCA05304E01583919000303", "minzoom": 2, "maxzoom": 8 }, "properties": { "halo": 0.8, "title": "塞斯托斯", "fontsize": 12, "tyid": "304000", "oid": "103:1555587279682", "color": "#202020" }, "geometry": { "type": "Point", "coordinates": [ 26.279297, 40.245992 ] } }
{"year": "BC570",  "type": "Feature", "tippecanoe": { "layer": "2AFCA05304E01583919000303", "minzoom": 2, "maxzoom": 8 }, "properties": { "halo": 0.8, "title": "马第都斯", "fontsize": 12, "tyid": "304000", "oid": "103:1555587279502", "color": "#202020" }, "geometry": { "type": "Point", "coordinates": [ 26.279297, 40.245992 ] } }
{"year": "BC570",  "type": "Feature", "tippecanoe": { "layer": "2AFCA05304E01583919000303", "minzoom": 2, "maxzoom": 8 }, "properties": { "halo": 0.8, "title": "爱鲁乌斯", "fontsize": 12, "tyid": "304000", "oid": "103:1555587279524", "color": "#202020" }, "geometry": { "type": "Point", "coordinates": [ 26.191406, 40.111689 ] } }
{"year": "BC570",  "type": "Feature", "tippecanoe": { "layer": "2AFCA05304E01583919000303", "minzoom": 2, "maxzoom": 8 }, "properties": { "halo": 0.8, "title": "西革翁", "fontsize": 12, "tyid": "304000", "oid": "103:1555587279239", "color": "#202020" }, "geometry": { "type": "Point", "coordinates": [ 26.191406, 40.044438 ] } }
{"year": "BC570",  "type": "Feature", "tippecanoe": { "layer": "2AFCA05304E01583919000303", "minzoom": 2, "maxzoom": 8 }, "properties": { "halo": 0.8, "title": "特洛伊", "fontsize": 12, "tyid": "304000", "oid": "103:1555587279572", "color": "#202020" }, "geometry": { "type": "Point", "coordinates": [ 26.191406, 39.977120 ] } }
{"year": "BC570",  "type": "Feature", "tippecanoe": { "layer": "2AFCA05304E01583919000303", "minzoom": 2, "maxzoom": 8 }, "properties": { "halo": 0.8, "title": "克里萨", "fontsize": 12, "tyid": "304000", "oid": "103:1555587279555", "color": "#202020" }, "geometry": { "type": "Point", "coordinates": [ 26.542969, 40.446947 ] } }
{"year": "BC570",  "type": "Feature", "tippecanoe": { "layer": "2AFCA05304E01583919000303", "minzoom": 2, "maxzoom": 8 }, "properties": { "halo": 0.8, "title": "伊哥斯波塔米", "fontsize": 12, "tyid": "304000", "oid": "103:1555587279583", "color": "#202020" }, "geometry": { "type": "Point", "coordinates": [ 26.542969, 40.380028 ] } }
{"year": "BC570",  "type": "Feature", "tippecanoe": { "layer": "2AFCA05304E01583919000303", "minzoom": 2, "maxzoom": 8 }, "properties": { "halo": 0.8, "title": "加里波利斯", "fontsize": 12, "tyid": "304000", "oid": "103:1555587279344", "color": "#202020" }, "geometry": { "type": "Point", "coordinates": [ 26.630859, 40.446947 ] } }
{"year": "BC570",  "type": "Feature", "tippecanoe": { "layer": "2AFCA05304E01583919000303", "minzoom": 2, "maxzoom": 8 }, "properties": { "halo": 0.8, "title": "克瑞沃德", "fontsize": 12, "tyid": "304000", "oid": "103:1555587279195", "color": "#202020" }, "geometry": { "type": "Point", "coordinates": [ 26.630859, 40.446947 ] } }
{"year": "BC570",  "type": "Feature", "tippecanoe": { "layer": "2AFCA05304E01583919000303", "minzoom": 2, "maxzoom": 8 }, "properties": { "halo": 0.8, "title": "兰普萨库斯", "fontsize": 12, "tyid": "304000", "oid": "103:1555587279518", "color": "#202020" }, "geometry": { "type": "Point", "coordinates": [ 26.630859, 40.380028 ] } }
{"year": "BC570",  "type": "Feature", "tippecanoe": { "layer": "2AFCA05304E01583919000303", "minzoom": 2, "maxzoom": 8 }, "properties": { "halo": 0.8, "title": "阿比多斯", "fontsize": 12, "tyid": "304000", "oid": "103:1555587280189", "color": "#202020" }, "geometry": { "type": "Point", "coordinates": [ 26.367188, 40.178873 ] } }
{"year": "BC570",  "type": "Feature", "tippecanoe": { "layer": "2AFCA05304E01583919000303", "minzoom": 2, "maxzoom": 8 }, "properties": { "halo": 0.8, "title": "科博恩", "fontsize": 12, "tyid": "304000", "oid": "103:1555587279522", "color": "#202020" }, "geometry": { "type": "Point", "coordinates": [ 26.542969, 39.774769 ] } }
{"year": "BC570",  "type": "Feature", "tippecanoe": { "layer": "2AFCA05304E01583919000303", "minzoom": 2, "maxzoom": 8 }, "properties": { "halo": 0.8, "title": "米蒂利尼", "fontsize": 12, "tyid": "304000", "oid": "103:1555587279663", "color": "#202020" }, "geometry": { "type": "Point", "coordinates": [ 26.279297, 39.232253 ] } }
{"year": "BC570",  "type": "Feature", "tippecanoe": { "layer": "2AFCA05304E01583919000303", "minzoom": 2, "maxzoom": 8 }, "properties": { "halo": 0.8, "title": "卡尔迪亚", "fontsize": 12, "tyid": "304000", "oid": "103:1555587279588", "color": "#202020" }, "geometry": { "type": "Point", "coordinates": [ 26.718750, 40.580585 ] } }
{"year": "BC570",  "type": "Feature", "tippecanoe": { "layer": "2AFCA05304E01583919000303", "minzoom": 2, "maxzoom": 8 }, "properties": { "halo": 0.8, "title": "帕克杜耶", "fontsize": 12, "tyid": "304000", "oid": "103:1555587279496", "color": "#202020" }, "geometry": { "type": "Point", "coordinates": [ 26.806641, 40.513799 ] } }
{"year": "BC570",  "type": "Feature", "tippecanoe": { "layer": "2AFCA05304E01583919000303", "minzoom": 2, "maxzoom": 8 }, "properties": { "halo": 0.8, "title": "普瑞尔珀斯", "fontsize": 12, "tyid": "304000", "oid": "103:1555587279302", "color": "#202020" }, "geometry": { "type": "Point", "coordinates": [ 27.246094, 40.446947 ] } }
{"year": "BC570",  "type": "Feature", "tippecanoe": { "layer": "2AFCA05304E01583919000303", "minzoom": 2, "maxzoom": 8 }, "properties": { "halo": 0.8, "title": "普罗库尼斯", "fontsize": 12, "tyid": "304000", "oid": "103:1555587279494", "color": "#202020" }, "geometry": { "type": "Point", "coordinates": [ 27.597656, 40.647304 ] } }
{"year": "BC570",  "type": "Feature", "tippecanoe": { "layer": "2AFCA05304E01583919000303", "minzoom": 2, "maxzoom": 8 }, "properties": { "halo": 0.8, "title": "基齐库斯", "fontsize": 12, "tyid": "304000", "oid": "103:1555587279372", "color": "#202020" }, "geometry": { "type": "Point", "coordinates": [ 27.861328, 40.313043 ] } }
{"year": "BC570",  "type": "Feature", "tippecanoe": { "layer": "2AFCA05304E01583919000303", "minzoom": 2, "maxzoom": 8 }, "properties": { "halo": 0.8, "title": "伊奥尼亚联盟", "fontsize": 12, "tyid": "304000", "oid": "103:1555587280158", "color": "#202020" }, "geometry": { "type": "Point", "coordinates": [ 26.894531, 38.272689 ] } }
{"year": "BC570",  "type": "Feature", "tippecanoe": { "layer": "2AFCA05304E01583919000303", "minzoom": 2, "maxzoom": 8 }, "properties": { "halo": 0.8, "title": "多利安人", "fontsize": 12, "tyid": "304001", "oid": "103:1555587280192", "color": "#262626" }, "geometry": { "type": "Point", "coordinates": [ 24.785156, 35.245619 ] } }
{"year": "BC570",  "type": "Feature", "tippecanoe": { "layer": "2AFCA05304E01583919000303", "minzoom": 2, "maxzoom": 8 }, "properties": { "halo": 0.8, "title": "多利安六城联盟", "fontsize": 12, "tyid": "304000", "oid": "103:1555587280133", "color": "#202020" }, "geometry": { "type": "Point", "coordinates": [ 28.388672, 37.090240 ] } }
{"year": "BC570",  "type": "Feature", "tippecanoe": { "layer": "2AFCA05304E01583919000303", "minzoom": 2, "maxzoom": 8 }, "properties": { "halo": 0.8, "title": "吕基亚人", "fontsize": 12, "tyid": "304001", "oid": "103:1555587279880", "color": "#262626" }, "geometry": { "type": "Point", "coordinates": [ 29.882812, 36.738884 ] } }
{"year": "BC570",  "type": "Feature", "tippecanoe": { "layer": "2AFCA05304E01583919000303", "minzoom": 2, "maxzoom": 8 }, "properties": { "halo": 0.8, "title": "奇里乞亚王国", "fontsize": 12, "tyid": "304000", "oid": "103:1555587279559", "color": "#202020" }, "geometry": { "type": "Point", "coordinates": [ 35.419922, 37.090240 ] } }
{"year": "BC570",  "type": "Feature", "tippecanoe": { "layer": "2AFCA05304E01583919000303", "minzoom": 2, "maxzoom": 8 }, "properties": { "halo": 0.8, "title": "腓尼基人", "fontsize": 12, "tyid": "304001", "oid": "103:1555587279305", "color": "#262626" }, "geometry": { "type": "Point", "coordinates": [ 35.859375, 34.234512 ] } }
{"year": "BC570",  "type": "Feature", "tippecanoe": { "layer": "2AFCA05304E01583919000303", "minzoom": 2, "maxzoom": 8 }, "properties": { "halo": 0.8, "title": "亚扪王国", "fontsize": 12, "tyid": "304000", "oid": "103:1555587279486", "color": "#202020" }, "geometry": { "type": "Point", "coordinates": [ 36.123047, 32.175612 ] } }
{"year": "BC570",  "type": "Feature", "tippecanoe": { "layer": "2AFCA05304E01583919000303", "minzoom": 2, "maxzoom": 8 }, "properties": { "halo": 0.8, "title": "摩押王国", "fontsize": 12, "tyid": "304000", "oid": "103:1555587279286", "color": "#202020" }, "geometry": { "type": "Point", "coordinates": [ 35.859375, 31.353637 ] } }
{"year": "BC570",  "type": "Feature", "tippecanoe": { "layer": "2AFCA05304E01583919000303", "minzoom": 2, "maxzoom": 8 }, "properties": { "halo": 0.8, "title": "以东王国", "fontsize": 12, "tyid": "304000", "oid": "103:1555587279961", "color": "#202020" }, "geometry": { "type": "Point", "coordinates": [ 35.244141, 30.448674 ] } }
{"year": "BC570",  "type": "Feature", "tippecanoe": { "layer": "2AFCA05304E01583919000303", "minzoom": 2, "maxzoom": 8 }, "properties": { "halo": 0.8, "title": "察吾呼文化", "fontsize": 12, "tyid": "304002", "oid": "103:1555587279557", "color": "#262626" }, "geometry": { "type": "Point", "coordinates": [ 86.396484, 42.228517 ] } }
{"year": "BC570",  "type": "Feature", "tippecanoe": { "layer": "2AFCA05304E01583919000303", "minzoom": 2, "maxzoom": 8 }, "properties": { "halo": 0.8, "title": "格拉", "fontsize": 12, "tyid": "304002", "oid": "103:1555587280144", "color": "#262626" }, "geometry": { "type": "Point", "coordinates": [ 52.998047, 23.885838 ] } }
{"year": "BC570",  "type": "Feature", "tippecanoe": { "layer": "2AFCA05304E01583919000303", "minzoom": 2, "maxzoom": 8 }, "properties": { "halo": 0.8, "title": "流水墓地文化", "fontsize": 12, "tyid": "304002", "oid": "103:1555587279498", "color": "#262626" }, "geometry": { "type": "Point", "coordinates": [ 81.562500, 36.456636 ] } }
{"year": "BC570",  "type": "Feature", "tippecanoe": { "layer": "2AFCA05304E01583919000303", "minzoom": 2, "maxzoom": 8 }, "properties": { "halo": 0.8, "title": "且末国", "fontsize": 12, "tyid": "304000", "oid": "103:1555587279313", "color": "#202020" }, "geometry": { "type": "Point", "coordinates": [ 85.605469, 38.272689 ] } }
{"year": "BC570",  "type": "Feature", "tippecanoe": { "layer": "2AFCA05304E01583919000303", "minzoom": 2, "maxzoom": 8 }, "properties": { "halo": 0.8, "title": "释迦国", "fontsize": 12, "tyid": "304000", "oid": "103:1555587279787", "color": "#202020" }, "geometry": { "type": "Point", "coordinates": [ 83.496094, 27.605671 ] } }
{"year": "BC570",  "type": "Feature", "tippecanoe": { "layer": "2AFCA05304E01583919000303", "minzoom": 2, "maxzoom": 8 }, "properties": { "halo": 0.8, "title": "跋蹉国", "fontsize": 12, "tyid": "304000", "oid": "103:1555587279742", "color": "#202020" }, "geometry": { "type": "Point", "coordinates": [ 80.859375, 26.115986 ] } }
{"year": "BC570",  "type": "Feature", "tippecanoe": { "layer": "2AFCA05304E01583919000303", "minzoom": 2, "maxzoom": 8 }, "properties": { "halo": 0.8, "title": "蓝摩国", "fontsize": 12, "tyid": "304000", "oid": "103:1555587279940", "color": "#202020" }, "geometry": { "type": "Point", "coordinates": [ 84.375000, 27.605671 ] } }
{"year": "BC570",  "type": "Feature", "tippecanoe": { "layer": "2AFCA05304E01583919000303", "minzoom": 2, "maxzoom": 8 }, "properties": { "halo": 0.8, "title": "焉不拉克文化", "fontsize": 12, "tyid": "304002", "oid": "103:1555587279361", "color": "#262626" }, "geometry": { "type": "Point", "coordinates": [ 93.779297, 42.875964 ] } }
{"year": "BC570",  "type": "Feature", "tippecanoe": { "layer": "2AFCA05304E01583919000303", "minzoom": 2, "maxzoom": 8 }, "properties": { "halo": 0.8, "title": "西团山文化", "fontsize": 12, "tyid": "304002", "oid": "103:1555587279610", "color": "#262626" }, "geometry": { "type": "Point", "coordinates": [ 126.826172, 43.452919 ] } }
{"year": "BC570",  "type": "Feature", "tippecanoe": { "layer": "2AFCA05304E01583919000303", "minzoom": 2, "maxzoom": 8 }, "properties": { "halo": 0.8, "title": "狄戎", "fontsize": 12, "tyid": "304000", "oid": "103:1555587279328", "color": "#202020" }, "geometry": { "type": "Point", "coordinates": [ 103.271484, 35.317366 ] } }
{"year": "BC570",  "type": "Feature", "tippecanoe": { "layer": "2AFCA05304E01583919000303", "minzoom": 2, "maxzoom": 8 }, "properties": { "halo": 0.8, "title": "豲戎", "fontsize": 12, "tyid": "304000", "oid": "103:1555587279732", "color": "#202020" }, "geometry": { "type": "Point", "coordinates": [ 104.501953, 34.741612 ] } }
{"year": "BC570",  "type": "Feature", "tippecanoe": { "layer": "2AFCA05304E01583919000303", "minzoom": 2, "maxzoom": 8 }, "properties": { "halo": 0.8, "title": "绵诸", "fontsize": 12, "tyid": "304000", "oid": "103:1555587279933", "color": "#202020" }, "geometry": { "type": "Point", "coordinates": [ 105.468750, 35.101934 ] } }
{"year": "BC570",  "type": "Feature", "tippecanoe": { "layer": "2AFCA05304E01583919000303", "minzoom": 2, "maxzoom": 8 }, "properties": { "halo": 0.8, "title": "昔阝", "fontsize": 12, "tyid": "304000", "oid": "103:1555587279533", "color": "#202020" }, "geometry": { "type": "Point", "coordinates": [ 106.347656, 32.472695 ] } }
{"year": "BC570",  "type": "Feature", "tippecanoe": { "layer": "2AFCA05304E01583919000303", "minzoom": 2, "maxzoom": 8 }, "properties": { "halo": 0.8, "title": "大荔", "fontsize": 12, "tyid": "304000", "oid": "103:1555587279374", "color": "#202020" }, "geometry": { "type": "Point", "coordinates": [ 110.126953, 34.813803 ] } }
{"year": "BC570",  "type": "Feature", "tippecanoe": { "layer": "2AFCA05304E01583919000303", "minzoom": 2, "maxzoom": 8 }, "properties": { "halo": 0.8, "title": "东周", "fontsize": 12, "tyid": "304000", "oid": "103:1555587279473", "color": "#202020" }, "geometry": { "type": "Point", "coordinates": [ 111.972656, 34.885931 ] } }
{"year": "BC570",  "type": "Feature", "tippecanoe": { "layer": "2AFCA05304E01583919000303", "minzoom": 2, "maxzoom": 8 }, "properties": { "halo": 0.8, "title": "毛", "fontsize": 12, "tyid": "304000", "oid": "103:1555587279204", "color": "#202020" }, "geometry": { "type": "Point", "coordinates": [ 111.972656, 34.524661 ] } }
{"year": "BC570",  "type": "Feature", "tippecanoe": { "layer": "2AFCA05304E01583919000303", "minzoom": 2, "maxzoom": 8 }, "properties": { "halo": 0.8, "title": "尹", "fontsize": 12, "tyid": "304000", "oid": "103:1555587279322", "color": "#202020" }, "geometry": { "type": "Point", "coordinates": [ 112.148438, 34.741612 ] } }
{"year": "BC570",  "type": "Feature", "tippecanoe": { "layer": "2AFCA05304E01583919000303", "minzoom": 2, "maxzoom": 8 }, "properties": { "halo": 0.8, "title": "王叔", "fontsize": 12, "tyid": "304000", "oid": "103:1555587279290", "color": "#202020" }, "geometry": { "type": "Point", "coordinates": [ 112.324219, 34.813803 ] } }
{"year": "BC570",  "type": "Feature", "tippecanoe": { "layer": "2AFCA05304E01583919000303", "minzoom": 2, "maxzoom": 8 }, "properties": { "halo": 0.8, "title": "单", "fontsize": 12, "tyid": "304000", "oid": "103:1555587279206", "color": "#202020" }, "geometry": { "type": "Point", "coordinates": [ 112.412109, 34.885931 ] } }
{"year": "BC570",  "type": "Feature", "tippecanoe": { "layer": "2AFCA05304E01583919000303", "minzoom": 2, "maxzoom": 8 }, "properties": { "halo": 0.8, "title": "伊洛戎", "fontsize": 12, "tyid": "304000", "oid": "103:1555587279454", "color": "#202020" }, "geometry": { "type": "Point", "coordinates": [ 111.445312, 34.161818 ] } }
{"year": "BC570",  "type": "Feature", "tippecanoe": { "layer": "2AFCA05304E01583919000303", "minzoom": 2, "maxzoom": 8 }, "properties": { "halo": 0.8, "title": "陆浑戎", "fontsize": 12, "tyid": "304000", "oid": "103:1555587279952", "color": "#202020" }, "geometry": { "type": "Point", "coordinates": [ 111.884766, 33.870416 ] } }
{"year": "BC570",  "type": "Feature", "tippecanoe": { "layer": "2AFCA05304E01583919000303", "minzoom": 2, "maxzoom": 8 }, "properties": { "halo": 0.8, "title": "冉駹羌", "fontsize": 12, "tyid": "304000", "oid": "103:1555587279983", "color": "#202020" }, "geometry": { "type": "Point", "coordinates": [ 103.623047, 31.503629 ] } }
{"year": "BC570",  "type": "Feature", "tippecanoe": { "layer": "2AFCA05304E01583919000303", "minzoom": 2, "maxzoom": 8 }, "properties": { "halo": 0.8, "title": "平周", "fontsize": 12, "tyid": "304000", "oid": "103:1555587279399", "color": "#202020" }, "geometry": { "type": "Point", "coordinates": [ 105.996094, 31.952162 ] } }
{"year": "BC570",  "type": "Feature", "tippecanoe": { "layer": "2AFCA05304E01583919000303", "minzoom": 2, "maxzoom": 8 }, "properties": { "halo": 0.8, "title": "充", "fontsize": 12, "tyid": "304000", "oid": "103:1555587279652", "color": "#202020" }, "geometry": { "type": "Point", "coordinates": [ 105.996094, 31.128199 ] } }
{"year": "BC570",  "type": "Feature", "tippecanoe": { "layer": "2AFCA05304E01583919000303", "minzoom": 2, "maxzoom": 8 }, "properties": { "halo": 0.8, "title": "东山文化", "fontsize": 12, "tyid": "304002", "oid": "103:1555587279173", "color": "#262626" }, "geometry": { "type": "Point", "coordinates": [ 105.292969, 21.698265 ] } }
{"year": "BC570",  "type": "Feature", "tippecanoe": { "layer": "2AFCA05304E01583919000303", "minzoom": 2, "maxzoom": 8 }, "properties": { "halo": 0.8, "title": "代国", "fontsize": 12, "tyid": "304000", "oid": "103:1555587279468", "color": "#202020" }, "geometry": { "type": "Point", "coordinates": [ 114.785156, 40.044438 ] } }
{"year": "BC570",  "type": "Feature", "tippecanoe": { "layer": "2AFCA05304E01583919000303", "minzoom": 2, "maxzoom": 8 }, "properties": { "halo": 0.8, "title": "仇由", "fontsize": 12, "tyid": "304001", "oid": "103:1555587279696", "color": "#262626" }, "geometry": { "type": "Point", "coordinates": [ 113.466797, 38.272689 ] } }
{"year": "BC570",  "type": "Feature", "tippecanoe": { "layer": "2AFCA05304E01583919000303", "minzoom": 2, "maxzoom": 8 }, "properties": { "halo": 0.8, "title": "鲜虞", "fontsize": 12, "tyid": "304000", "oid": "103:1555587279385", "color": "#202020" }, "geometry": { "type": "Point", "coordinates": [ 114.433594, 38.134557 ] } }
{"year": "BC570",  "type": "Feature", "tippecanoe": { "layer": "2AFCA05304E01583919000303", "minzoom": 2, "maxzoom": 8 }, "properties": { "halo": 0.8, "title": "肥", "fontsize": 12, "tyid": "304000", "oid": "103:1555587279967", "color": "#202020" }, "geometry": { "type": "Point", "coordinates": [ 115.048828, 37.509726 ] } }
{"year": "BC570",  "type": "Feature", "tippecanoe": { "layer": "2AFCA05304E01583919000303", "minzoom": 2, "maxzoom": 8 }, "properties": { "halo": 0.8, "title": "鼓", "fontsize": 12, "tyid": "304000", "oid": "103:1555587279698", "color": "#202020" }, "geometry": { "type": "Point", "coordinates": [ 115.400391, 37.996163 ] } }
{"year": "BC570",  "type": "Feature", "tippecanoe": { "layer": "2AFCA05304E01583919000303", "minzoom": 2, "maxzoom": 8 }, "properties": { "halo": 0.8, "title": "刘", "fontsize": 12, "tyid": "304000", "oid": "103:1555587279297", "color": "#202020" }, "geometry": { "type": "Point", "coordinates": [ 112.675781, 34.597042 ] } }
{"year": "BC570",  "type": "Feature", "tippecanoe": { "layer": "2AFCA05304E01583919000303", "minzoom": 2, "maxzoom": 8 }, "properties": { "halo": 0.8, "title": "巩", "fontsize": 12, "tyid": "304000", "oid": "103:1555587279500", "color": "#202020" }, "geometry": { "type": "Point", "coordinates": [ 113.027344, 34.741612 ] } }
{"year": "BC570",  "type": "Feature", "tippecanoe": { "layer": "2AFCA05304E01583919000303", "minzoom": 2, "maxzoom": 8 }, "properties": { "halo": 0.8, "title": "卫", "fontsize": 12, "tyid": "304000", "oid": "103:1555587279969", "color": "#202020" }, "geometry": { "type": "Point", "coordinates": [ 115.136719, 35.960223 ] } }
{"year": "BC570",  "type": "Feature", "tippecanoe": { "layer": "2AFCA05304E01583919000303", "minzoom": 2, "maxzoom": 8 }, "properties": { "halo": 0.8, "title": "甘", "fontsize": 12, "tyid": "304000", "oid": "103:1555587279279", "color": "#202020" }, "geometry": { "type": "Point", "coordinates": [ 113.994141, 35.101934 ] } }
{"year": "BC570",  "type": "Feature", "tippecanoe": { "layer": "2AFCA05304E01583919000303", "minzoom": 2, "maxzoom": 8 }, "properties": { "halo": 0.8, "title": "南燕[春秋]", "fontsize": 12, "tyid": "304000", "oid": "103:1576922406692", "color": "#202020" }, "geometry": { "type": "Point", "coordinates": [ 114.257812, 35.317366 ] } }
{"year": "BC570",  "type": "Feature", "tippecanoe": { "layer": "2AFCA05304E01583919000303", "minzoom": 2, "maxzoom": 8 }, "properties": { "halo": 0.8, "title": "戎蛮子国", "fontsize": 12, "tyid": "304000", "oid": "103:1555587279222", "color": "#202020" }, "geometry": { "type": "Point", "coordinates": [ 112.763672, 34.161818 ] } }
{"year": "BC570",  "type": "Feature", "tippecanoe": { "layer": "2AFCA05304E01583919000303", "minzoom": 2, "maxzoom": 8 }, "properties": { "halo": 0.8, "title": "许", "fontsize": 12, "tyid": "304000", "oid": "103:1555587279895", "color": "#202020" }, "geometry": { "type": "Point", "coordinates": [ 112.675781, 33.797409 ] } }
{"year": "BC570",  "type": "Feature", "tippecanoe": { "layer": "2AFCA05304E01583919000303", "minzoom": 2, "maxzoom": 8 }, "properties": { "halo": 0.8, "title": "不羹", "fontsize": 12, "tyid": "304000", "oid": "103:1555587279275", "color": "#202020" }, "geometry": { "type": "Point", "coordinates": [ 113.554688, 33.578015 ] } }
{"year": "BC570",  "type": "Feature", "tippecanoe": { "layer": "2AFCA05304E01583919000303", "minzoom": 2, "maxzoom": 8 }, "properties": { "halo": 0.8, "title": "房", "fontsize": 12, "tyid": "304000", "oid": "103:1555587279464", "color": "#202020" }, "geometry": { "type": "Point", "coordinates": [ 113.818359, 33.211116 ] } }
{"year": "BC570",  "type": "Feature", "tippecanoe": { "layer": "2AFCA05304E01583919000303", "minzoom": 2, "maxzoom": 8 }, "properties": { "halo": 0.8, "title": "唐[春秋]", "fontsize": 12, "tyid": "304000", "oid": "103:1576922406893", "color": "#202020" }, "geometry": { "type": "Point", "coordinates": [ 112.851562, 32.398516 ] } }
{"year": "BC570",  "type": "Feature", "tippecanoe": { "layer": "2AFCA05304E01583919000303", "minzoom": 2, "maxzoom": 8 }, "properties": { "halo": 0.8, "title": "顿", "fontsize": 12, "tyid": "304000", "oid": "103:1576922406753", "color": "#202020" }, "geometry": { "type": "Point", "coordinates": [ 114.697266, 33.358062 ] } }
{"year": "BC570",  "type": "Feature", "tippecanoe": { "layer": "2AFCA05304E01583919000303", "minzoom": 2, "maxzoom": 8 }, "properties": { "halo": 0.8, "title": "陈", "fontsize": 12, "tyid": "304000", "oid": "103:1555587279363", "color": "#202020" }, "geometry": { "type": "Point", "coordinates": [ 115.136719, 33.724340 ] } }
{"year": "BC570",  "type": "Feature", "tippecanoe": { "layer": "2AFCA05304E01583919000303", "minzoom": 2, "maxzoom": 8 }, "properties": { "halo": 0.8, "title": "蔡", "fontsize": 12, "tyid": "304000", "oid": "103:1555587279834", "color": "#202020" }, "geometry": { "type": "Point", "coordinates": [ 114.521484, 32.990236 ] } }
{"year": "BC570",  "type": "Feature", "tippecanoe": { "layer": "2AFCA05304E01583919000303", "minzoom": 2, "maxzoom": 8 }, "properties": { "halo": 0.8, "title": "沈", "fontsize": 12, "tyid": "304000", "oid": "103:1555587279392", "color": "#202020" }, "geometry": { "type": "Point", "coordinates": [ 115.224609, 33.137551 ] } }
{"year": "BC570",  "type": "Feature", "tippecanoe": { "layer": "2AFCA05304E01583919000303", "minzoom": 2, "maxzoom": 8 }, "properties": { "halo": 0.8, "title": "戎国", "fontsize": 12, "tyid": "304000", "oid": "103:1555587279480", "color": "#202020" }, "geometry": { "type": "Point", "coordinates": [ 115.312500, 34.957995 ] } }
{"year": "BC570",  "type": "Feature", "tippecanoe": { "layer": "2AFCA05304E01583919000303", "minzoom": 2, "maxzoom": 8 }, "properties": { "halo": 0.8, "title": "曹", "fontsize": 12, "tyid": "304000", "oid": "103:1555587279437", "color": "#202020" }, "geometry": { "type": "Point", "coordinates": [ 115.488281, 35.173808 ] } }
{"year": "BC570",  "type": "Feature", "tippecanoe": { "layer": "2AFCA05304E01583919000303", "minzoom": 2, "maxzoom": 8 }, "properties": { "halo": 0.8, "title": "茅", "fontsize": 12, "tyid": "304000", "oid": "103:1555587279631", "color": "#202020" }, "geometry": { "type": "Point", "coordinates": [ 115.927734, 35.173808 ] } }
{"year": "BC570",  "type": "Feature", "tippecanoe": { "layer": "2AFCA05304E01583919000303", "minzoom": 2, "maxzoom": 8 }, "properties": { "halo": 0.8, "title": "任", "fontsize": 12, "tyid": "304000", "oid": "103:1555587279171", "color": "#202020" }, "geometry": { "type": "Point", "coordinates": [ 116.630859, 35.389050 ] } }
{"year": "BC570",  "type": "Feature", "tippecanoe": { "layer": "2AFCA05304E01583919000303", "minzoom": 2, "maxzoom": 8 }, "properties": { "halo": 0.8, "title": "邿", "fontsize": 12, "tyid": "304000", "oid": "103:1555587279198", "color": "#202020" }, "geometry": { "type": "Point", "coordinates": [ 116.718750, 36.597889 ] } }
{"year": "BC570",  "type": "Feature", "tippecanoe": { "layer": "2AFCA05304E01583919000303", "minzoom": 2, "maxzoom": 8 }, "properties": { "halo": 0.8, "title": "牟", "fontsize": 12, "tyid": "304000", "oid": "103:1555587279680", "color": "#202020" }, "geometry": { "type": "Point", "coordinates": [ 117.773438, 36.244273 ] } }
{"year": "BC570",  "type": "Feature", "tippecanoe": { "layer": "2AFCA05304E01583919000303", "minzoom": 2, "maxzoom": 8 }, "properties": { "halo": 0.8, "title": "颛臾", "fontsize": 12, "tyid": "304000", "oid": "103:1555587279183", "color": "#202020" }, "geometry": { "type": "Point", "coordinates": [ 117.685547, 35.532226 ] } }
{"year": "BC570",  "type": "Feature", "tippecanoe": { "layer": "2AFCA05304E01583919000303", "minzoom": 2, "maxzoom": 8 }, "properties": { "halo": 0.8, "title": "滕", "fontsize": 12, "tyid": "304000", "oid": "103:1555587279382", "color": "#202020" }, "geometry": { "type": "Point", "coordinates": [ 116.982422, 35.101934 ] } }
{"year": "BC570",  "type": "Feature", "tippecanoe": { "layer": "2AFCA05304E01583919000303", "minzoom": 2, "maxzoom": 8 }, "properties": { "halo": 0.8, "title": "邾", "fontsize": 12, "tyid": "304000", "oid": "103:1555587279550", "color": "#202020" }, "geometry": { "type": "Point", "coordinates": [ 117.158203, 35.317366 ] } }
{"year": "BC570",  "type": "Feature", "tippecanoe": { "layer": "2AFCA05304E01583919000303", "minzoom": 2, "maxzoom": 8 }, "properties": { "halo": 0.8, "title": "滥", "fontsize": 12, "tyid": "304000", "oid": "103:1555587279277", "color": "#202020" }, "geometry": { "type": "Point", "coordinates": [ 117.246094, 35.029996 ] } }
{"year": "BC570",  "type": "Feature", "tippecanoe": { "layer": "2AFCA05304E01583919000303", "minzoom": 2, "maxzoom": 8 }, "properties": { "halo": 0.8, "title": "薛", "fontsize": 12, "tyid": "304000", "oid": "103:1555587279368", "color": "#202020" }, "geometry": { "type": "Point", "coordinates": [ 117.246094, 34.813803 ] } }
{"year": "BC570",  "type": "Feature", "tippecanoe": { "layer": "2AFCA05304E01583919000303", "minzoom": 2, "maxzoom": 8 }, "properties": { "halo": 0.8, "title": "小邾", "fontsize": 12, "tyid": "304000", "oid": "103:1555587279394", "color": "#202020" }, "geometry": { "type": "Point", "coordinates": [ 117.421875, 35.173808 ] } }
{"year": "BC570",  "type": "Feature", "tippecanoe": { "layer": "2AFCA05304E01583919000303", "minzoom": 2, "maxzoom": 8 }, "properties": { "halo": 0.8, "title": "费", "fontsize": 12, "tyid": "304000", "oid": "103:1555587279284", "color": "#202020" }, "geometry": { "type": "Point", "coordinates": [ 117.949219, 35.389050 ] } }
{"year": "BC570",  "type": "Feature", "tippecanoe": { "layer": "2AFCA05304E01583919000303", "minzoom": 2, "maxzoom": 8 }, "properties": { "halo": 0.8, "title": "偪阳", "fontsize": 12, "tyid": "304000", "oid": "103:1555587279897", "color": "#202020" }, "geometry": { "type": "Point", "coordinates": [ 117.421875, 34.597042 ] } }
{"year": "BC570",  "type": "Feature", "tippecanoe": { "layer": "2AFCA05304E01583919000303", "minzoom": 2, "maxzoom": 8 }, "properties": { "halo": 0.8, "title": "鄫", "fontsize": 12, "tyid": "304000", "oid": "103:1555587279505", "color": "#202020" }, "geometry": { "type": "Point", "coordinates": [ 117.861328, 34.885931 ] } }
{"year": "BC570",  "type": "Feature", "tippecanoe": { "layer": "2AFCA05304E01583919000303", "minzoom": 2, "maxzoom": 8 }, "properties": { "halo": 0.8, "title": "厉", "fontsize": 12, "tyid": "304000", "oid": "103:1555587279670", "color": "#202020" }, "geometry": { "type": "Point", "coordinates": [ 115.488281, 34.016242 ] } }
{"year": "BC570",  "type": "Feature", "tippecanoe": { "layer": "2AFCA05304E01583919000303", "minzoom": 2, "maxzoom": 8 }, "properties": { "halo": 0.8, "title": "胡[归姓]", "fontsize": 12, "tyid": "304000", "oid": "103:1576922406902", "color": "#202020" }, "geometry": { "type": "Point", "coordinates": [ 115.839844, 32.916485 ] } }
{"year": "BC570",  "type": "Feature", "tippecanoe": { "layer": "2AFCA05304E01583919000303", "minzoom": 2, "maxzoom": 8 }, "properties": { "halo": 0.8, "title": "潘", "fontsize": 12, "tyid": "304000", "oid": "103:1555587279482", "color": "#202020" }, "geometry": { "type": "Point", "coordinates": [ 115.751953, 32.324276 ] } }
{"year": "BC570",  "type": "Feature", "tippecanoe": { "layer": "2AFCA05304E01583919000303", "minzoom": 2, "maxzoom": 8 }, "properties": { "halo": 0.8, "title": "邳", "fontsize": 12, "tyid": "304000", "oid": "103:1555587279619", "color": "#202020" }, "geometry": { "type": "Point", "coordinates": [ 117.861328, 34.234512 ] } }
{"year": "BC570",  "type": "Feature", "tippecanoe": { "layer": "2AFCA05304E01583919000303", "minzoom": 2, "maxzoom": 8 }, "properties": { "halo": 0.8, "title": "钟离", "fontsize": 12, "tyid": "304000", "oid": "103:1555587279992", "color": "#202020" }, "geometry": { "type": "Point", "coordinates": [ 117.597656, 33.211116 ] } }
{"year": "BC570",  "type": "Feature", "tippecanoe": { "layer": "2AFCA05304E01583919000303", "minzoom": 2, "maxzoom": 8 }, "properties": { "halo": 0.8, "title": "州来", "fontsize": 12, "tyid": "304000", "oid": "103:1555587279451", "color": "#202020" }, "geometry": { "type": "Point", "coordinates": [ 116.718750, 32.842674 ] } }
{"year": "BC570",  "type": "Feature", "tippecanoe": { "layer": "2AFCA05304E01583919000303", "minzoom": 2, "maxzoom": 8 }, "properties": { "halo": 0.8, "title": "夷虎", "fontsize": 12, "tyid": "304001", "oid": "103:1555587279954", "color": "#262626" }, "geometry": { "type": "Point", "coordinates": [ 117.158203, 32.175612 ] } }
{"year": "BC570",  "type": "Feature", "tippecanoe": { "layer": "2AFCA05304E01583919000303", "minzoom": 2, "maxzoom": 8 }, "properties": { "halo": 0.8, "title": "屠何", "fontsize": 12, "tyid": "304001", "oid": "103:1555587279396", "color": "#262626" }, "geometry": { "type": "Point", "coordinates": [ 120.322266, 40.847060 ] } }
{"year": "BC570",  "type": "Feature", "tippecanoe": { "layer": "2AFCA05304E01583919000303", "minzoom": 2, "maxzoom": 8 }, "properties": { "halo": 0.8, "title": "杞", "fontsize": 12, "tyid": "304000", "oid": "103:1555587279786", "color": "#202020" }, "geometry": { "type": "Point", "coordinates": [ 118.916016, 36.385913 ] } }
{"year": "BC570",  "type": "Feature", "tippecanoe": { "layer": "2AFCA05304E01583919000303", "minzoom": 2, "maxzoom": 8 }, "properties": { "halo": 0.8, "title": "淳于", "fontsize": 12, "tyid": "304000", "oid": "103:1555587279281", "color": "#202020" }, "geometry": { "type": "Point", "coordinates": [ 119.179688, 36.385913 ] } }
{"year": "BC570",  "type": "Feature", "tippecanoe": { "layer": "2AFCA05304E01583919000303", "minzoom": 2, "maxzoom": 8 }, "properties": { "halo": 0.8, "title": "莒", "fontsize": 12, "tyid": "304000", "oid": "103:1555587279931", "color": "#202020" }, "geometry": { "type": "Point", "coordinates": [ 119.355469, 35.675147 ] } }
{"year": "BC570",  "type": "Feature", "tippecanoe": { "layer": "2AFCA05304E01583919000303", "minzoom": 2, "maxzoom": 8 }, "properties": { "halo": 0.8, "title": "鄅", "fontsize": 12, "tyid": "304000", "oid": "103:1555587279448", "color": "#202020" }, "geometry": { "type": "Point", "coordinates": [ 118.300781, 35.245619 ] } }
{"year": "BC570",  "type": "Feature", "tippecanoe": { "layer": "2AFCA05304E01583919000303", "minzoom": 2, "maxzoom": 8 }, "properties": { "halo": 0.8, "title": "郯", "fontsize": 12, "tyid": "304000", "oid": "103:1555587279729", "color": "#202020" }, "geometry": { "type": "Point", "coordinates": [ 118.212891, 34.597042 ] } }
{"year": "BC570",  "type": "Feature", "tippecanoe": { "layer": "2AFCA05304E01583919000303", "minzoom": 2, "maxzoom": 8 }, "properties": { "halo": 0.8, "title": "钟吾", "fontsize": 12, "tyid": "304000", "oid": "103:1555587279942", "color": "#202020" }, "geometry": { "type": "Point", "coordinates": [ 118.388672, 34.089061 ] } }
{"year": "BC570",  "type": "Feature", "tippecanoe": { "layer": "2AFCA05304E01583919000303", "minzoom": 2, "maxzoom": 8 }, "properties": { "halo": 0.8, "title": "徐", "fontsize": 12, "tyid": "304000", "oid": "103:1555587279978", "color": "#202020" }, "geometry": { "type": "Point", "coordinates": [ 118.125000, 33.504759 ] } }
{"year": "BC570",  "type": "Feature", "tippecanoe": { "layer": "2AFCA05304E01583919000303", "minzoom": 2, "maxzoom": 8 }, "properties": { "halo": 0.8, "title": "淮夷", "fontsize": 12, "tyid": "304001", "oid": "103:1555587279792", "color": "#262626" }, "geometry": { "type": "Point", "coordinates": [ 119.091797, 34.089061 ] } }
{"year": "BC570",  "type": "Feature", "tippecanoe": { "layer": "2AFCA05304E01583919000303", "minzoom": 2, "maxzoom": 8 }, "properties": { "halo": 0.8, "title": "椒", "fontsize": 12, "tyid": "304000", "oid": "103:1555587279876", "color": "#202020" }, "geometry": { "type": "Point", "coordinates": [ 118.125000, 32.175612 ] } }
{"year": "BC570",  "type": "Feature", "tippecanoe": { "layer": "2AFCA05304E01583919000303", "minzoom": 2, "maxzoom": 8 }, "properties": { "halo": 0.8, "title": "邗", "fontsize": 12, "tyid": "304000", "oid": "103:1555587279874", "color": "#202020" }, "geometry": { "type": "Point", "coordinates": [ 119.443359, 32.546813 ] } }
{"year": "BC570",  "type": "Feature", "tippecanoe": { "layer": "2AFCA05304E01583919000303", "minzoom": 2, "maxzoom": 8 }, "properties": { "halo": 0.8, "title": "随", "fontsize": 12, "tyid": "304000", "oid": "103:1555587279536", "color": "#202020" }, "geometry": { "type": "Point", "coordinates": [ 113.203125, 31.802893 ] } }
{"year": "BC570",  "type": "Feature", "tippecanoe": { "layer": "2AFCA05304E01583919000303", "minzoom": 2, "maxzoom": 8 }, "properties": { "halo": 0.8, "title": "桐", "fontsize": 12, "tyid": "304000", "oid": "103:1555587279197", "color": "#202020" }, "geometry": { "type": "Point", "coordinates": [ 116.718750, 30.977609 ] } }
{"year": "BC570",  "type": "Feature", "tippecanoe": { "layer": "2AFCA05304E01583919000303", "minzoom": 2, "maxzoom": 8 }, "properties": { "halo": 0.8, "title": "巢", "fontsize": 12, "tyid": "304000", "oid": "103:1555587279418", "color": "#202020" }, "geometry": { "type": "Point", "coordinates": [ 117.773438, 31.877558 ] } }
{"year": "BC570",  "type": "Feature", "tippecanoe": { "layer": "2AFCA05304E01583919000303", "minzoom": 2, "maxzoom": 8 }, "properties": { "halo": 0.8, "title": "缚娄", "fontsize": 12, "tyid": "304000", "oid": "103:1555587279351", "color": "#202020" }, "geometry": { "type": "Point", "coordinates": [ 114.345703, 23.160563 ] } }
{"year": "BC570",  "type": "Feature", "tippecanoe": { "layer": "2AFCA05304E01583919000303", "minzoom": 2, "maxzoom": 8 }, "properties": { "halo": 0.8, "title": "营埔文化", "fontsize": 12, "tyid": "304002", "oid": "103:1568109437167", "color": "#262626" }, "geometry": { "type": "Point", "coordinates": [ 120.673828, 24.367114 ] } }
{"year": "BC570",  "type": "Feature", "tippecanoe": { "layer": "2AFCA05304E01583919000303", "minzoom": 2, "maxzoom": 8 }, "properties": { "halo": 0.8, "title": "卑南文化", "fontsize": 12, "tyid": "304002", "oid": "103:1555587279341", "color": "#262626" }, "geometry": { "type": "Point", "coordinates": [ 120.761719, 22.674847 ] } }
{"year": "BC570",  "type": "Feature", "tippecanoe": { "layer": "2AFCA05304E01583919000303", "minzoom": 2, "maxzoom": 8 }, "properties": { "halo": 0.8, "title": "圆山文化", "fontsize": 12, "tyid": "304002", "oid": "103:1568109437169", "color": "#262626" }, "geometry": { "type": "Point", "coordinates": [ 121.289062, 24.926295 ] } }
{"year": "BC570",  "type": "Feature", "tippecanoe": { "layer": "2AFCA05304E01583919000303", "minzoom": 2, "maxzoom": 8 }, "properties": { "halo": 0.8, "title": "麒麟文化", "fontsize": 12, "tyid": "304002", "oid": "103:1568109437172", "color": "#262626" }, "geometry": { "type": "Point", "coordinates": [ 121.289062, 23.563987 ] } }
{"year": "BC570",  "type": "Feature", "tippecanoe": { "layer": "2AFCA05304E01583919000303", "minzoom": 2, "maxzoom": 8 }, "properties": { "halo": 0.8, "title": "弥生人", "fontsize": 12, "tyid": "304001", "oid": "103:1555587280136", "color": "#262626" }, "geometry": { "type": "Point", "coordinates": [ 130.517578, 33.504759 ] } }
{"year": "BC570",  "type": "Feature", "tippecanoe": { "layer": "2AFCA05304E01583919000303", "minzoom": 2, "maxzoom": 8 }, "properties": { "halo": 0.8, "title": "托雷斯海峡岛民", "fontsize": 12, "tyid": "304001", "oid": "103:1555587280112", "color": "#262626" }, "geometry": { "type": "Point", "coordinates": [ 142.382812, -11.264612 ] } }
{"year": "BC570",  "type": "Feature", "tippecanoe": { "layer": "2AFCA05307481583919000300", "minzoom": 2, "maxzoom": 8 }, "properties": { "halo": 0.8, "title": "拉霍亚文化", "fontsize": 12, "tyid": "304002", "oid": "103:1555587280103", "color": "#262626" }, "geometry": { "type": "Point", "coordinates": [ -118.916016, 34.597042 ] } }
{"year": "BC570",  "type": "Feature", "tippecanoe": { "layer": "2AFCA05307481583919000300", "minzoom": 2, "maxzoom": 8 }, "properties": { "halo": 0.8, "title": "古普韦布洛人", "fontsize": 12, "tyid": "304001", "oid": "103:1555587279739", "color": "#262626" }, "geometry": { "type": "Point", "coordinates": [ -110.126953, 36.949892 ] } }
{"year": "BC570",  "type": "Feature", "tippecanoe": { "layer": "2AFCA05307481583919000300", "minzoom": 2, "maxzoom": 8 }, "properties": { "halo": 0.8, "title": "奥沙拉文化", "fontsize": 12, "tyid": "304002", "oid": "103:1555587280002", "color": "#262626" }, "geometry": { "type": "Point", "coordinates": [ -107.138672, 37.230328 ] } }
{"year": "BC570",  "type": "Feature", "tippecanoe": { "layer": "2AFCA05307481583919000300", "minzoom": 2, "maxzoom": 8 }, "properties": { "halo": 0.8, "title": "科奇斯文化", "fontsize": 12, "tyid": "304002", "oid": "103:1555587279634", "color": "#262626" }, "geometry": { "type": "Point", "coordinates": [ -110.039062, 32.249974 ] } }
{"year": "BC570",  "type": "Feature", "tippecanoe": { "layer": "2AFCA05307481583919000300", "minzoom": 2, "maxzoom": 8 }, "properties": { "halo": 0.8, "title": "奇瓦瓦文化", "fontsize": 12, "tyid": "304002", "oid": "103:1555587279945", "color": "#262626" }, "geometry": { "type": "Point", "coordinates": [ -107.226562, 32.768800 ] } }
{"year": "BC570",  "type": "Feature", "tippecanoe": { "layer": "2AFCA05307481583919000300", "minzoom": 2, "maxzoom": 8 }, "properties": { "halo": 0.8, "title": "瓜伊库拉人", "fontsize": 12, "tyid": "304001", "oid": "103:1555587280183", "color": "#262626" }, "geometry": { "type": "Point", "coordinates": [ -111.269531, 24.846565 ] } }
{"year": "BC570",  "type": "Feature", "tippecanoe": { "layer": "2AFCA05307481583919000300", "minzoom": 2, "maxzoom": 8 }, "properties": { "halo": 0.8, "title": "楚拉时期", "fontsize": 12, "tyid": "304002", "oid": "103:1555587279908", "color": "#262626" }, "geometry": { "type": "Point", "coordinates": [ -92.109375, 32.620870 ] } }
{"year": "BC570",  "type": "Feature", "tippecanoe": { "layer": "2AFCA05307481583919000300", "minzoom": 2, "maxzoom": 8 }, "properties": { "halo": 0.8, "title": "华斯塔克文明", "fontsize": 12, "tyid": "304002", "oid": "103:1555587279798", "color": "#262626" }, "geometry": { "type": "Point", "coordinates": [ -98.613281, 22.105999 ] } }
{"year": "BC570",  "type": "Feature", "tippecanoe": { "layer": "2AFCA05307481583919000300", "minzoom": 2, "maxzoom": 8 }, "properties": { "halo": 0.8, "title": "奇蒂玛察人", "fontsize": 12, "tyid": "304001", "oid": "103:1555587280180", "color": "#262626" }, "geometry": { "type": "Point", "coordinates": [ -91.318359, 30.297018 ] } }
{"year": "BC570",  "type": "Feature", "tippecanoe": { "layer": "2AFCA05307481583919000300", "minzoom": 2, "maxzoom": 8 }, "properties": { "halo": 0.8, "title": "埃尔欧朋文化", "fontsize": 12, "tyid": "304002", "oid": "103:1555587279248", "color": "#262626" }, "geometry": { "type": "Point", "coordinates": [ -101.865234, 19.642588 ] } }
{"year": "BC570",  "type": "Feature", "tippecanoe": { "layer": "2AFCA05307481583919000300", "minzoom": 2, "maxzoom": 8 }, "properties": { "halo": 0.8, "title": "梅斯卡拉文化", "fontsize": 12, "tyid": "304002", "oid": "103:1555587280008", "color": "#262626" }, "geometry": { "type": "Point", "coordinates": [ -100.810547, 17.895114 ] } }
{"year": "BC570",  "type": "Feature", "tippecanoe": { "layer": "2AFCA05307481583919000300", "minzoom": 2, "maxzoom": 8 }, "properties": { "halo": 0.8, "title": "萨波特克文明", "fontsize": 12, "tyid": "304002", "oid": "103:1555587279616", "color": "#262626" }, "geometry": { "type": "Point", "coordinates": [ -96.064453, 16.636192 ] } }
{"year": "BC570",  "type": "Feature", "tippecanoe": { "layer": "2AFCA05307481583919000300", "minzoom": 2, "maxzoom": 8 }, "properties": { "halo": 0.8, "title": "奥尔梅克文明", "fontsize": 12, "tyid": "304002", "oid": "103:1555587279850", "color": "#262626" }, "geometry": { "type": "Point", "coordinates": [ -94.042969, 17.727759 ] } }
{"year": "BC570",  "type": "Feature", "tippecanoe": { "layer": "2AFCA05307481583919000300", "minzoom": 2, "maxzoom": 8 }, "properties": { "halo": 0.8, "title": "德普特福德文化", "fontsize": 12, "tyid": "304002", "oid": "103:1555587280229", "color": "#262626" }, "geometry": { "type": "Point", "coordinates": [ -79.716797, 33.284620 ] } }
{"year": "BC570",  "type": "Feature", "tippecanoe": { "layer": "2AFCA05307481583919000300", "minzoom": 2, "maxzoom": 8 }, "properties": { "halo": 0.8, "title": "切格文特文化", "fontsize": 12, "tyid": "304002", "oid": "103:1555587280195", "color": "#262626" }, "geometry": { "type": "Point", "coordinates": [ -89.033203, 30.751278 ] } }
{"year": "BC570",  "type": "Feature", "tippecanoe": { "layer": "2AFCA05307481583919000300", "minzoom": 2, "maxzoom": 8 }, "properties": { "halo": 0.8, "title": "诺伍德文化", "fontsize": 12, "tyid": "304002", "oid": "103:1555587280171", "color": "#262626" }, "geometry": { "type": "Point", "coordinates": [ -84.638672, 30.297018 ] } }
{"year": "BC570",  "type": "Feature", "tippecanoe": { "layer": "2AFCA05307481583919000300", "minzoom": 2, "maxzoom": 8 }, "properties": { "halo": 0.8, "title": "卡卢萨人", "fontsize": 12, "tyid": "304001", "oid": "103:1555587279544", "color": "#262626" }, "geometry": { "type": "Point", "coordinates": [ -81.650391, 26.902477 ] } }
{"year": "BC570",  "type": "Feature", "tippecanoe": { "layer": "2AFCA05307481583919000300", "minzoom": 2, "maxzoom": 8 }, "properties": { "halo": 0.8, "title": "玛雅文明[前古典时期]", "fontsize": 12, "tyid": "304002", "oid": "103:1576922407237", "color": "#262626" }, "geometry": { "type": "Point", "coordinates": [ -89.296875, 17.140790 ] } }
{"year": "BC570",  "type": "Feature", "tippecanoe": { "layer": "2AFCA05307481583919000300", "minzoom": 2, "maxzoom": 8 }, "properties": { "halo": 0.8, "title": "拉托利塔文化", "fontsize": 12, "tyid": "304002", "oid": "103:1555587280198", "color": "#262626" }, "geometry": { "type": "Point", "coordinates": [ -78.046875, 1.757537 ] } }
{"year": "BC570",  "type": "Feature", "tippecanoe": { "layer": "2AFCA05307481583919000300", "minzoom": 2, "maxzoom": 8 }, "properties": { "halo": 0.8, "title": "埃雷拉时期", "fontsize": 12, "tyid": "304002", "oid": "103:1555587280164", "color": "#262626" }, "geometry": { "type": "Point", "coordinates": [ -73.476562, 5.441022 ] } }
{"year": "BC570",  "type": "Feature", "tippecanoe": { "layer": "2AFCA05307481583919000300", "minzoom": 2, "maxzoom": 8 }, "properties": { "halo": 0.8, "title": "伊奈里人", "fontsize": 12, "tyid": "304001", "oid": "103:1555587280267", "color": "#262626" }, "geometry": { "type": "Point", "coordinates": [ -62.929688, 8.494105 ] } }
{"year": "BC570",  "type": "Feature", "tippecanoe": { "layer": "2AFCA05307481583919000300", "minzoom": 2, "maxzoom": 8 }, "properties": { "halo": 0.8, "title": "皮克特人", "fontsize": 12, "tyid": "304001", "oid": "103:1555587280240", "color": "#262626" }, "geometry": { "type": "Point", "coordinates": [ -4.042969, 56.704506 ] } }
{"year": "BC570",  "type": "Feature", "tippecanoe": { "layer": "2AFCA05307481583919000300", "minzoom": 2, "maxzoom": 8 }, "properties": { "halo": 0.8, "title": "盖尔人", "fontsize": 12, "tyid": "304001", "oid": "103:1555587280156", "color": "#262626" }, "geometry": { "type": "Point", "coordinates": [ -7.910156, 53.435719 ] } }
{"year": "BC570",  "type": "Feature", "tippecanoe": { "layer": "2AFCA05307481583919000300", "minzoom": 2, "maxzoom": 8 }, "properties": { "halo": 0.8, "title": "加利西亚人", "fontsize": 12, "tyid": "304001", "oid": "103:1555587280028", "color": "#262626" }, "geometry": { "type": "Point", "coordinates": [ -7.822266, 42.423457 ] } }
{"year": "BC570",  "type": "Feature", "tippecanoe": { "layer": "2AFCA05307481583919000300", "minzoom": 2, "maxzoom": 8 }, "properties": { "halo": 0.8, "title": "阿斯图尔人", "fontsize": 12, "tyid": "304001", "oid": "103:1555587279224", "color": "#262626" }, "geometry": { "type": "Point", "coordinates": [ -6.152344, 42.553080 ] } }
{"year": "BC570",  "type": "Feature", "tippecanoe": { "layer": "2AFCA05307481583919000300", "minzoom": 2, "maxzoom": 8 }, "properties": { "halo": 0.8, "title": "瓦凯伊人", "fontsize": 12, "tyid": "304001", "oid": "103:1555587279232", "color": "#262626" }, "geometry": { "type": "Point", "coordinates": [ -4.658203, 41.640078 ] } }
{"year": "BC570",  "type": "Feature", "tippecanoe": { "layer": "2AFCA05307481583919000300", "minzoom": 2, "maxzoom": 8 }, "properties": { "halo": 0.8, "title": "卡斯特罗文化", "fontsize": 12, "tyid": "304002", "oid": "103:1555587279273", "color": "#262626" }, "geometry": { "type": "Point", "coordinates": [ -3.515625, 42.811522 ] } }
{"year": "BC570",  "type": "Feature", "tippecanoe": { "layer": "2AFCA05307481583919000300", "minzoom": 2, "maxzoom": 8 }, "properties": { "halo": 0.8, "title": "阿奎丹人", "fontsize": 12, "tyid": "304001", "oid": "103:1555587280041", "color": "#262626" }, "geometry": { "type": "Point", "coordinates": [ -0.175781, 43.834527 ] } }
{"year": "BC570",  "type": "Feature", "tippecanoe": { "layer": "2AFCA05307481583919000300", "minzoom": 2, "maxzoom": 8 }, "properties": { "halo": 0.8, "title": "卢西塔利亚人", "fontsize": 12, "tyid": "304001", "oid": "103:1555587279229", "color": "#262626" }, "geometry": { "type": "Point", "coordinates": [ -8.085938, 40.313043 ] } }
{"year": "BC570",  "type": "Feature", "tippecanoe": { "layer": "2AFCA05307481583919000300", "minzoom": 2, "maxzoom": 8 }, "properties": { "halo": 0.8, "title": "凯蒂奇人", "fontsize": 12, "tyid": "304001", "oid": "103:1555587279255", "color": "#262626" }, "geometry": { "type": "Point", "coordinates": [ -7.646484, 38.959409 ] } }
{"year": "BC570",  "type": "Feature", "tippecanoe": { "layer": "2AFCA05307481583919000300", "minzoom": 2, "maxzoom": 8 }, "properties": { "halo": 0.8, "title": "维托内人", "fontsize": 12, "tyid": "304001", "oid": "103:1555587279252", "color": "#262626" }, "geometry": { "type": "Point", "coordinates": [ -5.800781, 40.313043 ] } }
{"year": "BC570",  "type": "Feature", "tippecanoe": { "layer": "2AFCA05307481583919000300", "minzoom": 2, "maxzoom": 8 }, "properties": { "halo": 0.8, "title": "西尼特人", "fontsize": 12, "tyid": "304001", "oid": "103:1555587280046", "color": "#262626" }, "geometry": { "type": "Point", "coordinates": [ -7.910156, 37.579413 ] } }
{"year": "BC570",  "type": "Feature", "tippecanoe": { "layer": "2AFCA05307481583919000300", "minzoom": 2, "maxzoom": 8 }, "properties": { "halo": 0.8, "title": "图尔杜利人", "fontsize": 12, "tyid": "304001", "oid": "103:1555587279267", "color": "#262626" }, "geometry": { "type": "Point", "coordinates": [ -6.064453, 38.616870 ] } }
{"year": "BC570",  "type": "Feature", "tippecanoe": { "layer": "2AFCA05307481583919000300", "minzoom": 2, "maxzoom": 8 }, "properties": { "halo": 0.8, "title": "卡佩塔尼人", "fontsize": 12, "tyid": "304001", "oid": "103:1555587279801", "color": "#262626" }, "geometry": { "type": "Point", "coordinates": [ -3.955078, 39.977120 ] } }
{"year": "BC570",  "type": "Feature", "tippecanoe": { "layer": "2AFCA05307481583919000300", "minzoom": 2, "maxzoom": 8 }, "properties": { "halo": 0.8, "title": "图尔德泰尼人", "fontsize": 12, "tyid": "304001", "oid": "103:1555587279905", "color": "#262626" }, "geometry": { "type": "Point", "coordinates": [ -5.097656, 37.718590 ] } }
{"year": "BC570",  "type": "Feature", "tippecanoe": { "layer": "2AFCA05307481583919000300", "minzoom": 2, "maxzoom": 8 }, "properties": { "halo": 0.8, "title": "奥雷塔尼人", "fontsize": 12, "tyid": "304001", "oid": "103:1555587279403", "color": "#262626" }, "geometry": { "type": "Point", "coordinates": [ -3.251953, 38.548165 ] } }
{"year": "BC570",  "type": "Feature", "tippecanoe": { "layer": "2AFCA05307481583919000300", "minzoom": 2, "maxzoom": 8 }, "properties": { "halo": 0.8, "title": "凯尔特伊比利亚人", "fontsize": 12, "tyid": "304001", "oid": "103:1555587279264", "color": "#262626" }, "geometry": { "type": "Point", "coordinates": [ -2.197266, 40.780541 ] } }
{"year": "BC570",  "type": "Feature", "tippecanoe": { "layer": "2AFCA05307481583919000300", "minzoom": 2, "maxzoom": 8 }, "properties": { "halo": 0.8, "title": "巴斯塔尼人", "fontsize": 12, "tyid": "304001", "oid": "103:1555587279178", "color": "#262626" }, "geometry": { "type": "Point", "coordinates": [ -2.197266, 37.857507 ] } }
{"year": "BC570",  "type": "Feature", "tippecanoe": { "layer": "2AFCA05307481583919000300", "minzoom": 2, "maxzoom": 8 }, "properties": { "halo": 0.8, "title": "达尔蒂奇特文化", "fontsize": 12, "tyid": "304002", "oid": "103:1555587279445", "color": "#262626" }, "geometry": { "type": "Point", "coordinates": [ -9.404297, 18.895893 ] } }
{"year": "BC570",  "type": "Feature", "tippecanoe": { "layer": "2AFCA05307481583919000300", "minzoom": 2, "maxzoom": 8 }, "properties": { "halo": 0.8, "title": "科瑞尔文化", "fontsize": 12, "tyid": "304002", "oid": "103:1555587280261", "color": "#262626" }, "geometry": { "type": "Point", "coordinates": [ -79.365234, -0.878872 ] } }
{"year": "BC570",  "type": "Feature", "tippecanoe": { "layer": "2AFCA05307481583919000300", "minzoom": 2, "maxzoom": 8 }, "properties": { "halo": 0.8, "title": "库皮尼克文化", "fontsize": 12, "tyid": "304002", "oid": "103:1555587279429", "color": "#262626" }, "geometry": { "type": "Point", "coordinates": [ -80.068359, -6.053161 ] } }
{"year": "BC570",  "type": "Feature", "tippecanoe": { "layer": "2AFCA05307481583919000300", "minzoom": 2, "maxzoom": 8 }, "properties": { "halo": 0.8, "title": "楚真文化", "fontsize": 12, "tyid": "304002", "oid": "103:1555587279353", "color": "#262626" }, "geometry": { "type": "Point", "coordinates": [ -70.576172, -16.299051 ] } }
{"year": "BC570",  "type": "Feature", "tippecanoe": { "layer": "2AFCA05307481583919000300", "minzoom": 2, "maxzoom": 8 }, "properties": { "halo": 0.8, "title": "普卡拉文化", "fontsize": 12, "tyid": "304002", "oid": "103:1555587279862", "color": "#262626" }, "geometry": { "type": "Point", "coordinates": [ -69.960938, -14.179186 ] } }
{"year": "BC570",  "type": "Feature", "tippecanoe": { "layer": "2AFCA05307481583919000300", "minzoom": 2, "maxzoom": 8 }, "properties": { "halo": 0.8, "title": "艾马拉人", "fontsize": 12, "tyid": "304001", "oid": "103:1555587279887", "color": "#262626" }, "geometry": { "type": "Point", "coordinates": [ -68.378906, -17.056785 ] } }
{"year": "BC570",  "type": "Feature", "tippecanoe": { "layer": "2AFCA05307481583919000300", "minzoom": 2, "maxzoom": 8 }, "properties": { "halo": 0.8, "title": "安西尔塔文化", "fontsize": 12, "tyid": "304002", "oid": "103:1555587279774", "color": "#262626" }, "geometry": { "type": "Point", "coordinates": [ -68.818359, -31.353637 ] } }
{"year": "BC570",  "type": "Feature", "tippecanoe": { "layer": "2AFCA05307481583919000300", "minzoom": 2, "maxzoom": 8 }, "properties": { "halo": 0.8, "title": "巴托文化", "fontsize": 12, "tyid": "304002", "oid": "103:1555587279529", "color": "#262626" }, "geometry": { "type": "Point", "coordinates": [ -70.839844, -33.431441 ] } }
{"year": "BC570",  "type": "Feature", "tippecanoe": { "layer": "2AFCA05307481583919000300", "minzoom": 2, "maxzoom": 8 }, "properties": { "halo": 0.8, "title": "摩克索人", "fontsize": 12, "tyid": "304001", "oid": "103:1555587279965", "color": "#262626" }, "geometry": { "type": "Point", "coordinates": [ -65.830078, -13.923404 ] } }
{"year": "BC570",  "type": "Feature", "tippecanoe": { "layer": "2AFCA05307481583919000300", "minzoom": 2, "maxzoom": 8 }, "properties": { "halo": 0.8, "title": "瓦卡拉尼文化", "fontsize": 12, "tyid": "304002", "oid": "103:1555587279604", "color": "#262626" }, "geometry": { "type": "Point", "coordinates": [ -65.214844, -17.895114 ] } }
{"year": "BC570",  "type": "Feature", "tippecanoe": { "layer": "2AFCA05307481583919000300", "minzoom": 2, "maxzoom": 8 }, "properties": { "halo": 0.8, "title": "查鲁亚人", "fontsize": 12, "tyid": "304001", "oid": "103:1555587279871", "color": "#262626" }, "geometry": { "type": "Point", "coordinates": [ -57.128906, -32.398516 ] } }
{"year": "BC570",  "type": "Feature", "tippecanoe": { "layer": "2AFCA05307481583919000300", "minzoom": 2, "maxzoom": 8 }, "properties": { "halo": 0.8, "title": "特胡尔切人", "fontsize": 12, "tyid": "304001", "oid": "103:1555587279602", "color": "#262626" }, "geometry": { "type": "Point", "coordinates": [ -70.751953, -50.176898 ] } }
{"year": "BC570",  "type": "Feature", "tippecanoe": { "layer": "2AFCA05307481583919000300", "minzoom": 2, "maxzoom": 8 }, "properties": { "halo": 0.8, "title": "塞尔克南人", "fontsize": 12, "tyid": "304001", "oid": "103:1555587279757", "color": "#262626" }, "geometry": { "type": "Point", "coordinates": [ -68.378906, -53.696706 ] } }
{"year": "BC570",  "type": "Feature", "tippecanoe": { "layer": "2AFCA05307481583919000300", "minzoom": 2, "maxzoom": 8 }, "properties": { "halo": 0.8, "title": "雅干人", "fontsize": 12, "tyid": "304001", "oid": "103:1555587280187", "color": "#262626" }, "geometry": { "type": "Point", "coordinates": [ -68.554688, -54.521081 ] } }
{"year": "BC570",  "type": "Feature", "tippecanoe": { "layer": "2AFCA05307481583919000300", "minzoom": 2, "maxzoom": 8 }, "properties": { "halo": 0.8, "title": "洪斯吕克-埃菲尔文化", "fontsize": 12, "tyid": "304002", "oid": "103:1555587279789", "color": "#262626" }, "geometry": { "type": "Point", "coordinates": [ 7.031250, 49.951220 ] } }
{"year": "BC570",  "type": "Feature", "tippecanoe": { "layer": "2AFCA05307481583919000300", "minzoom": 2, "maxzoom": 8 }, "properties": { "halo": 0.8, "title": "屋瓮文化", "fontsize": 12, "tyid": "304002", "oid": "103:1555587279760", "color": "#262626" }, "geometry": { "type": "Point", "coordinates": [ 10.898438, 51.399206 ] } }
{"year": "BC570",  "type": "Feature", "tippecanoe": { "layer": "2AFCA05307481583919000300", "minzoom": 2, "maxzoom": 8 }, "properties": { "halo": 0.8, "title": "伊勒格泰人", "fontsize": 12, "tyid": "304001", "oid": "103:1555587279176", "color": "#262626" }, "geometry": { "type": "Point", "coordinates": [ 0.351562, 42.228517 ] } }
{"year": "BC570",  "type": "Feature", "tippecanoe": { "layer": "2AFCA05307481583919000300", "minzoom": 2, "maxzoom": 8 }, "properties": { "halo": 0.8, "title": "蕾蒂人", "fontsize": 12, "tyid": "304001", "oid": "103:1555587279387", "color": "#262626" }, "geometry": { "type": "Point", "coordinates": [ 10.546875, 47.100045 ] } }
{"year": "BC570",  "type": "Feature", "tippecanoe": { "layer": "2AFCA05307481583919000300", "minzoom": 2, "maxzoom": 8 }, "properties": { "halo": 0.8, "title": "利古里亚人", "fontsize": 12, "tyid": "304002", "oid": "103:1555587279187", "color": "#262626" }, "geometry": { "type": "Point", "coordinates": [ 8.173828, 44.527843 ] } }
{"year": "BC570",  "type": "Feature", "tippecanoe": { "layer": "2AFCA05307481583919000300", "minzoom": 2, "maxzoom": 8 }, "properties": { "halo": 0.8, "title": "亚斯托夫文化", "fontsize": 12, "tyid": "304002", "oid": "103:1555587280249", "color": "#262626" }, "geometry": { "type": "Point", "coordinates": [ 11.337891, 53.173119 ] } }
{"year": "BC570",  "type": "Feature", "tippecanoe": { "layer": "2AFCA05307481583919000300", "minzoom": 2, "maxzoom": 8 }, "properties": { "halo": 0.8, "title": "骨壶墓地文化", "fontsize": 12, "tyid": "304002", "oid": "103:1555587279777", "color": "#262626" }, "geometry": { "type": "Point", "coordinates": [ 13.886719, 51.727028 ] } }
{"year": "BC570",  "type": "Feature", "tippecanoe": { "layer": "2AFCA05307481583919000300", "minzoom": 2, "maxzoom": 8 }, "properties": { "halo": 0.8, "title": "西波罗的海坟文化", "fontsize": 12, "tyid": "304002", "oid": "103:1555587280252", "color": "#262626" }, "geometry": { "type": "Point", "coordinates": [ 21.708984, 54.213861 ] } }
{"year": "BC570",  "type": "Feature", "tippecanoe": { "layer": "2AFCA05307481583919000300", "minzoom": 2, "maxzoom": 8 }, "properties": { "halo": 0.8, "title": "威尼蒂人[亚得里亚海]", "fontsize": 12, "tyid": "304001", "oid": "103:1576922406845", "color": "#262626" }, "geometry": { "type": "Point", "coordinates": [ 12.041016, 45.767523 ] } }
{"year": "BC570",  "type": "Feature", "tippecanoe": { "layer": "2AFCA05307481583919000300", "minzoom": 2, "maxzoom": 8 }, "properties": { "halo": 0.8, "title": "伊特鲁里亚文明", "fontsize": 12, "tyid": "304002", "oid": "103:1555587280294", "color": "#262626" }, "geometry": { "type": "Point", "coordinates": [ 11.250000, 43.771094 ] } }
{"year": "BC570",  "type": "Feature", "tippecanoe": { "layer": "2AFCA05307481583919000300", "minzoom": 2, "maxzoom": 8 }, "properties": { "halo": 0.8, "title": "萨莫奈人", "fontsize": 12, "tyid": "304001", "oid": "103:1555587279853", "color": "#262626" }, "geometry": { "type": "Point", "coordinates": [ 14.501953, 41.310824 ] } }
{"year": "BC570",  "type": "Feature", "tippecanoe": { "layer": "2AFCA05307481583919000300", "minzoom": 2, "maxzoom": 8 }, "properties": { "halo": 0.8, "title": "伊利里亚人", "fontsize": 12, "tyid": "304001", "oid": "103:1555587280061", "color": "#262626" }, "geometry": { "type": "Point", "coordinates": [ 17.841797, 43.834527 ] } }
{"year": "BC570",  "type": "Feature", "tippecanoe": { "layer": "2AFCA05307481583919000300", "minzoom": 2, "maxzoom": 8 }, "properties": { "halo": 0.8, "title": "达尔达尼亚人", "fontsize": 12, "tyid": "304001", "oid": "103:1555587279836", "color": "#262626" }, "geometry": { "type": "Point", "coordinates": [ 21.533203, 43.644026 ] } }
{"year": "BC570",  "type": "Feature", "tippecanoe": { "layer": "2AFCA05307481583919000300", "minzoom": 2, "maxzoom": 8 }, "properties": { "halo": 0.8, "title": "古爱沙尼亚人", "fontsize": 12, "tyid": "304001", "oid": "103:1555587280173", "color": "#262626" }, "geometry": { "type": "Point", "coordinates": [ 25.576172, 58.995311 ] } }
{"year": "BC570",  "type": "Feature", "tippecanoe": { "layer": "2AFCA05307481583919000300", "minzoom": 2, "maxzoom": 8 }, "properties": { "halo": 0.8, "title": "利沃尼亚人", "fontsize": 12, "tyid": "304001", "oid": "103:1555587279925", "color": "#262626" }, "geometry": { "type": "Point", "coordinates": [ 26.279297, 57.231503 ] } }
{"year": "BC570",  "type": "Feature", "tippecanoe": { "layer": "2AFCA05307481583919000300", "minzoom": 2, "maxzoom": 8 }, "properties": { "halo": 0.8, "title": "沃茨人", "fontsize": 12, "tyid": "304001", "oid": "103:1555587279609", "color": "#262626" }, "geometry": { "type": "Point", "coordinates": [ 29.794922, 59.040555 ] } }
{"year": "BC570",  "type": "Feature", "tippecanoe": { "layer": "2AFCA05307481583919000300", "minzoom": 2, "maxzoom": 8 }, "properties": { "halo": 0.8, "title": "卡累利阿文化", "fontsize": 12, "tyid": "304002", "oid": "103:1555587279648", "color": "#262626" }, "geometry": { "type": "Point", "coordinates": [ 34.189453, 62.835089 ] } }
{"year": "BC570",  "type": "Feature", "tippecanoe": { "layer": "2AFCA05307481583919000300", "minzoom": 2, "maxzoom": 8 }, "properties": { "halo": 0.8, "title": "阴影陶文化", "fontsize": 12, "tyid": "304002", "oid": "103:1555587279425", "color": "#262626" }, "geometry": { "type": "Point", "coordinates": [ 24.785156, 55.627996 ] } }
{"year": "BC570",  "type": "Feature", "tippecanoe": { "layer": "2AFCA05307481583919000300", "minzoom": 2, "maxzoom": 8 }, "properties": { "halo": 0.8, "title": "盖塔人", "fontsize": 12, "tyid": "304001", "oid": "103:1555587279688", "color": "#262626" }, "geometry": { "type": "Point", "coordinates": [ 27.246094, 44.213710 ] } }
{"year": "BC570",  "type": "Feature", "tippecanoe": { "layer": "2AFCA05307481583919000300", "minzoom": 2, "maxzoom": 8 }, "properties": { "halo": 0.8, "title": "色雷斯人", "fontsize": 12, "tyid": "304001", "oid": "103:1555587279657", "color": "#262626" }, "geometry": { "type": "Point", "coordinates": [ 25.664062, 42.293564 ] } }
{"year": "BC570",  "type": "Feature", "tippecanoe": { "layer": "2AFCA05307481583919000300", "minzoom": 2, "maxzoom": 8 }, "properties": { "halo": 0.8, "title": "上奥卡文化", "fontsize": 12, "tyid": "304002", "oid": "103:1555587279431", "color": "#262626" }, "geometry": { "type": "Point", "coordinates": [ 37.177734, 53.278353 ] } }
{"year": "BC570",  "type": "Feature", "tippecanoe": { "layer": "2AFCA05307481583919000300", "minzoom": 2, "maxzoom": 8 }, "properties": { "halo": 0.8, "title": "梅田人", "fontsize": 12, "tyid": "304001", "oid": "103:1555587279769", "color": "#262626" }, "geometry": { "type": "Point", "coordinates": [ 39.023438, 46.073231 ] } }
{"year": "BC570",  "type": "Feature", "tippecanoe": { "layer": "2AFCA05307481583919000300", "minzoom": 2, "maxzoom": 8 }, "properties": { "halo": 0.8, "title": "辛迪人", "fontsize": 12, "tyid": "304001", "oid": "103:1555587280202", "color": "#262626" }, "geometry": { "type": "Point", "coordinates": [ 38.408203, 44.777936 ] } }
{"year": "BC570",  "type": "Feature", "tippecanoe": { "layer": "2AFCA05307481583919000300", "minzoom": 2, "maxzoom": 8 }, "properties": { "halo": 0.8, "title": "科尔基斯王国", "fontsize": 12, "tyid": "304000", "oid": "103:1555587279804", "color": "#202020" }, "geometry": { "type": "Point", "coordinates": [ 42.539062, 42.228517 ] } }
{"year": "BC570",  "type": "Feature", "tippecanoe": { "layer": "2AFCA05307481583919000300", "minzoom": 2, "maxzoom": 8 }, "properties": { "halo": 0.8, "title": "迦太基帝国", "fontsize": 12, "tyid": "304000", "oid": "103:1555587280312", "color": "#202020" }, "geometry": { "type": "Point", "coordinates": [ 9.316406, 36.244273 ] } }
{"year": "BC570",  "type": "Feature", "tippecanoe": { "layer": "2AFCA05307481583919000300", "minzoom": 2, "maxzoom": 8 }, "properties": { "halo": 0.8, "title": "奥尼诺特里人", "fontsize": 12, "tyid": "304001", "oid": "103:1555587279903", "color": "#262626" }, "geometry": { "type": "Point", "coordinates": [ 16.083984, 39.707187 ] } }
{"year": "BC570",  "type": "Feature", "tippecanoe": { "layer": "2AFCA05307481583919000300", "minzoom": 2, "maxzoom": 8 }, "properties": { "halo": 0.8, "title": "马其顿王国", "fontsize": 12, "tyid": "304000", "oid": "103:1555587279997", "color": "#202020" }, "geometry": { "type": "Point", "coordinates": [ 22.148438, 40.713956 ] } }
{"year": "BC570",  "type": "Feature", "tippecanoe": { "layer": "2AFCA05307481583919000300", "minzoom": 2, "maxzoom": 8 }, "properties": { "halo": 0.8, "title": "爱奥尼亚人", "fontsize": 12, "tyid": "304001", "oid": "103:1555587280218", "color": "#262626" }, "geometry": { "type": "Point", "coordinates": [ 22.060547, 39.164141 ] } }
{"year": "BC570",  "type": "Feature", "tippecanoe": { "layer": "2AFCA05307481583919000300", "minzoom": 2, "maxzoom": 8 }, "properties": { "halo": 0.8, "title": "约鲁巴人", "fontsize": 12, "tyid": "304001", "oid": "103:1555587279826", "color": "#262626" }, "geometry": { "type": "Point", "coordinates": [ 3.427734, 7.536764 ] } }
{"year": "BC570",  "type": "Feature", "tippecanoe": { "layer": "2AFCA05307481583919000300", "minzoom": 2, "maxzoom": 8 }, "properties": { "halo": 0.8, "title": "伊博人", "fontsize": 12, "tyid": "304001", "oid": "103:1555587280055", "color": "#262626" }, "geometry": { "type": "Point", "coordinates": [ 8.173828, 5.878332 ] } }
{"year": "BC570",  "type": "Feature", "tippecanoe": { "layer": "2AFCA05307481583919000300", "minzoom": 2, "maxzoom": 8 }, "properties": { "halo": 0.8, "title": "庞蒂克希腊人", "fontsize": 12, "tyid": "304001", "oid": "103:1555587279979", "color": "#262626" }, "geometry": { "type": "Point", "coordinates": [ 37.001953, 40.913513 ] } }
{"year": "BC570",  "type": "Feature", "tippecanoe": { "layer": "2AFCA05307481583919000300", "minzoom": 2, "maxzoom": 8 }, "properties": { "halo": 0.8, "title": "奥罗尼王朝", "fontsize": 12, "tyid": "304000", "oid": "103:1555587279703", "color": "#202020" }, "geometry": { "type": "Point", "coordinates": [ 43.066406, 40.111689 ] } }
{"year": "BC570",  "type": "Feature", "tippecanoe": { "layer": "2AFCA05307481583919000300", "minzoom": 2, "maxzoom": 8 }, "properties": { "halo": 0.8, "title": "布雷米耶国", "fontsize": 12, "tyid": "304001", "oid": "103:1555587279250", "color": "#262626" }, "geometry": { "type": "Point", "coordinates": [ 34.628906, 22.105999 ] } }
{"year": "BC570",  "type": "Feature", "tippecanoe": { "layer": "2AFCA05307481583919000300", "minzoom": 2, "maxzoom": 8 }, "properties": { "halo": 0.8, "title": "达姆特王国", "fontsize": 12, "tyid": "304000", "oid": "103:1555587280096", "color": "#202020" }, "geometry": { "type": "Point", "coordinates": [ 38.671875, 15.368950 ] } }
{"year": "BC570",  "type": "Feature", "tippecanoe": { "layer": "2AFCA05307481583919000300", "minzoom": 2, "maxzoom": 8 }, "properties": { "halo": 0.8, "title": "迈因王国", "fontsize": 12, "tyid": "304000", "oid": "103:1555587279538", "color": "#202020" }, "geometry": { "type": "Point", "coordinates": [ 44.824219, 16.299051 ] } }
{"year": "BC570",  "type": "Feature", "tippecanoe": { "layer": "2AFCA05307481583919000300", "minzoom": 2, "maxzoom": 8 }, "properties": { "halo": 0.8, "title": "塞巴王国", "fontsize": 12, "tyid": "304000", "oid": "103:1555587280076", "color": "#202020" }, "geometry": { "type": "Point", "coordinates": [ 44.208984, 14.604847 ] } }
{"year": "BC570",  "type": "Feature", "tippecanoe": { "layer": "2AFCA05307481583919000300", "minzoom": 2, "maxzoom": 8 }, "properties": { "halo": 0.8, "title": "巴泽雷克文化", "fontsize": 12, "tyid": "304002", "oid": "103:1555587279245", "color": "#262626" }, "geometry": { "type": "Point", "coordinates": [ 86.923828, 50.513427 ] } }
{"year": "BC570",  "type": "Feature", "tippecanoe": { "layer": "2AFCA05307481583919000300", "minzoom": 2, "maxzoom": 8 }, "properties": { "halo": 0.8, "title": "索墩布拉克文化", "fontsize": 12, "tyid": "304002", "oid": "103:1555587279234", "color": "#262626" }, "geometry": { "type": "Point", "coordinates": [ 81.738281, 43.325178 ] } }
{"year": "BC570",  "type": "Feature", "tippecanoe": { "layer": "2AFCA05307481583919000300", "minzoom": 2, "maxzoom": 8 }, "properties": { "halo": 0.8, "title": "苏贝希文化", "fontsize": 12, "tyid": "304002", "oid": "103:1555587279390", "color": "#262626" }, "geometry": { "type": "Point", "coordinates": [ 88.505859, 43.644026 ] } }
{"year": "BC570",  "type": "Feature", "tippecanoe": { "layer": "2AFCA05307481583919000300", "minzoom": 2, "maxzoom": 8 }, "properties": { "halo": 0.8, "title": "高加索阿尔巴尼亚人", "fontsize": 12, "tyid": "304001", "oid": "103:1555587279564", "color": "#262626" }, "geometry": { "type": "Point", "coordinates": [ 47.109375, 40.713956 ] } }
{"year": "BC570",  "type": "Feature", "tippecanoe": { "layer": "2AFCA05307481583919000300", "minzoom": 2, "maxzoom": 8 }, "properties": { "halo": 0.8, "title": "里海人", "fontsize": 12, "tyid": "304001", "oid": "103:1555587279358", "color": "#262626" }, "geometry": { "type": "Point", "coordinates": [ 48.427734, 39.027719 ] } }
{"year": "BC570",  "type": "Feature", "tippecanoe": { "layer": "2AFCA05307481583919000300", "minzoom": 2, "maxzoom": 8 }, "properties": { "halo": 0.8, "title": "大益人", "fontsize": 12, "tyid": "304001", "oid": "103:1555587279920", "color": "#262626" }, "geometry": { "type": "Point", "coordinates": [ 55.107422, 40.446947 ] } }
{"year": "BC570",  "type": "Feature", "tippecanoe": { "layer": "2AFCA05307481583919000300", "minzoom": 2, "maxzoom": 8 }, "properties": { "halo": 0.8, "title": "阿契美尼德王国", "fontsize": 12, "tyid": "304000", "oid": "103:1568109437162", "color": "#202020" }, "geometry": { "type": "Point", "coordinates": [ 52.646484, 29.535230 ] } }
{"year": "BC570",  "type": "Feature", "tippecanoe": { "layer": "2AFCA05307481583919000300", "minzoom": 2, "maxzoom": 8 }, "properties": { "halo": 0.8, "title": "马干", "fontsize": 12, "tyid": "304002", "oid": "103:1555587279626", "color": "#262626" }, "geometry": { "type": "Point", "coordinates": [ 57.480469, 23.241346 ] } }
{"year": "BC570",  "type": "Feature", "tippecanoe": { "layer": "2AFCA05307481583919000300", "minzoom": 2, "maxzoom": 8 },