{ "type": "Feature", "tippecanoe": { "layer": "2AFCA6F4F0481583918013674", "minzoom": 2, "maxzoom": 8 }, "properties": { "halo": 0.8, "title": "古白令海文化", "fontsize": 12, "tyid": "304002", "oid": "103:1576575182272", "color": "#262626" }, "geometry": { "type": "Point", "coordinates": [ -170.332031, 63.470145 ] } }
{ "type": "Feature", "tippecanoe": { "layer": "2AFCA6F4F0481583918013674", "minzoom": 2, "maxzoom": 8 }, "properties": { "halo": 0.8, "title": "查普卡洛文化", "fontsize": 12, "tyid": "304002", "oid": "103:1576575182356", "color": "#262626" }, "geometry": { "type": "Point", "coordinates": [ -99.931641, 20.303418 ] } }
{ "type": "Feature", "tippecanoe": { "layer": "2AFCA6F4F0481583918013674", "minzoom": 2, "maxzoom": 8 }, "properties": { "halo": 0.8, "title": "特奥蒂瓦坎", "fontsize": 12, "tyid": "304002", "oid": "103:1576575182309", "color": "#262626" }, "geometry": { "type": "Point", "coordinates": [ -99.404297, 19.808054 ] } }
{ "type": "Feature", "tippecanoe": { "layer": "2AFCA6F4F0481583918013674", "minzoom": 2, "maxzoom": 8 }, "properties": { "halo": 0.8, "title": "米斯特克人", "fontsize": 12, "tyid": "304001", "oid": "103:1576575182318", "color": "#262626" }, "geometry": { "type": "Point", "coordinates": [ -98.349609, 17.224758 ] } }
{ "type": "Feature", "tippecanoe": { "layer": "2AFCA6F4F0481583918013674", "minzoom": 2, "maxzoom": 8 }, "properties": { "halo": 0.8, "title": "特里克人", "fontsize": 12, "tyid": "304001", "oid": "103:1576575182361", "color": "#262626" }, "geometry": { "type": "Point", "coordinates": [ -97.294922, 17.644022 ] } }
{ "type": "Feature", "tippecanoe": { "layer": "2AFCA6F4F0481583918013674", "minzoom": 2, "maxzoom": 8 }, "properties": { "halo": 0.8, "title": "洛瓦贾达斯文化", "fontsize": 12, "tyid": "304002", "oid": "103:1576575182213", "color": "#262626" }, "geometry": { "type": "Point", "coordinates": [ -96.416016, 19.145168 ] } }
{ "type": "Feature", "tippecanoe": { "layer": "2AFCA6F4F0481583918013674", "minzoom": 2, "maxzoom": 8 }, "properties": { "halo": 0.8, "title": "麦克斯人", "fontsize": 12, "tyid": "304001", "oid": "103:1576575182366", "color": "#262626" }, "geometry": { "type": "Point", "coordinates": [ -96.328125, 18.062312 ] } }
{ "type": "Feature", "tippecanoe": { "layer": "2AFCA6F4F0481583918013674", "minzoom": 2, "maxzoom": 8 }, "properties": { "halo": 0.8, "title": "后奥尔梅克文化", "fontsize": 12, "tyid": "304002", "oid": "103:1576575182025", "color": "#262626" }, "geometry": { "type": "Point", "coordinates": [ -95.625000, 18.479609 ] } }
{ "type": "Feature", "tippecanoe": { "layer": "2AFCA6F4F0481583918013674", "minzoom": 2, "maxzoom": 8 }, "properties": { "halo": 0.8, "title": "佐齐尔人", "fontsize": 12, "tyid": "304001", "oid": "103:1576575182245", "color": "#262626" }, "geometry": { "type": "Point", "coordinates": [ -93.339844, 16.551962 ] } }
{ "type": "Feature", "tippecanoe": { "layer": "2AFCA6F4F0481583918013674", "minzoom": 2, "maxzoom": 8 }, "properties": { "halo": 0.8, "title": "祖赫人", "fontsize": 12, "tyid": "304001", "oid": "103:1576575182105", "color": "#262626" }, "geometry": { "type": "Point", "coordinates": [ -92.109375, 16.045813 ] } }
{ "type": "Feature", "tippecanoe": { "layer": "2AFCA6F4F0481583918013674", "minzoom": 2, "maxzoom": 8 }, "properties": { "halo": 0.8, "title": "基切人", "fontsize": 12, "tyid": "304001", "oid": "103:1576575182347", "color": "#262626" }, "geometry": { "type": "Point", "coordinates": [ -90.966797, 15.029686 ] } }
{ "type": "Feature", "tippecanoe": { "layer": "2AFCA6F4F0481583918013674", "minzoom": 2, "maxzoom": 8 }, "properties": { "halo": 0.8, "title": "阿尔托山文化", "fontsize": 12, "tyid": "304002", "oid": "103:1576575182142", "color": "#262626" }, "geometry": { "type": "Point", "coordinates": [ -91.054688, 14.349548 ] } }
{ "type": "Feature", "tippecanoe": { "layer": "2AFCA6F4F0481583918013674", "minzoom": 2, "maxzoom": 8 }, "properties": { "halo": 0.8, "title": "玛纳索塔文化", "fontsize": 12, "tyid": "304002", "oid": "103:1576575182257", "color": "#262626" }, "geometry": { "type": "Point", "coordinates": [ -82.441406, 27.683528 ] } }
{ "type": "Feature", "tippecanoe": { "layer": "2AFCA6F4F0481583918013674", "minzoom": 2, "maxzoom": 8 }, "properties": { "halo": 0.8, "title": "卡卢萨人", "fontsize": 12, "tyid": "304001", "oid": "103:1576575182256", "color": "#262626" }, "geometry": { "type": "Point", "coordinates": [ -81.650391, 27.137368 ] } }
{ "type": "Feature", "tippecanoe": { "layer": "2AFCA6F4F0481583918013674", "minzoom": 2, "maxzoom": 8 }, "properties": { "halo": 0.8, "title": "圣约翰文化", "fontsize": 12, "tyid": "304002", "oid": "103:1576575182052", "color": "#262626" }, "geometry": { "type": "Point", "coordinates": [ -81.474609, 29.382175 ] } }
{ "type": "Feature", "tippecanoe": { "layer": "2AFCA6F4F0481583918013674", "minzoom": 2, "maxzoom": 8 }, "properties": { "halo": 0.8, "title": "贝尔格莱德文化", "fontsize": 12, "tyid": "304002", "oid": "103:1576575182381", "color": "#262626" }, "geometry": { "type": "Point", "coordinates": [ -80.859375, 27.449790 ] } }
{ "type": "Feature", "tippecanoe": { "layer": "2AFCA6F4F0481583918013674", "minzoom": 2, "maxzoom": 8 }, "properties": { "halo": 0.8, "title": "格莱兹文化", "fontsize": 12, "tyid": "304002", "oid": "103:1576575182154", "color": "#262626" }, "geometry": { "type": "Point", "coordinates": [ -80.771484, 26.037042 ] } }
{ "type": "Feature", "tippecanoe": { "layer": "2AFCA6F4F0481583918013674", "minzoom": 2, "maxzoom": 8 }, "properties": { "halo": 0.8, "title": "德贵斯塔族", "fontsize": 12, "tyid": "304001", "oid": "103:1576575182336", "color": "#262626" }, "geometry": { "type": "Point", "coordinates": [ -80.244141, 25.878994 ] } }
{ "type": "Feature", "tippecanoe": { "layer": "2AFCA6F4F0481583918013674", "minzoom": 2, "maxzoom": 8 }, "properties": { "halo": 0.8, "title": "雷卡人", "fontsize": 12, "tyid": "304001", "oid": "103:1576575182312", "color": "#262626" }, "geometry": { "type": "Point", "coordinates": [ -87.802734, 13.752725 ] } }
{ "type": "Feature", "tippecanoe": { "layer": "2AFCA6F4F0481583918013674", "minzoom": 2, "maxzoom": 8 }, "properties": { "halo": 0.8, "title": "格兰科克勒文化", "fontsize": 12, "tyid": "304002", "oid": "103:1576575181942", "color": "#262626" }, "geometry": { "type": "Point", "coordinates": [ -80.507812, 8.581021 ] } }
{ "type": "Feature", "tippecanoe": { "layer": "2AFCA6F4F0481583918013674", "minzoom": 2, "maxzoom": 8 }, "properties": { "halo": 0.8, "title": "泰罗纳", "fontsize": 12, "tyid": "304000", "oid": "103:1576575182278", "color": "#202020" }, "geometry": { "type": "Point", "coordinates": [ -73.564453, 10.833306 ] } }
{ "type": "Feature", "tippecanoe": { "layer": "2AFCA6F4F0481583918013674", "minzoom": 2, "maxzoom": 8 }, "properties": { "halo": 0.8, "title": "卡利玛文化", "fontsize": 12, "tyid": "304002", "oid": "103:1576575182260", "color": "#262626" }, "geometry": { "type": "Point", "coordinates": [ -76.728516, 4.214943 ] } }
{ "type": "Feature", "tippecanoe": { "layer": "2AFCA6F4F0481583918013674", "minzoom": 2, "maxzoom": 8 }, "properties": { "halo": 0.8, "title": "马拉加纳文化", "fontsize": 12, "tyid": "304002", "oid": "103:1576575182018", "color": "#262626" }, "geometry": { "type": "Point", "coordinates": [ -76.289062, 3.425692 ] } }
{ "type": "Feature", "tippecanoe": { "layer": "2AFCA6F4F0481583918013674", "minzoom": 2, "maxzoom": 8 }, "properties": { "halo": 0.8, "title": "昆巴雅文明", "fontsize": 12, "tyid": "304002", "oid": "103:1576575182215", "color": "#262626" }, "geometry": { "type": "Point", "coordinates": [ -75.761719, 5.090944 ] } }
{ "type": "Feature", "tippecanoe": { "layer": "2AFCA6F4F0481583918013674", "minzoom": 2, "maxzoom": 8 }, "properties": { "halo": 0.8, "title": "科罗索文化", "fontsize": 12, "tyid": "304002", "oid": "103:1576575182174", "color": "#262626" }, "geometry": { "type": "Point", "coordinates": [ -66.533203, 18.229351 ] } }
{ "type": "Feature", "tippecanoe": { "layer": "2AFCA6F4F0481583918013674", "minzoom": 2, "maxzoom": 8 }, "properties": { "halo": 0.8, "title": "大庄园文化", "fontsize": 12, "tyid": "304002", "oid": "103:1576575182310", "color": "#262626" }, "geometry": { "type": "Point", "coordinates": [ -65.917969, 18.396230 ] } }
{ "type": "Feature", "tippecanoe": { "layer": "2AFCA6F4F0481583918013674", "minzoom": 2, "maxzoom": 8 }, "properties": { "halo": 0.8, "title": "萨拉杜文化", "fontsize": 12, "tyid": "304002", "oid": "103:1576575182513", "color": "#262626" }, "geometry": { "type": "Point", "coordinates": [ -61.699219, 16.214675 ] } }
{ "type": "Feature", "tippecanoe": { "layer": "2AFCA6F4F0481583918013674", "minzoom": 2, "maxzoom": 8 }, "properties": { "halo": 0.8, "title": "乌讷利人", "fontsize": 12, "tyid": "304001", "oid": "103:1576575182454", "color": "#262626" }, "geometry": { "type": "Point", "coordinates": [ -1.494141, 49.325122 ] } }
{ "type": "Feature", "tippecanoe": { "layer": "2AFCA6F4F0481583918013674", "minzoom": 2, "maxzoom": 8 }, "properties": { "halo": 0.8, "title": "拜奥卡斯人", "fontsize": 12, "tyid": "304001", "oid": "103:1576575182069", "color": "#262626" }, "geometry": { "type": "Point", "coordinates": [ -0.791016, 49.152970 ] } }
{ "type": "Feature", "tippecanoe": { "layer": "2AFCA6F4F0481583918013674", "minzoom": 2, "maxzoom": 8 }, "properties": { "halo": 0.8, "title": "维杜卡斯人", "fontsize": 12, "tyid": "304001", "oid": "103:1576575182058", "color": "#262626" }, "geometry": { "type": "Point", "coordinates": [ -0.175781, 48.980217 ] } }
{ "type": "Feature", "tippecanoe": { "layer": "2AFCA6F4F0481583918013674", "minzoom": 2, "maxzoom": 8 }, "properties": { "halo": 0.8, "title": "阿斯图尔人", "fontsize": 12, "tyid": "304001", "oid": "103:1576575182370", "color": "#262626" }, "geometry": { "type": "Point", "coordinates": [ -6.328125, 43.261206 ] } }
{ "type": "Feature", "tippecanoe": { "layer": "2AFCA6F4F0481583918013674", "minzoom": 2, "maxzoom": 8 }, "properties": { "halo": 0.8, "title": "奥斯米人", "fontsize": 12, "tyid": "304001", "oid": "103:1576575182436", "color": "#262626" }, "geometry": { "type": "Point", "coordinates": [ -4.042969, 48.341646 ] } }
{ "type": "Feature", "tippecanoe": { "layer": "2AFCA6F4F0481583918013674", "minzoom": 2, "maxzoom": 8 }, "properties": { "halo": 0.8, "title": "威尼蒂人[布列塔尼]", "fontsize": 12, "tyid": "304001", "oid": "103:1576575181900", "color": "#262626" }, "geometry": { "type": "Point", "coordinates": [ -2.900391, 47.931066 ] } }
{ "type": "Feature", "tippecanoe": { "layer": "2AFCA6F4F0481583918013674", "minzoom": 2, "maxzoom": 8 }, "properties": { "halo": 0.8, "title": "科里约索利特人", "fontsize": 12, "tyid": "304001", "oid": "103:1576575182128", "color": "#262626" }, "geometry": { "type": "Point", "coordinates": [ -2.636719, 48.400032 ] } }
{ "type": "Feature", "tippecanoe": { "layer": "2AFCA6F4F0481583918013674", "minzoom": 2, "maxzoom": 8 }, "properties": { "halo": 0.8, "title": "锡耶东人", "fontsize": 12, "tyid": "304001", "oid": "103:1576575182372", "color": "#262626" }, "geometry": { "type": "Point", "coordinates": [ -1.582031, 48.224673 ] } }
{ "type": "Feature", "tippecanoe": { "layer": "2AFCA6F4F0481583918013674", "minzoom": 2, "maxzoom": 8 }, "properties": { "halo": 0.8, "title": "朗内特人", "fontsize": 12, "tyid": "304001", "oid": "103:1576575182164", "color": "#262626" }, "geometry": { "type": "Point", "coordinates": [ -1.757812, 47.517201 ] } }
{ "type": "Feature", "tippecanoe": { "layer": "2AFCA6F4F0481583918013674", "minzoom": 2, "maxzoom": 8 }, "properties": { "halo": 0.8, "title": "阿布里加图人", "fontsize": 12, "tyid": "304001", "oid": "103:1576575181933", "color": "#262626" }, "geometry": { "type": "Point", "coordinates": [ -1.230469, 48.690960 ] } }
{ "type": "Feature", "tippecanoe": { "layer": "2AFCA6F4F0481583918013674", "minzoom": 2, "maxzoom": 8 }, "properties": { "halo": 0.8, "title": "加布兰特人", "fontsize": 12, "tyid": "304001", "oid": "103:1576575182121", "color": "#262626" }, "geometry": { "type": "Point", "coordinates": [ -0.703125, 48.166085 ] } }
{ "type": "Feature", "tippecanoe": { "layer": "2AFCA6F4F0481583918013674", "minzoom": 2, "maxzoom": 8 }, "properties": { "halo": 0.8, "title": "昂德卡维人", "fontsize": 12, "tyid": "304001", "oid": "103:1576575182043", "color": "#262626" }, "geometry": { "type": "Point", "coordinates": [ -0.703125, 47.635784 ] } }
{ "type": "Feature", "tippecanoe": { "layer": "2AFCA6F4F0481583918013674", "minzoom": 2, "maxzoom": 8 }, "properties": { "halo": 0.8, "title": "圣托讷人", "fontsize": 12, "tyid": "304001", "oid": "103:1576575182161", "color": "#262626" }, "geometry": { "type": "Point", "coordinates": [ -0.263672, 45.828799 ] } }
{ "type": "Feature", "tippecanoe": { "layer": "2AFCA6F4F0481583918013674", "minzoom": 2, "maxzoom": 8 }, "properties": { "halo": 0.8, "title": "坎塔布里人", "fontsize": 12, "tyid": "304001", "oid": "103:1576575182229", "color": "#262626" }, "geometry": { "type": "Point", "coordinates": [ -4.394531, 43.197167 ] } }
{ "type": "Feature", "tippecanoe": { "layer": "2AFCA6F4F0481583918013674", "minzoom": 2, "maxzoom": 8 }, "properties": { "halo": 0.8, "title": "关切人", "fontsize": 12, "tyid": "304001", "oid": "103:1576575182035", "color": "#262626" }, "geometry": { "type": "Point", "coordinates": [ -16.611328, 28.304381 ] } }
{ "type": "Feature", "tippecanoe": { "layer": "2AFCA6F4F0481583918013674", "minzoom": 2, "maxzoom": 8 }, "properties": { "halo": 0.8, "title": "后迦太基人控制区", "fontsize": 12, "tyid": "304002", "oid": "103:1576575182522", "color": "#262626" }, "geometry": { "type": "Point", "coordinates": [ -5.888672, 35.389050 ] } }
{ "type": "Feature", "tippecanoe": { "layer": "2AFCA6F4F0481583918013674", "minzoom": 2, "maxzoom": 8 }, "properties": { "halo": 0.8, "title": "瓜纳加拉文化", "fontsize": 12, "tyid": "304002", "oid": "103:1576575182451", "color": "#262626" }, "geometry": { "type": "Point", "coordinates": [ -80.595703, -1.669686 ] } }
{ "type": "Feature", "tippecanoe": { "layer": "2AFCA6F4F0481583918013674", "minzoom": 2, "maxzoom": 8 }, "properties": { "halo": 0.8, "title": "巴伊亚文化", "fontsize": 12, "tyid": "304002", "oid": "103:1576575182455", "color": "#262626" }, "geometry": { "type": "Point", "coordinates": [ -80.068359, -0.527336 ] } }
{ "type": "Feature", "tippecanoe": { "layer": "2AFCA6F4F0481583918013674", "minzoom": 2, "maxzoom": 8 }, "properties": { "halo": 0.8, "title": "维克斯文化", "fontsize": 12, "tyid": "304002", "oid": "103:1576575182216", "color": "#262626" }, "geometry": { "type": "Point", "coordinates": [ -80.419922, -5.878332 ] } }
{ "type": "Feature", "tippecanoe": { "layer": "2AFCA6F4F0481583918013674", "minzoom": 2, "maxzoom": 8 }, "properties": { "halo": 0.8, "title": "萨利纳尔文化", "fontsize": 12, "tyid": "304002", "oid": "103:1576575182479", "color": "#262626" }, "geometry": { "type": "Point", "coordinates": [ -78.925781, -7.885147 ] } }
{ "type": "Feature", "tippecanoe": { "layer": "2AFCA6F4F0481583918013674", "minzoom": 2, "maxzoom": 8 }, "properties": { "halo": 0.8, "title": "维鲁文化", "fontsize": 12, "tyid": "304002", "oid": "103:1576575182457", "color": "#262626" }, "geometry": { "type": "Point", "coordinates": [ -78.837891, -8.320212 ] } }
{ "type": "Feature", "tippecanoe": { "layer": "2AFCA6F4F0481583918013674", "minzoom": 2, "maxzoom": 8 }, "properties": { "halo": 0.8, "title": "瑞克文化", "fontsize": 12, "tyid": "304002", "oid": "103:1576575182091", "color": "#262626" }, "geometry": { "type": "Point", "coordinates": [ -77.607422, -9.622414 ] } }
{ "type": "Feature", "tippecanoe": { "layer": "2AFCA6F4F0481583918013674", "minzoom": 2, "maxzoom": 8 }, "properties": { "halo": 0.8, "title": "加伊纳索文化", "fontsize": 12, "tyid": "304002", "oid": "103:1576575182275", "color": "#262626" }, "geometry": { "type": "Point", "coordinates": [ -77.080078, -11.092166 ] } }
{ "type": "Feature", "tippecanoe": { "layer": "2AFCA6F4F0481583918013674", "minzoom": 2, "maxzoom": 8 }, "properties": { "halo": 0.8, "title": "托帕拉文化", "fontsize": 12, "tyid": "304002", "oid": "103:1576575182237", "color": "#262626" }, "geometry": { "type": "Point", "coordinates": [ -75.937500, -13.667338 ] } }
{ "type": "Feature", "tippecanoe": { "layer": "2AFCA6F4F0481583918013674", "minzoom": 2, "maxzoom": 8 }, "properties": { "halo": 0.8, "title": "华帕文化", "fontsize": 12, "tyid": "304002", "oid": "103:1576575182183", "color": "#262626" }, "geometry": { "type": "Point", "coordinates": [ -74.179688, -13.581921 ] } }
{ "type": "Feature", "tippecanoe": { "layer": "2AFCA6F4F0481583918013674", "minzoom": 2, "maxzoom": 8 }, "properties": { "halo": 0.8, "title": "纳斯卡文化", "fontsize": 12, "tyid": "304002", "oid": "103:1576575182217", "color": "#262626" }, "geometry": { "type": "Point", "coordinates": [ -75.058594, -14.944785 ] } }
{ "type": "Feature", "tippecanoe": { "layer": "2AFCA6F4F0481583918013674", "minzoom": 2, "maxzoom": 8 }, "properties": { "halo": 0.8, "title": "普加拉文化", "fontsize": 12, "tyid": "304002", "oid": "103:1576575182192", "color": "#262626" }, "geometry": { "type": "Point", "coordinates": [ -69.697266, -13.838080 ] } }
{ "type": "Feature", "tippecanoe": { "layer": "2AFCA6F4F0481583918013674", "minzoom": 2, "maxzoom": 8 }, "properties": { "halo": 0.8, "title": "塔夫文化", "fontsize": 12, "tyid": "304002", "oid": "103:1576575182300", "color": "#262626" }, "geometry": { "type": "Point", "coordinates": [ -65.654297, -26.980829 ] } }
{ "type": "Feature", "tippecanoe": { "layer": "2AFCA6F4F0481583918013674", "minzoom": 2, "maxzoom": 8 }, "properties": { "halo": 0.8, "title": "豪什人", "fontsize": 12, "tyid": "304001", "oid": "103:1576575181905", "color": "#262626" }, "geometry": { "type": "Point", "coordinates": [ -65.917969, -54.724620 ] } }
{ "type": "Feature", "tippecanoe": { "layer": "2AFCA6F4F0481583918013674", "minzoom": 2, "maxzoom": 8 }, "properties": { "halo": 0.8, "title": "哥得兰人", "fontsize": 12, "tyid": "304001", "oid": "103:1576575182011", "color": "#262626" }, "geometry": { "type": "Point", "coordinates": [ 18.457031, 57.515823 ] } }
{ "type": "Feature", "tippecanoe": { "layer": "2AFCA6F4F0481583918013674", "minzoom": 2, "maxzoom": 8 }, "properties": { "halo": 0.8, "title": "莱科索维人", "fontsize": 12, "tyid": "304001", "oid": "103:1576575182088", "color": "#262626" }, "geometry": { "type": "Point", "coordinates": [ 0.263672, 49.325122 ] } }
{ "type": "Feature", "tippecanoe": { "layer": "2AFCA6F4F0481583918013674", "minzoom": 2, "maxzoom": 8 }, "properties": { "halo": 0.8, "title": "卡莱特人", "fontsize": 12, "tyid": "304001", "oid": "103:1576575182205", "color": "#262626" }, "geometry": { "type": "Point", "coordinates": [ 0.966797, 49.724479 ] } }
{ "type": "Feature", "tippecanoe": { "layer": "2AFCA6F4F0481583918013674", "minzoom": 2, "maxzoom": 8 }, "properties": { "halo": 0.8, "title": "爱布洛维斯人", "fontsize": 12, "tyid": "304001", "oid": "103:1576575182399", "color": "#262626" }, "geometry": { "type": "Point", "coordinates": [ 0.878906, 49.095452 ] } }
{ "type": "Feature", "tippecanoe": { "layer": "2AFCA6F4F0481583918013674", "minzoom": 2, "maxzoom": 8 }, "properties": { "halo": 0.8, "title": "查蒂人", "fontsize": 12, "tyid": "304001", "oid": "103:1576575181994", "color": "#262626" }, "geometry": { "type": "Point", "coordinates": [ 9.755859, 51.618017 ] } }
{ "type": "Feature", "tippecanoe": { "layer": "2AFCA6F4F0481583918013674", "minzoom": 2, "maxzoom": 8 }, "properties": { "halo": 0.8, "title": "爱苏威人", "fontsize": 12, "tyid": "304001", "oid": "103:1576575182208", "color": "#262626" }, "geometry": { "type": "Point", "coordinates": [ 0.351562, 48.690960 ] } }
{ "type": "Feature", "tippecanoe": { "layer": "2AFCA6F4F0481583918013674", "minzoom": 2, "maxzoom": 8 }, "properties": { "halo": 0.8, "title": "赛诺玛尼人", "fontsize": 12, "tyid": "304001", "oid": "103:1576575182349", "color": "#262626" }, "geometry": { "type": "Point", "coordinates": [ 0.175781, 47.989922 ] } }
{ "type": "Feature", "tippecanoe": { "layer": "2AFCA6F4F0481583918013674", "minzoom": 2, "maxzoom": 8 }, "properties": { "halo": 0.8, "title": "图龙人", "fontsize": 12, "tyid": "304001", "oid": "103:1576575181984", "color": "#262626" }, "geometry": { "type": "Point", "coordinates": [ 0.703125, 47.279229 ] } }
{ "type": "Feature", "tippecanoe": { "layer": "2AFCA6F4F0481583918013674", "minzoom": 2, "maxzoom": 8 }, "properties": { "halo": 0.8, "title": "卡尔纽特人", "fontsize": 12, "tyid": "304001", "oid": "103:1576575182294", "color": "#262626" }, "geometry": { "type": "Point", "coordinates": [ 1.494141, 48.048710 ] } }
{ "type": "Feature", "tippecanoe": { "layer": "2AFCA6F4F0481583918013674", "minzoom": 2, "maxzoom": 8 }, "properties": { "halo": 0.8, "title": "巴黎人", "fontsize": 12, "tyid": "304001", "oid": "103:1576575182435", "color": "#262626" }, "geometry": { "type": "Point", "coordinates": [ 2.109375, 48.748945 ] } }
{ "type": "Feature", "tippecanoe": { "layer": "2AFCA6F4F0481583918013674", "minzoom": 2, "maxzoom": 8 }, "properties": { "halo": 0.8, "title": "佩特罗科里人", "fontsize": 12, "tyid": "304001", "oid": "103:1576575182505", "color": "#262626" }, "geometry": { "type": "Point", "coordinates": [ 0.703125, 45.213004 ] } }
{ "type": "Feature", "tippecanoe": { "layer": "2AFCA6F4F0481583918013674", "minzoom": 2, "maxzoom": 8 }, "properties": { "halo": 0.8, "title": "塞诺讷人", "fontsize": 12, "tyid": "304001", "oid": "103:1576575182392", "color": "#262626" }, "geometry": { "type": "Point", "coordinates": [ 3.339844, 47.989922 ] } }
{ "type": "Feature", "tippecanoe": { "layer": "2AFCA6F4F0481583918013674", "minzoom": 2, "maxzoom": 8 }, "properties": { "halo": 0.8, "title": "特里卡斯人", "fontsize": 12, "tyid": "304001", "oid": "103:1576575182491", "color": "#262626" }, "geometry": { "type": "Point", "coordinates": [ 4.218750, 48.864715 ] } }
{ "type": "Feature", "tippecanoe": { "layer": "2AFCA6F4F0481583918013674", "minzoom": 2, "maxzoom": 8 }, "properties": { "halo": 0.8, "title": "兰贡人", "fontsize": 12, "tyid": "304001", "oid": "103:1576575182488", "color": "#262626" }, "geometry": { "type": "Point", "coordinates": [ 5.009766, 48.107431 ] } }
{ "type": "Feature", "tippecanoe": { "layer": "2AFCA6F4F0481583918013674", "minzoom": 2, "maxzoom": 8 }, "properties": { "halo": 0.8, "title": "昂巴利人", "fontsize": 12, "tyid": "304001", "oid": "103:1576575182393", "color": "#262626" }, "geometry": { "type": "Point", "coordinates": [ 5.097656, 46.134170 ] } }
{ "type": "Feature", "tippecanoe": { "layer": "2AFCA6F4F0481583918013674", "minzoom": 2, "maxzoom": 8 }, "properties": { "halo": 0.8, "title": "塞古斯亚维人", "fontsize": 12, "tyid": "304001", "oid": "103:1576575182122", "color": "#262626" }, "geometry": { "type": "Point", "coordinates": [ 4.482422, 45.828799 ] } }
{ "type": "Feature", "tippecanoe": { "layer": "2AFCA6F4F0481583918013674", "minzoom": 2, "maxzoom": 8 }, "properties": { "halo": 0.8, "title": "尼提奥布罗日人", "fontsize": 12, "tyid": "304001", "oid": "103:1576575182160", "color": "#262626" }, "geometry": { "type": "Point", "coordinates": [ 0.439453, 44.653024 ] } }
{ "type": "Feature", "tippecanoe": { "layer": "2AFCA6F4F0481583918013674", "minzoom": 2, "maxzoom": 8 }, "properties": { "halo": 0.8, "title": "卡杜西人", "fontsize": 12, "tyid": "304001", "oid": "103:1576575181975", "color": "#262626" }, "geometry": { "type": "Point", "coordinates": [ 1.494141, 44.339565 ] } }
{ "type": "Feature", "tippecanoe": { "layer": "2AFCA6F4F0481583918013674", "minzoom": 2, "maxzoom": 8 }, "properties": { "halo": 0.8, "title": "鲁特尼人", "fontsize": 12, "tyid": "304001", "oid": "103:1576575181973", "color": "#262626" }, "geometry": { "type": "Point", "coordinates": [ 2.548828, 44.339565 ] } }
{ "type": "Feature", "tippecanoe": { "layer": "2AFCA6F4F0481583918013674", "minzoom": 2, "maxzoom": 8 }, "properties": { "halo": 0.8, "title": "加巴里人", "fontsize": 12, "tyid": "304001", "oid": "103:1576575181974", "color": "#262626" }, "geometry": { "type": "Point", "coordinates": [ 3.251953, 44.777936 ] } }
{ "type": "Feature", "tippecanoe": { "layer": "2AFCA6F4F0481583918013674", "minzoom": 2, "maxzoom": 8 }, "properties": { "halo": 0.8, "title": "维拉威人", "fontsize": 12, "tyid": "304001", "oid": "103:1576575182410", "color": "#262626" }, "geometry": { "type": "Point", "coordinates": [ 3.955078, 45.026950 ] } }
{ "type": "Feature", "tippecanoe": { "layer": "2AFCA6F4F0481583918013674", "minzoom": 2, "maxzoom": 8 }, "properties": { "halo": 0.8, "title": "马萨利亚", "fontsize": 12, "tyid": "304000", "oid": "103:1576575182434", "color": "#202020" }, "geometry": { "type": "Point", "coordinates": [ 5.449219, 43.325178 ] } }
{ "type": "Feature", "tippecanoe": { "layer": "2AFCA6F4F0481583918013674", "minzoom": 2, "maxzoom": 8 }, "properties": { "halo": 0.8, "title": "帕莱波利斯", "fontsize": 12, "tyid": "304000", "oid": "103:1576575182047", "color": "#202020" }, "geometry": { "type": "Point", "coordinates": [ 3.076172, 42.163403 ] } }
{ "type": "Feature", "tippecanoe": { "layer": "2AFCA6F4F0481583918013674", "minzoom": 2, "maxzoom": 8 }, "properties": { "halo": 0.8, "title": "萨拉西人", "fontsize": 12, "tyid": "304001", "oid": "103:1576575182395", "color": "#262626" }, "geometry": { "type": "Point", "coordinates": [ 6.943359, 45.521744 ] } }
{ "type": "Feature", "tippecanoe": { "layer": "2AFCA6F4F0481583918013674", "minzoom": 2, "maxzoom": 8 }, "properties": { "halo": 0.8, "title": "西杜里人", "fontsize": 12, "tyid": "304001", "oid": "103:1576575182258", "color": "#262626" }, "geometry": { "type": "Point", "coordinates": [ 7.470703, 46.195042 ] } }
{ "type": "Feature", "tippecanoe": { "layer": "2AFCA6F4F0481583918013674", "minzoom": 2, "maxzoom": 8 }, "properties": { "halo": 0.8, "title": "勒庞提人", "fontsize": 12, "tyid": "304001", "oid": "103:1576575182044", "color": "#262626" }, "geometry": { "type": "Point", "coordinates": [ 8.437500, 46.134170 ] } }
{ "type": "Feature", "tippecanoe": { "layer": "2AFCA6F4F0481583918013674", "minzoom": 2, "maxzoom": 8 }, "properties": { "halo": 0.8, "title": "卡莫尼卡人", "fontsize": 12, "tyid": "304001", "oid": "103:1576575182453", "color": "#262626" }, "geometry": { "type": "Point", "coordinates": [ 10.195312, 46.012224 ] } }
{ "type": "Feature", "tippecanoe": { "layer": "2AFCA6F4F0481583918013674", "minzoom": 2, "maxzoom": 8 }, "properties": { "halo": 0.8, "title": "沃康蒂人", "fontsize": 12, "tyid": "304001", "oid": "103:1576575182206", "color": "#262626" }, "geometry": { "type": "Point", "coordinates": [ 6.503906, 44.964798 ] } }
{ "type": "Feature", "tippecanoe": { "layer": "2AFCA6F4F0481583918013674", "minzoom": 2, "maxzoom": 8 }, "properties": { "halo": 0.8, "title": "摩诺伊科", "fontsize": 12, "tyid": "304000", "oid": "103:1576575182003", "color": "#202020" }, "geometry": { "type": "Point", "coordinates": [ 7.382812, 43.771094 ] } }
{ "type": "Feature", "tippecanoe": { "layer": "2AFCA6F4F0481583918013674", "minzoom": 2, "maxzoom": 8 }, "properties": { "halo": 0.8, "title": "奥耶塞利人", "fontsize": 12, "tyid": "304001", "oid": "103:1576575182383", "color": "#262626" }, "geometry": { "type": "Point", "coordinates": [ 22.500000, 58.447733 ] } }
{ "type": "Feature", "tippecanoe": { "layer": "2AFCA6F4F0481583918013674", "minzoom": 2, "maxzoom": 8 }, "properties": { "halo": 0.8, "title": "安恰罗斯", "fontsize": 12, "tyid": "304000", "oid": "103:1576575182444", "color": "#202020" }, "geometry": { "type": "Point", "coordinates": [ 27.509766, 42.617791 ] } }
{ "type": "Feature", "tippecanoe": { "layer": "2AFCA6F4F0481583918013674", "minzoom": 2, "maxzoom": 8 }, "properties": { "halo": 0.8, "title": "埃吉索斯", "fontsize": 12, "tyid": "304000", "oid": "103:1576575182055", "color": "#202020" }, "geometry": { "type": "Point", "coordinates": [ 29.091797, 45.151053 ] } }
{ "type": "Feature", "tippecanoe": { "layer": "2AFCA6F4F0481583918013674", "minzoom": 2, "maxzoom": 8 }, "properties": { "halo": 0.8, "title": "提拉斯", "fontsize": 12, "tyid": "304000", "oid": "103:1576575182050", "color": "#202020" }, "geometry": { "type": "Point", "coordinates": [ 30.234375, 46.134170 ] } }
{ "type": "Feature", "tippecanoe": { "layer": "2AFCA6F4F0481583918013674", "minzoom": 2, "maxzoom": 8 }, "properties": { "halo": 0.8, "title": "奥里维亚", "fontsize": 12, "tyid": "304002", "oid": "103:1576575182175", "color": "#262626" }, "geometry": { "type": "Point", "coordinates": [ 31.816406, 46.679594 ] } }
{ "type": "Feature", "tippecanoe": { "layer": "2AFCA6F4F0481583918013674", "minzoom": 2, "maxzoom": 8 }, "properties": { "halo": 0.8, "title": "希斯特里亚", "fontsize": 12, "tyid": "304000", "oid": "103:1576575182276", "color": "#202020" }, "geometry": { "type": "Point", "coordinates": [ 28.740234, 44.527843 ] } }
{ "type": "Feature", "tippecanoe": { "layer": "2AFCA6F4F0481583918013674", "minzoom": 2, "maxzoom": 8 }, "properties": { "halo": 0.8, "title": "托米斯", "fontsize": 12, "tyid": "304000", "oid": "103:1576575181977", "color": "#202020" }, "geometry": { "type": "Point", "coordinates": [ 28.476562, 44.213710 ] } }
{ "type": "Feature", "tippecanoe": { "layer": "2AFCA6F4F0481583918013674", "minzoom": 2, "maxzoom": 8 }, "properties": { "halo": 0.8, "title": "迪奥尼索波利斯", "fontsize": 12, "tyid": "304000", "oid": "103:1576575182048", "color": "#202020" }, "geometry": { "type": "Point", "coordinates": [ 28.125000, 43.452919 ] } }
{ "type": "Feature", "tippecanoe": { "layer": "2AFCA6F4F0481583918013674", "minzoom": 2, "maxzoom": 8 }, "properties": { "halo": 0.8, "title": "拜佐恩", "fontsize": 12, "tyid": "304000", "oid": "103:1576575182120", "color": "#202020" }, "geometry": { "type": "Point", "coordinates": [ 28.300781, 43.452919 ] } }
{ "type": "Feature", "tippecanoe": { "layer": "2AFCA6F4F0481583918013674", "minzoom": 2, "maxzoom": 8 }, "properties": { "halo": 0.8, "title": "拜占庭", "fontsize": 12, "tyid": "304000", "oid": "103:1576575182080", "color": "#202020" }, "geometry": { "type": "Point", "coordinates": [ 28.740234, 41.178654 ] } }
{ "type": "Feature", "tippecanoe": { "layer": "2AFCA6F4F0481583918013674", "minzoom": 2, "maxzoom": 8 }, "properties": { "halo": 0.8, "title": "博斯普鲁斯王国", "fontsize": 12, "tyid": "304000", "oid": "103:1576575182147", "color": "#202020" }, "geometry": { "type": "Point", "coordinates": [ 37.441406, 45.026950 ] } }
{ "type": "Feature", "tippecanoe": { "layer": "2AFCA6F4F0481583918013674", "minzoom": 2, "maxzoom": 8 }, "properties": { "halo": 0.8, "title": "辛迪人", "fontsize": 12, "tyid": "304001", "oid": "103:1576575182193", "color": "#262626" }, "geometry": { "type": "Point", "coordinates": [ 38.759766, 44.777936 ] } }
{ "type": "Feature", "tippecanoe": { "layer": "2AFCA6F4F0481583918013674", "minzoom": 2, "maxzoom": 8 }, "properties": { "halo": 0.8, "title": "西努米底亚王国", "fontsize": 12, "tyid": "304000", "oid": "103:1576575182433", "color": "#202020" }, "geometry": { "type": "Point", "coordinates": [ 5.449219, 35.889050 ] } }
{ "type": "Feature", "tippecanoe": { "layer": "2AFCA6F4F0481583918013674", "minzoom": 2, "maxzoom": 8 }, "properties": { "halo": 0.8, "title": "萨莫色雷斯", "fontsize": 12, "tyid": "304000", "oid": "103:1576575182452", "color": "#202020" }, "geometry": { "type": "Point", "coordinates": [ 25.576172, 40.513799 ] } }
{ "type": "Feature", "tippecanoe": { "layer": "2AFCA6F4F0481583918013674", "minzoom": 2, "maxzoom": 8 }, "properties": { "halo": 0.8, "title": "罗德斯国", "fontsize": 12, "tyid": "304000", "oid": "103:1576575182243", "color": "#202020" }, "geometry": { "type": "Point", "coordinates": [ 27.949219, 36.244273 ] } }
{ "type": "Feature", "tippecanoe": { "layer": "2AFCA6F4F0481583918013674", "minzoom": 2, "maxzoom": 8 }, "properties": { "halo": 0.8, "title": "利西亚人联盟", "fontsize": 12, "tyid": "304002", "oid": "103:1576575182004", "color": "#262626" }, "geometry": { "type": "Point", "coordinates": [ 29.794922, 36.527295 ] } }
{ "type": "Feature", "tippecanoe": { "layer": "2AFCA6F4F0481583918013674", "minzoom": 2, "maxzoom": 8 }, "properties": { "halo": 0.8, "title": "科马基尼王国", "fontsize": 12, "tyid": "304000", "oid": "103:1576575181971", "color": "#202020" }, "geometry": { "type": "Point", "coordinates": [ 37.880859, 37.718590 ] } }
{ "type": "Feature", "tippecanoe": { "layer": "2AFCA6F4F0481583918013674", "minzoom": 2, "maxzoom": 8 }, "properties": { "halo": 0.8, "title": "卡尔基斯王国", "fontsize": 12, "tyid": "304000", "oid": "103:1576575182376", "color": "#202020" }, "geometry": { "type": "Point", "coordinates": [ 35.859375, 33.578015 ] } }
{ "type": "Feature", "tippecanoe": { "layer": "2AFCA6F4F0481583918013674", "minzoom": 2, "maxzoom": 8 }, "properties": { "halo": 0.8, "title": "德卡波利斯联盟", "fontsize": 12, "tyid": "304002", "oid": "103:1576575182013", "color": "#262626" }, "geometry": { "type": "Point", "coordinates": [ 35.859375, 32.546813 ] } }
{ "type": "Feature", "tippecanoe": { "layer": "2AFCA6F4F0481583918013674", "minzoom": 2, "maxzoom": 8 }, "properties": { "halo": 0.8, "title": "埃米萨王朝", "fontsize": 12, "tyid": "304000", "oid": "103:1576575182082", "color": "#202020" }, "geometry": { "type": "Point", "coordinates": [ 36.650391, 34.741612 ] } }
{ "type": "Feature", "tippecanoe": { "layer": "2AFCA6F4F0481583918013674", "minzoom": 2, "maxzoom": 8 }, "properties": { "halo": 0.8, "title": "索芬尼王国", "fontsize": 12, "tyid": "304000", "oid": "103:1576575182495", "color": "#202020" }, "geometry": { "type": "Point", "coordinates": [ 39.638672, 37.996163 ] } }
{ "type": "Feature", "tippecanoe": { "layer": "2AFCA6F4F0481583918013674", "minzoom": 2, "maxzoom": 8 }, "properties": { "halo": 0.8, "title": "哈斯蒙尼王朝", "fontsize": 12, "tyid": "304000", "oid": "103:1576575182253", "color": "#202020" }, "geometry": { "type": "Point", "coordinates": [ 35.068359, 31.653381 ] } }
{ "type": "Feature", "tippecanoe": { "layer": "2AFCA6F4F0481583918013674", "minzoom": 2, "maxzoom": 8 }, "properties": { "halo": 0.8, "title": "希木叶尔王国", "fontsize": 12, "tyid": "304000", "oid": "103:1576575182335", "color": "#202020" }, "geometry": { "type": "Point", "coordinates": [ 44.208984, 13.838080 ] } }
{ "type": "Feature", "tippecanoe": { "layer": "2AFCA6F4F0481583918013674", "minzoom": 2, "maxzoom": 8 }, "properties": { "halo": 0.8, "title": "列兹金人", "fontsize": 12, "tyid": "304001", "oid": "103:1576575182472", "color": "#262626" }, "geometry": { "type": "Point", "coordinates": [ 47.812500, 41.640078 ] } }
{ "type": "Feature", "tippecanoe": { "layer": "2AFCA6F4F0481583918013674", "minzoom": 2, "maxzoom": 8 }, "properties": { "halo": 0.8, "title": "温宿国", "fontsize": 12, "tyid": "304000", "oid": "103:1576575182029", "color": "#202020" }, "geometry": { "type": "Point", "coordinates": [ 79.277344, 41.310824 ] } }
{ "type": "Feature", "tippecanoe": { "layer": "2AFCA6F4F0481583918013674", "minzoom": 2, "maxzoom": 8 }, "properties": { "halo": 0.8, "title": "乌贪訾离国", "fontsize": 12, "tyid": "304000", "oid": "103:1576575181929", "color": "#202020" }, "geometry": { "type": "Point", "coordinates": [ 86.748047, 44.465151 ] } }
{ "type": "Feature", "tippecanoe": { "layer": "2AFCA6F4F0481583918013674", "minzoom": 2, "maxzoom": 8 }, "properties": { "halo": 0.8, "title": "西且弥国", "fontsize": 12, "tyid": "304000", "oid": "103:1576575182219", "color": "#202020" }, "geometry": { "type": "Point", "coordinates": [ 86.220703, 43.834527 ] } }
{ "type": "Feature", "tippecanoe": { "layer": "2AFCA6F4F0481583918013674", "minzoom": 2, "maxzoom": 8 }, "properties": { "halo": 0.8, "title": "东且弥国", "fontsize": 12, "tyid": "304000", "oid": "103:1576575182220", "color": "#202020" }, "geometry": { "type": "Point", "coordinates": [ 86.923828, 43.707594 ] } }
{ "type": "Feature", "tippecanoe": { "layer": "2AFCA6F4F0481583918013674", "minzoom": 2, "maxzoom": 8 }, "properties": { "halo": 0.8, "title": "焉耆国", "fontsize": 12, "tyid": "304000", "oid": "103:1576575181949", "color": "#202020" }, "geometry": { "type": "Point", "coordinates": [ 85.957031, 41.902277 ] } }
{ "type": "Feature", "tippecanoe": { "layer": "2AFCA6F4F0481583918013674", "minzoom": 2, "maxzoom": 8 }, "properties": { "halo": 0.8, "title": "劫国", "fontsize": 12, "tyid": "304000", "oid": "103:1576575182032", "color": "#202020" }, "geometry": { "type": "Point", "coordinates": [ 87.802734, 44.150681 ] } }
{ "type": "Feature", "tippecanoe": { "layer": "2AFCA6F4F0481583918013674", "minzoom": 2, "maxzoom": 8 }, "properties": { "halo": 0.8, "title": "卑陆后国", "fontsize": 12, "tyid": "304000", "oid": "103:1576575182037", "color": "#202020" }, "geometry": { "type": "Point", "coordinates": [ 88.154297, 44.276671 ] } }
{ "type": "Feature", "tippecanoe": { "layer": "2AFCA6F4F0481583918013674", "minzoom": 2, "maxzoom": 8 }, "properties": { "halo": 0.8, "title": "单桓国", "fontsize": 12, "tyid": "304000", "oid": "103:1576575182404", "color": "#202020" }, "geometry": { "type": "Point", "coordinates": [ 87.539062, 44.024422 ] } }
{ "type": "Feature", "tippecanoe": { "layer": "2AFCA6F4F0481583918013674", "minzoom": 2, "maxzoom": 8 }, "properties": { "halo": 0.8, "title": "卑陆国", "fontsize": 12, "tyid": "304000", "oid": "103:1576575182317", "color": "#202020" }, "geometry": { "type": "Point", "coordinates": [ 88.066406, 43.961191 ] } }
{ "type": "Feature", "tippecanoe": { "layer": "2AFCA6F4F0481583918013674", "minzoom": 2, "maxzoom": 8 }, "properties": { "halo": 0.8, "title": "郁立师国", "fontsize": 12, "tyid": "304000", "oid": "103:1576575181995", "color": "#202020" }, "geometry": { "type": "Point", "coordinates": [ 88.945312, 43.961191 ] } }
{ "type": "Feature", "tippecanoe": { "layer": "2AFCA6F4F0481583918013674", "minzoom": 2, "maxzoom": 8 }, "properties": { "halo": 0.8, "title": "卡塔班王国", "fontsize": 12, "tyid": "304000", "oid": "103:1576575182197", "color": "#202020" }, "geometry": { "type": "Point", "coordinates": [ 45.791016, 14.859850 ] } }
{ "type": "Feature", "tippecanoe": { "layer": "2AFCA6F4F0481583918013674", "minzoom": 2, "maxzoom": 8 }, "properties": { "halo": 0.8, "title": "难兜国", "fontsize": 12, "tyid": "304000", "oid": "103:1576575182250", "color": "#202020" }, "geometry": { "type": "Point", "coordinates": [ 74.091797, 36.949892 ] } }
{ "type": "Feature", "tippecanoe": { "layer": "2AFCA6F4F0481583918013674", "minzoom": 2, "maxzoom": 8 }, "properties": { "halo": 0.8, "title": "蒲犁国", "fontsize": 12, "tyid": "304000", "oid": "103:1576575182252", "color": "#202020" }, "geometry": { "type": "Point", "coordinates": [ 75.234375, 37.996163 ] } }
{ "type": "Feature", "tippecanoe": { "layer": "2AFCA6F4F0481583918013674", "minzoom": 2, "maxzoom": 8 }, "properties": { "halo": 0.8, "title": "疏勒国", "fontsize": 12, "tyid": "304000", "oid": "103:1576575182041", "color": "#202020" }, "geometry": { "type": "Point", "coordinates": [ 76.289062, 39.504041 ] } }
{ "type": "Feature", "tippecanoe": { "layer": "2AFCA6F4F0481583918013674", "minzoom": 2, "maxzoom": 8 }, "properties": { "halo": 0.8, "title": "依耐国", "fontsize": 12, "tyid": "304000", "oid": "103:1576575182030", "color": "#202020" }, "geometry": { "type": "Point", "coordinates": [ 75.937500, 38.616870 ] } }
{ "type": "Feature", "tippecanoe": { "layer": "2AFCA6F4F0481583918013674", "minzoom": 2, "maxzoom": 8 }, "properties": { "halo": 0.8, "title": "子合国", "fontsize": 12, "tyid": "304000", "oid": "103:1576575182338", "color": "#202020" }, "geometry": { "type": "Point", "coordinates": [ 76.376953, 37.718590 ] } }
{ "type": "Feature", "tippecanoe": { "layer": "2AFCA6F4F0481583918013674", "minzoom": 2, "maxzoom": 8 }, "properties": { "halo": 0.8, "title": "皮山国", "fontsize": 12, "tyid": "304000", "oid": "103:1576575182020", "color": "#202020" }, "geometry": { "type": "Point", "coordinates": [ 78.574219, 37.509726 ] } }
{ "type": "Feature", "tippecanoe": { "layer": "2AFCA6F4F0481583918013674", "minzoom": 2, "maxzoom": 8 }, "properties": { "halo": 0.8, "title": "戎卢国", "fontsize": 12, "tyid": "304000", "oid": "103:1576575181927", "color": "#202020" }, "geometry": { "type": "Point", "coordinates": [ 83.144531, 36.668419 ] } }
{ "type": "Feature", "tippecanoe": { "layer": "2AFCA6F4F0481583918013674", "minzoom": 2, "maxzoom": 8 }, "properties": { "halo": 0.8, "title": "渠勒国", "fontsize": 12, "tyid": "304000", "oid": "103:1576575182341", "color": "#202020" }, "geometry": { "type": "Point", "coordinates": [ 80.947266, 36.385913 ] } }
{ "type": "Feature", "tippecanoe": { "layer": "2AFCA6F4F0481583918013674", "minzoom": 2, "maxzoom": 8 }, "properties": { "halo": 0.8, "title": "小宛国", "fontsize": 12, "tyid": "304000", "oid": "103:1576575182007", "color": "#202020" }, "geometry": { "type": "Point", "coordinates": [ 85.078125, 37.090240 ] } }
{ "type": "Feature", "tippecanoe": { "layer": "2AFCA6F4F0481583918013674", "minzoom": 2, "maxzoom": 8 }, "properties": { "halo": 0.8, "title": "罗昂", "fontsize": 12, "tyid": "304000", "oid": "103:1576575182331", "color": "#202020" }, "geometry": { "type": "Point", "coordinates": [ 89.208984, 29.152161 ] } }
{ "type": "Feature", "tippecanoe": { "layer": "2AFCA6F4F0481583918013674", "minzoom": 2, "maxzoom": 8 }, "properties": { "halo": 0.8, "title": "藏", "fontsize": 12, "tyid": "304000", "oid": "103:1576575182441", "color": "#202020" }, "geometry": { "type": "Point", "coordinates": [ 89.736328, 28.844674 ] } }
{ "type": "Feature", "tippecanoe": { "layer": "2AFCA6F4F0481583918013674", "minzoom": 2, "maxzoom": 8 }, "properties": { "halo": 0.8, "title": "卓木南木松", "fontsize": 12, "tyid": "304000", "oid": "103:1576575182240", "color": "#202020" }, "geometry": { "type": "Point", "coordinates": [ 88.945312, 27.839076 ] } }
{ "type": "Feature", "tippecanoe": { "layer": "2AFCA6F4F0481583918013674", "minzoom": 2, "maxzoom": 8 }, "properties": { "halo": 0.8, "title": "牟湿迦王国", "fontsize": 12, "tyid": "304000", "oid": "103:1576575181958", "color": "#202020" }, "geometry": { "type": "Point", "coordinates": [ 75.234375, 12.811801 ] } }
{ "type": "Feature", "tippecanoe": { "layer": "2AFCA6F4F0481583918013674", "minzoom": 2, "maxzoom": 8 }, "properties": { "halo": 0.8, "title": "阿伊王国", "fontsize": 12, "tyid": "304000", "oid": "103:1576575182316", "color": "#202020" }, "geometry": { "type": "Point", "coordinates": [ 77.080078, 8.667918 ] } }
{ "type": "Feature", "tippecanoe": { "layer": "2AFCA6F4F0481583918013674", "minzoom": 2, "maxzoom": 8 }, "properties": { "halo": 0.8, "title": "滚兔岭文化", "fontsize": 12, "tyid": "304002", "oid": "103:1576575182001", "color": "#262626" }, "geometry": { "type": "Point", "coordinates": [ 130.957031, 46.498392 ] } }
{ "type": "Feature", "tippecanoe": { "layer": "2AFCA6F4F0481583918013674", "minzoom": 2, "maxzoom": 8 }, "properties": { "halo": 0.8, "title": "吉", "fontsize": 12, "tyid": "304000", "oid": "103:1576575182327", "color": "#202020" }, "geometry": { "type": "Point", "coordinates": [ 91.406250, 29.764377 ] } }
{ "type": "Feature", "tippecanoe": { "layer": "2AFCA6F4F0481583918013674", "minzoom": 2, "maxzoom": 8 }, "properties": { "halo": 0.8, "title": "琛", "fontsize": 12, "tyid": "304000", "oid": "103:1576575181907", "color": "#202020" }, "geometry": { "type": "Point", "coordinates": [ 91.230469, 29.382175 ] } }
{ "type": "Feature", "tippecanoe": { "layer": "2AFCA6F4F0481583918013674", "minzoom": 2, "maxzoom": 8 }, "properties": { "halo": 0.8, "title": "悉补野", "fontsize": 12, "tyid": "304000", "oid": "103:1576575181951", "color": "#202020" }, "geometry": { "type": "Point", "coordinates": [ 91.845703, 29.152161 ] } }
{ "type": "Feature", "tippecanoe": { "layer": "2AFCA6F4F0481583918013674", "minzoom": 2, "maxzoom": 8 }, "properties": { "halo": 0.8, "title": "俄玉邦噶", "fontsize": 12, "tyid": "304000", "oid": "103:1576575182099", "color": "#202020" }, "geometry": { "type": "Point", "coordinates": [ 92.548828, 29.152161 ] } }
{ "type": "Feature", "tippecanoe": { "layer": "2AFCA6F4F0481583918013674", "minzoom": 2, "maxzoom": 8 }, "properties": { "halo": 0.8, "title": "娘", "fontsize": 12, "tyid": "304000", "oid": "103:1576575182263", "color": "#202020" }, "geometry": { "type": "Point", "coordinates": [ 93.339844, 29.916852 ] } }
{ "type": "Feature", "tippecanoe": { "layer": "2AFCA6F4F0481583918013674", "minzoom": 2, "maxzoom": 8 }, "properties": { "halo": 0.8, "title": "贡", "fontsize": 12, "tyid": "304000", "oid": "103:1576575182443", "color": "#202020" }, "geometry": { "type": "Point", "coordinates": [ 94.482422, 29.688053 ] } }
{ "type": "Feature", "tippecanoe": { "layer": "2AFCA6F4F0481583918013674", "minzoom": 2, "maxzoom": 8 }, "properties": { "halo": 0.8, "title": "达", "fontsize": 12, "tyid": "304000", "oid": "103:1576575182034", "color": "#202020" }, "geometry": { "type": "Point", "coordinates": [ 93.603516, 29.152161 ] } }
{ "type": "Feature", "tippecanoe": { "layer": "2AFCA6F4F0481583918013674", "minzoom": 2, "maxzoom": 8 }, "properties": { "halo": 0.8, "title": "石坛文化", "fontsize": 12, "tyid": "304002", "oid": "103:1576575182279", "color": "#262626" }, "geometry": { "type": "Point", "coordinates": [ 103.359375, 19.559790 ] } }
{ "type": "Feature", "tippecanoe": { "layer": "2AFCA6F4F0481583918013674", "minzoom": 2, "maxzoom": 8 }, "properties": { "halo": 0.8, "title": "营埔文化", "fontsize": 12, "tyid": "304002", "oid": "103:1576575181925", "color": "#262626" }, "geometry": { "type": "Point", "coordinates": [ 120.673828, 24.287027 ] } }
{ "type": "Feature", "tippecanoe": { "layer": "2AFCA6F4F0481583918013674", "minzoom": 2, "maxzoom": 8 }, "properties": { "halo": 0.8, "title": "龟山文化", "fontsize": 12, "tyid": "304002", "oid": "103:1576575182527", "color": "#262626" }, "geometry": { "type": "Point", "coordinates": [ 120.585938, 22.674847 ] } }
{ "type": "Feature", "tippecanoe": { "layer": "2AFCA6F4F0481583918013674", "minzoom": 2, "maxzoom": 8 }, "properties": { "halo": 0.8, "title": "十三行文化", "fontsize": 12, "tyid": "304002", "oid": "103:1576575182524", "color": "#262626" }, "geometry": { "type": "Point", "coordinates": [ 121.464844, 24.846565 ] } }
{ "type": "Feature", "tippecanoe": { "layer": "2AFCA6F4F0481583918013674", "minzoom": 2, "maxzoom": 8 }, "properties": { "halo": 0.8, "title": "麒麟文化", "fontsize": 12, "tyid": "304002", "oid": "103:1576575182526", "color": "#262626" }, "geometry": { "type": "Point", "coordinates": [ 121.201172, 23.322080 ] } }
{ "type": "Feature", "tippecanoe": { "layer": "2AFCA6F4F0481583918013674", "minzoom": 2, "maxzoom": 8 }, "properties": { "halo": 0.8, "title": "弁韩", "fontsize": 12, "tyid": "304001", "oid": "103:1576575182251", "color": "#262626" }, "geometry": { "type": "Point", "coordinates": [ 127.968750, 35.317366 ] } }
{ "type": "Feature", "tippecanoe": { "layer": "2AFCA6F4F0481583918013674", "minzoom": 2, "maxzoom": 8 }, "properties": { "halo": 0.8, "title": "托雷斯海峡岛民", "fontsize": 12, "tyid": "304001", "oid": "103:1576575181987", "color": "#262626" }, "geometry": { "type": "Point", "coordinates": [ 142.382812, -11.264612 ] } }
{ "type": "Feature", "tippecanoe": { "layer": "2AFCA6F4F8D01583918013671", "minzoom": 2, "maxzoom": 8 }, "properties": { "halo": 0.8, "title": "拉霍亚文化", "fontsize": 12, "tyid": "304002", "oid": "103:1576575181979", "color": "#262626" }, "geometry": { "type": "Point", "coordinates": [ -118.916016, 34.597042 ] } }
{ "type": "Feature", "tippecanoe": { "layer": "2AFCA6F4F8D01583918013671", "minzoom": 2, "maxzoom": 8 }, "properties": { "halo": 0.8, "title": "古普韦布洛人", "fontsize": 12, "tyid": "304001", "oid": "103:1576575182325", "color": "#262626" }, "geometry": { "type": "Point", "coordinates": [ -110.126953, 36.949892 ] } }
{ "type": "Feature", "tippecanoe": { "layer": "2AFCA6F4F8D01583918013671", "minzoom": 2, "maxzoom": 8 }, "properties": { "halo": 0.8, "title": "奇瓦瓦文化", "fontsize": 12, "tyid": "304002", "oid": "103:1576575182308", "color": "#262626" }, "geometry": { "type": "Point", "coordinates": [ -107.226562, 32.768800 ] } }
{ "type": "Feature", "tippecanoe": { "layer": "2AFCA6F4F8D01583918013671", "minzoom": 2, "maxzoom": 8 }, "properties": { "halo": 0.8, "title": "奥沙拉文化", "fontsize": 12, "tyid": "304002", "oid": "103:1576575182261", "color": "#262626" }, "geometry": { "type": "Point", "coordinates": [ -106.699219, 37.579413 ] } }
{ "type": "Feature", "tippecanoe": { "layer": "2AFCA6F4F8D01583918013671", "minzoom": 2, "maxzoom": 8 }, "properties": { "halo": 0.8, "title": "瓜伊库拉人", "fontsize": 12, "tyid": "304001", "oid": "103:1576575182342", "color": "#262626" }, "geometry": { "type": "Point", "coordinates": [ -111.269531, 24.846565 ] } }
{ "type": "Feature", "tippecanoe": { "layer": "2AFCA6F4F8D01583918013671", "minzoom": 2, "maxzoom": 8 }, "properties": { "halo": 0.8, "title": "堪萨斯城霍普韦尔文化", "fontsize": 12, "tyid": "304002", "oid": "103:1576575182212", "color": "#262626" }, "geometry": { "type": "Point", "coordinates": [ -94.042969, 39.027719 ] } }
{ "type": "Feature", "tippecanoe": { "layer": "2AFCA6F4F8D01583918013671", "minzoom": 2, "maxzoom": 8 }, "properties": { "halo": 0.8, "title": "哈瓦那霍普韦尔文化", "fontsize": 12, "tyid": "304002", "oid": "103:1576575182405", "color": "#262626" }, "geometry": { "type": "Point", "coordinates": [ -91.054688, 40.446947 ] } }
{ "type": "Feature", "tippecanoe": { "layer": "2AFCA6F4F8D01583918013671", "minzoom": 2, "maxzoom": 8 }, "properties": { "halo": 0.8, "title": "喀多语密西西比文化", "fontsize": 12, "tyid": "304002", "oid": "103:1576575182107", "color": "#262626" }, "geometry": { "type": "Point", "coordinates": [ -94.482422, 35.960223 ] } }
{ "type": "Feature", "tippecanoe": { "layer": "2AFCA6F4F8D01583918013671", "minzoom": 2, "maxzoom": 8 }, "properties": { "halo": 0.8, "title": "福切马里尼文化", "fontsize": 12, "tyid": "304002", "oid": "103:1576575181991", "color": "#262626" }, "geometry": { "type": "Point", "coordinates": [ -94.306641, 33.358062 ] } }
{ "type": "Feature", "tippecanoe": { "layer": "2AFCA6F4F8D01583918013671", "minzoom": 2, "maxzoom": 8 }, "properties": { "halo": 0.8, "title": "楚拉时期", "fontsize": 12, "tyid": "304002", "oid": "103:1576575182111", "color": "#262626" }, "geometry": { "type": "Point", "coordinates": [ -92.021484, 32.472695 ] } }
{ "type": "Feature", "tippecanoe": { "layer": "2AFCA6F4F8D01583918013671", "minzoom": 2, "maxzoom": 8 }, "properties": { "halo": 0.8, "title": "华斯塔克文明", "fontsize": 12, "tyid": "304002", "oid": "103:1576575182133", "color": "#262626" }, "geometry": { "type": "Point", "coordinates": [ -98.613281, 22.105999 ] } }
{ "type": "Feature", "tippecanoe": { "layer": "2AFCA6F4F8D01583918013671", "minzoom": 2, "maxzoom": 8 }, "properties": { "halo": 0.8, "title": "奇蒂玛察人", "fontsize": 12, "tyid": "304001", "oid": "103:1576575181982", "color": "#262626" }, "geometry": { "type": "Point", "coordinates": [ -91.230469, 30.902225 ] } }
{ "type": "Feature", "tippecanoe": { "layer": "2AFCA6F4F8D01583918013671", "minzoom": 2, "maxzoom": 8 }, "properties": { "halo": 0.8, "title": "马克斯维尔文化", "fontsize": 12, "tyid": "304002", "oid": "103:1576575182156", "color": "#262626" }, "geometry": { "type": "Point", "coordinates": [ -90.878906, 29.764377 ] } }
{ "type": "Feature", "tippecanoe": { "layer": "2AFCA6F4F8D01583918013671", "minzoom": 2, "maxzoom": 8 }, "properties": { "halo": 0.8, "title": "特切特兰文化", "fontsize": 12, "tyid": "304002", "oid": "103:1576575182353", "color": "#262626" }, "geometry": { "type": "Point", "coordinates": [ -104.326172, 20.468189 ] } }
{ "type": "Feature", "tippecanoe": { "layer": "2AFCA6F4F8D01583918013671", "minzoom": 2, "maxzoom": 8 }, "properties": { "halo": 0.8, "title": "萨波特克文明", "fontsize": 12, "tyid": "304002", "oid": "103:1576575182362", "color": "#262626" }, "geometry": { "type": "Point", "coordinates": [ -96.064453, 16.636192 ] } }
{ "type": "Feature", "tippecanoe": { "layer": "2AFCA6F4F8D01583918013671", "minzoom": 2, "maxzoom": 8 }, "properties": { "halo": 0.8, "title": "古德尔文化", "fontsize": 12, "tyid": "304002", "oid": "103:1576575182266", "color": "#262626" }, "geometry": { "type": "Point", "coordinates": [ -85.869141, 43.133061 ] } }
{ "type": "Feature", "tippecanoe": { "layer": "2AFCA6F4F8D01583918013671", "minzoom": 2, "maxzoom": 8 }, "properties": { "halo": 0.8, "title": "索根文化", "fontsize": 12, "tyid": "304002", "oid": "103:1576575182017", "color": "#262626" }, "geometry": { "type": "Point", "coordinates": [ -81.298828, 43.707594 ] } }
{ "type": "Feature", "tippecanoe": { "layer": "2AFCA6F4F8D01583918013671", "minzoom": 2, "maxzoom": 8 }, "properties": { "halo": 0.8, "title": "俄亥俄霍普韦尔文化", "fontsize": 12, "tyid": "304002", "oid": "103:1576575182354", "color": "#262626" }, "geometry": { "type": "Point", "coordinates": [ -83.056641, 39.504041 ] } }
{ "type": "Feature", "tippecanoe": { "layer": "2AFCA6F4F8D01583918013671", "minzoom": 2, "maxzoom": 8 }, "properties": { "halo": 0.8, "title": "德普特福德文化", "fontsize": 12, "tyid": "304002", "oid": "103:1576575181947", "color": "#262626" }, "geometry": { "type": "Point", "coordinates": [ -79.628906, 33.358062 ] } }
{ "type": "Feature", "tippecanoe": { "layer": "2AFCA6F4F8D01583918013671", "minzoom": 2, "maxzoom": 8 }, "properties": { "halo": 0.8, "title": "切格文特文化", "fontsize": 12, "tyid": "304002", "oid": "103:1576575182273", "color": "#262626" }, "geometry": { "type": "Point", "coordinates": [ -89.208984, 30.600094 ] } }
{ "type": "Feature", "tippecanoe": { "layer": "2AFCA6F4F8D01583918013671", "minzoom": 2, "maxzoom": 8 }, "properties": { "halo": 0.8, "title": "玛雅文明[前古典时期]", "fontsize": 12, "tyid": "304002", "oid": "103:1576575181922", "color": "#262626" }, "geometry": { "type": "Point", "coordinates": [ -89.296875, 17.056785 ] } }
{ "type": "Feature", "tippecanoe": { "layer": "2AFCA6F4F8D01583918013671", "minzoom": 2, "maxzoom": 8 }, "properties": { "halo": 0.8, "title": "兹努文化", "fontsize": 12, "tyid": "304002", "oid": "103:1576575182186", "color": "#262626" }, "geometry": { "type": "Point", "coordinates": [ -75.585938, 8.581021 ] } }
{ "type": "Feature", "tippecanoe": { "layer": "2AFCA6F4F8D01583918013671", "minzoom": 2, "maxzoom": 8 }, "properties": { "halo": 0.8, "title": "拉托利塔文化", "fontsize": 12, "tyid": "304002", "oid": "103:1576575182181", "color": "#262626" }, "geometry": { "type": "Point", "coordinates": [ -78.046875, 1.757537 ] } }
{ "type": "Feature", "tippecanoe": { "layer": "2AFCA6F4F8D01583918013671", "minzoom": 2, "maxzoom": 8 }, "properties": { "halo": 0.8, "title": "埃雷拉时期", "fontsize": 12, "tyid": "304002", "oid": "103:1576575182157", "color": "#262626" }, "geometry": { "type": "Point", "coordinates": [ -73.476562, 5.441022 ] } }
{ "type": "Feature", "tippecanoe": { "layer": "2AFCA6F4F8D01583918013671", "minzoom": 2, "maxzoom": 8 }, "properties": { "halo": 0.8, "title": "伊奈里人", "fontsize": 12, "tyid": "304001", "oid": "103:1576575182269", "color": "#262626" }, "geometry": { "type": "Point", "coordinates": [ -61.787109, 8.754795 ] } }
{ "type": "Feature", "tippecanoe": { "layer": "2AFCA6F4F8D01583918013671", "minzoom": 2, "maxzoom": 8 }, "properties": { "halo": 0.8, "title": "皮克特人", "fontsize": 12, "tyid": "304001", "oid": "103:1576575181964", "color": "#262626" }, "geometry": { "type": "Point", "coordinates": [ -4.042969, 56.704506 ] } }
{ "type": "Feature", "tippecanoe": { "layer": "2AFCA6F4F8D01583918013671", "minzoom": 2, "maxzoom": 8 }, "properties": { "halo": 0.8, "title": "盖尔人", "fontsize": 12, "tyid": "304001", "oid": "103:1576575182231", "color": "#262626" }, "geometry": { "type": "Point", "coordinates": [ -7.910156, 53.435719 ] } }
{ "type": "Feature", "tippecanoe": { "layer": "2AFCA6F4F8D01583918013671", "minzoom": 2, "maxzoom": 8 }, "properties": { "halo": 0.8, "title": "皮克托人", "fontsize": 12, "tyid": "304001", "oid": "103:1576575182159", "color": "#262626" }, "geometry": { "type": "Point", "coordinates": [ -0.791016, 46.860191 ] } }
{ "type": "Feature", "tippecanoe": { "layer": "2AFCA6F4F8D01583918013671", "minzoom": 2, "maxzoom": 8 }, "properties": { "halo": 0.8, "title": "阿奎丹人", "fontsize": 12, "tyid": "304001", "oid": "103:1576575182056", "color": "#262626" }, "geometry": { "type": "Point", "coordinates": [ -0.175781, 43.897892 ] } }
{ "type": "Feature", "tippecanoe": { "layer": "2AFCA6F4F8D01583918013671", "minzoom": 2, "maxzoom": 8 }, "properties": { "halo": 0.8, "title": "杰内-杰诺文化一期", "fontsize": 12, "tyid": "304002", "oid": "103:1576575182012", "color": "#262626" }, "geometry": { "type": "Point", "coordinates": [ -4.482422, 13.667338 ] } }
{ "type": "Feature", "tippecanoe": { "layer": "2AFCA6F4F8D01583918013671", "minzoom": 2, "maxzoom": 8 }, "properties": { "halo": 0.8, "title": "楚真文化", "fontsize": 12, "tyid": "304002", "oid": "103:1576575182118", "color": "#262626" }, "geometry": { "type": "Point", "coordinates": [ -70.576172, -16.299051 ] } }
{ "type": "Feature", "tippecanoe": { "layer": "2AFCA6F4F8D01583918013671", "minzoom": 2, "maxzoom": 8 }, "properties": { "halo": 0.8, "title": "普卡拉文化", "fontsize": 12, "tyid": "304002", "oid": "103:1576575182350", "color": "#262626" }, "geometry": { "type": "Point", "coordinates": [ -69.873047, -14.859850 ] } }
{ "type": "Feature", "tippecanoe": { "layer": "2AFCA6F4F8D01583918013671", "minzoom": 2, "maxzoom": 8 }, "properties": { "halo": 0.8, "title": "艾马拉人", "fontsize": 12, "tyid": "304001", "oid": "103:1576575182078", "color": "#262626" }, "geometry": { "type": "Point", "coordinates": [ -68.291016, -17.224758 ] } }
{ "type": "Feature", "tippecanoe": { "layer": "2AFCA6F4F8D01583918013671", "minzoom": 2, "maxzoom": 8 }, "properties": { "halo": 0.8, "title": "昌戈人", "fontsize": 12, "tyid": "304001", "oid": "103:1576575182076", "color": "#262626" }, "geometry": { "type": "Point", "coordinates": [ -69.960938, -23.725012 ] } }
{ "type": "Feature", "tippecanoe": { "layer": "2AFCA6F4F8D01583918013671", "minzoom": 2, "maxzoom": 8 }, "properties": { "halo": 0.8, "title": "阿拉米托文化", "fontsize": 12, "tyid": "304002", "oid": "103:1576575182191", "color": "#262626" }, "geometry": { "type": "Point", "coordinates": [ -67.851562, -26.588527 ] } }
{ "type": "Feature", "tippecanoe": { "layer": "2AFCA6F4F8D01583918013671", "minzoom": 2, "maxzoom": 8 }, "properties": { "halo": 0.8, "title": "埃尔莫尔文化", "fontsize": 12, "tyid": "304002", "oid": "103:1576575182203", "color": "#262626" }, "geometry": { "type": "Point", "coordinates": [ -70.927734, -30.675715 ] } }
{ "type": "Feature", "tippecanoe": { "layer": "2AFCA6F4F8D01583918013671", "minzoom": 2, "maxzoom": 8 }, "properties": { "halo": 0.8, "title": "安西尔塔文化", "fontsize": 12, "tyid": "304002", "oid": "103:1576575182414", "color": "#262626" }, "geometry": { "type": "Point", "coordinates": [ -68.818359, -31.353637 ] } }
{ "type": "Feature", "tippecanoe": { "layer": "2AFCA6F4F8D01583918013671", "minzoom": 2, "maxzoom": 8 }, "properties": { "halo": 0.8, "title": "巴托文化", "fontsize": 12, "tyid": "304002", "oid": "103:1576575182170", "color": "#262626" }, "geometry": { "type": "Point", "coordinates": [ -70.839844, -33.431441 ] } }
{ "type": "Feature", "tippecanoe": { "layer": "2AFCA6F4F8D01583918013671", "minzoom": 2, "maxzoom": 8 }, "properties": { "halo": 0.8, "title": "马普切人", "fontsize": 12, "tyid": "304001", "oid": "103:1576575182351", "color": "#262626" }, "geometry": { "type": "Point", "coordinates": [ -71.455078, -38.959409 ] } }
{ "type": "Feature", "tippecanoe": { "layer": "2AFCA6F4F8D01583918013671", "minzoom": 2, "maxzoom": 8 }, "properties": { "halo": 0.8, "title": "希德拉里卡文化", "fontsize": 12, "tyid": "304002", "oid": "103:1576575182407", "color": "#262626" }, "geometry": { "type": "Point", "coordinates": [ -66.005859, -12.297068 ] } }
{ "type": "Feature", "tippecanoe": { "layer": "2AFCA6F4F8D01583918013671", "minzoom": 2, "maxzoom": 8 }, "properties": { "halo": 0.8, "title": "摩克索人", "fontsize": 12, "tyid": "304001", "oid": "103:1576575182201", "color": "#262626" }, "geometry": { "type": "Point", "coordinates": [ -65.830078, -13.923404 ] } }
{ "type": "Feature", "tippecanoe": { "layer": "2AFCA6F4F8D01583918013671", "minzoom": 2, "maxzoom": 8 }, "properties": { "halo": 0.8, "title": "瓦卡拉尼文化", "fontsize": 12, "tyid": "304002", "oid": "103:1576575182473", "color": "#262626" }, "geometry": { "type": "Point", "coordinates": [ -64.951172, -17.811456 ] } }
{ "type": "Feature", "tippecanoe": { "layer": "2AFCA6F4F8D01583918013671", "minzoom": 2, "maxzoom": 8 }, "properties": { "halo": 0.8, "title": "康多拉瓦西文化", "fontsize": 12, "tyid": "304002", "oid": "103:1576575181935", "color": "#262626" }, "geometry": { "type": "Point", "coordinates": [ -66.708984, -27.293689 ] } }
{ "type": "Feature", "tippecanoe": { "layer": "2AFCA6F4F8D01583918013671", "minzoom": 2, "maxzoom": 8 }, "properties": { "halo": 0.8, "title": "拉斯梅塞德斯文化", "fontsize": 12, "tyid": "304002", "oid": "103:1576575182425", "color": "#262626" }, "geometry": { "type": "Point", "coordinates": [ -63.808594, -27.605671 ] } }
{ "type": "Feature", "tippecanoe": { "layer": "2AFCA6F4F8D01583918013671", "minzoom": 2, "maxzoom": 8 }, "properties": { "halo": 0.8, "title": "查鲁亚人", "fontsize": 12, "tyid": "304001", "oid": "103:1576575182445", "color": "#262626" }, "geometry": { "type": "Point", "coordinates": [ -57.128906, -32.398516 ] } }
{ "type": "Feature", "tippecanoe": { "layer": "2AFCA6F4F8D01583918013671", "minzoom": 2, "maxzoom": 8 }, "properties": { "halo": 0.8, "title": "特胡尔切人", "fontsize": 12, "tyid": "304001", "oid": "103:1576575182424", "color": "#262626" }, "geometry": { "type": "Point", "coordinates": [ -70.751953, -50.176898 ] } }
{ "type": "Feature", "tippecanoe": { "layer": "2AFCA6F4F8D01583918013671", "minzoom": 2, "maxzoom": 8 }, "properties": { "halo": 0.8, "title": "塞尔克南人", "fontsize": 12, "tyid": "304001", "oid": "103:1576575181999", "color": "#262626" }, "geometry": { "type": "Point", "coordinates": [ -68.378906, -53.696706 ] } }
{ "type": "Feature", "tippecanoe": { "layer": "2AFCA6F4F8D01583918013671", "minzoom": 2, "maxzoom": 8 }, "properties": { "halo": 0.8, "title": "雅干人", "fontsize": 12, "tyid": "304001", "oid": "103:1576575181939", "color": "#262626" }, "geometry": { "type": "Point", "coordinates": [ -68.466797, -54.521081 ] } }
{ "type": "Feature", "tippecanoe": { "layer": "2AFCA6F4F8D01583918013671", "minzoom": 2, "maxzoom": 8 }, "properties": { "halo": 0.8, "title": "朱特人", "fontsize": 12, "tyid": "304001", "oid": "103:1576575182204", "color": "#262626" }, "geometry": { "type": "Point", "coordinates": [ 9.316406, 56.267761 ] } }
{ "type": "Feature", "tippecanoe": { "layer": "2AFCA6F4F8D01583918013671", "minzoom": 2, "maxzoom": 8 }, "properties": { "halo": 0.8, "title": "耶阿特人", "fontsize": 12, "tyid": "304001", "oid": "103:1576575181963", "color": "#262626" }, "geometry": { "type": "Point", "coordinates": [ 13.623047, 57.891497 ] } }
{ "type": "Feature", "tippecanoe": { "layer": "2AFCA6F4F8D01583918013671", "minzoom": 2, "maxzoom": 8 }, "properties": { "halo": 0.8, "title": "贝尔盖人", "fontsize": 12, "tyid": "304001", "oid": "103:1576575182169", "color": "#262626" }, "geometry": { "type": "Point", "coordinates": [ 4.833984, 50.569283 ] } }
{ "type": "Feature", "tippecanoe": { "layer": "2AFCA6F4F8D01583918013671", "minzoom": 2, "maxzoom": 8 }, "properties": { "halo": 0.8, "title": "弗里西人", "fontsize": 12, "tyid": "304001", "oid": "103:1576575182095", "color": "#262626" }, "geometry": { "type": "Point", "coordinates": [ 6.503906, 52.696361 ] } }
{ "type": "Feature", "tippecanoe": { "layer": "2AFCA6F4F8D01583918013671", "minzoom": 2, "maxzoom": 8 }, "properties": { "halo": 0.8, "title": "乔西人", "fontsize": 12, "tyid": "304001", "oid": "103:1576575182482", "color": "#262626" }, "geometry": { "type": "Point", "coordinates": [ 8.701172, 53.067627 ] } }
{ "type": "Feature", "tippecanoe": { "layer": "2AFCA6F4F8D01583918013671", "minzoom": 2, "maxzoom": 8 }, "properties": { "halo": 0.8, "title": "萨克森人", "fontsize": 12, "tyid": "304001", "oid": "103:1576575182476", "color": "#262626" }, "geometry": { "type": "Point", "coordinates": [ 9.843750, 54.007769 ] } }
{ "type": "Feature", "tippecanoe": { "layer": "2AFCA6F4F8D01583918013671", "minzoom": 2, "maxzoom": 8 }, "properties": { "halo": 0.8, "title": "比图里日人", "fontsize": 12, "tyid": "304001", "oid": "103:1576575182401", "color": "#262626" }, "geometry": { "type": "Point", "coordinates": [ 2.197266, 46.920255 ] } }
{ "type": "Feature", "tippecanoe": { "layer": "2AFCA6F4F8D01583918013671", "minzoom": 2, "maxzoom": 8 }, "properties": { "halo": 0.8, "title": "勒莫维奇人", "fontsize": 12, "tyid": "304001", "oid": "103:1576575182162", "color": "#262626" }, "geometry": { "type": "Point", "coordinates": [ 1.582031, 45.890008 ] } }
{ "type": "Feature", "tippecanoe": { "layer": "2AFCA6F4F8D01583918013671", "minzoom": 2, "maxzoom": 8 }, "properties": { "halo": 0.8, "title": "埃杜人", "fontsize": 12, "tyid": "304001", "oid": "103:1576575182124", "color": "#262626" }, "geometry": { "type": "Point", "coordinates": [ 4.130859, 46.920255 ] } }
{ "type": "Feature", "tippecanoe": { "layer": "2AFCA6F4F8D01583918013671", "minzoom": 2, "maxzoom": 8 }, "properties": { "halo": 0.8, "title": "阿尔维尼人", "fontsize": 12, "tyid": "304001", "oid": "103:1576575182166", "color": "#262626" }, "geometry": { "type": "Point", "coordinates": [ 3.076172, 45.583290 ] } }
{ "type": "Feature", "tippecanoe": { "layer": "2AFCA6F4F8D01583918013671", "minzoom": 2, "maxzoom": 8 }, "properties": { "halo": 0.8, "title": "色加尼人", "fontsize": 12, "tyid": "304001", "oid": "103:1576575182094", "color": "#262626" }, "geometry": { "type": "Point", "coordinates": [ 5.976562, 47.219568 ] } }
{ "type": "Feature", "tippecanoe": { "layer": "2AFCA6F4F8D01583918013671", "minzoom": 2, "maxzoom": 8 }, "properties": { "halo": 0.8, "title": "赫尔维蒂人", "fontsize": 12, "tyid": "304001", "oid": "103:1576575182483", "color": "#262626" }, "geometry": { "type": "Point", "coordinates": [ 7.207031, 46.920255 ] } }
{ "type": "Feature", "tippecanoe": { "layer": "2AFCA6F4F8D01583918013671", "minzoom": 2, "maxzoom": 8 }, "properties": { "halo": 0.8, "title": "蕾蒂人", "fontsize": 12, "tyid": "304001", "oid": "103:1576575182388", "color": "#262626" }, "geometry": { "type": "Point", "coordinates": [ 11.074219, 46.860191 ] } }
{ "type": "Feature", "tippecanoe": { "layer": "2AFCA6F4F8D01583918013671", "minzoom": 2, "maxzoom": 8 }, "properties": { "halo": 0.8, "title": "利古里亚人", "fontsize": 12, "tyid": "304001", "oid": "103:1576575182053", "color": "#262626" }, "geometry": { "type": "Point", "coordinates": [ 6.591797, 43.897892 ] } }
{ "type": "Feature", "tippecanoe": { "layer": "2AFCA6F4F8D01583918013671", "minzoom": 2, "maxzoom": 8 }, "properties": { "halo": 0.8, "title": "伦巴第人", "fontsize": 12, "tyid": "304001", "oid": "103:1576575182477", "color": "#262626" }, "geometry": { "type": "Point", "coordinates": [ 12.656250, 53.540307 ] } }
{ "type": "Feature", "tippecanoe": { "layer": "2AFCA6F4F8D01583918013671", "minzoom": 2, "maxzoom": 8 }, "properties": { "halo": 0.8, "title": "苏维汇人", "fontsize": 12, "tyid": "304001", "oid": "103:1576575182493", "color": "#262626" }, "geometry": { "type": "Point", "coordinates": [ 11.953125, 50.958427 ] } }
{ "type": "Feature", "tippecanoe": { "layer": "2AFCA6F4F8D01583918013671", "minzoom": 2, "maxzoom": 8 }, "properties": { "halo": 0.8, "title": "卢基人", "fontsize": 12, "tyid": "304001", "oid": "103:1576575182506", "color": "#262626" }, "geometry": { "type": "Point", "coordinates": [ 17.490234, 51.944265 ] } }
{ "type": "Feature", "tippecanoe": { "layer": "2AFCA6F4F8D01583918013671", "minzoom": 2, "maxzoom": 8 }, "properties": { "halo": 0.8, "title": "汪达尔人", "fontsize": 12, "tyid": "304001", "oid": "103:1576575182292", "color": "#262626" }, "geometry": { "type": "Point", "coordinates": [ 19.335938, 50.680797 ] } }
{ "type": "Feature", "tippecanoe": { "layer": "2AFCA6F4F8D01583918013671", "minzoom": 2, "maxzoom": 8 }, "properties": { "halo": 0.8, "title": "伊利里亚人", "fontsize": 12, "tyid": "304001", "oid": "103:1576575182480", "color": "#262626" }, "geometry": { "type": "Point", "coordinates": [ 18.017578, 44.339565 ] } }
{ "type": "Feature", "tippecanoe": { "layer": "2AFCA6F4F8D01583918013671", "minzoom": 2, "maxzoom": 8 }, "properties": { "halo": 0.8, "title": "潘诺尼亚人", "fontsize": 12, "tyid": "304001", "oid": "103:1576575182497", "color": "#262626" }, "geometry": { "type": "Point", "coordinates": [ 20.214844, 44.402392 ] } }
{ "type": "Feature", "tippecanoe": { "layer": "2AFCA6F4F8D01583918013671", "minzoom": 2, "maxzoom": 8 }, "properties": { "halo": 0.8, "title": "达尔达尼亚王国", "fontsize": 12, "tyid": "304000", "oid": "103:1576575182499", "color": "#202020" }, "geometry": { "type": "Point", "coordinates": [ 21.445312, 42.617791 ] } }
{ "type": "Feature", "tippecanoe": { "layer": "2AFCA6F4F8D01583918013671", "minzoom": 2, "maxzoom": 8 }, "properties": { "halo": 0.8, "title": "古爱沙尼亚人", "fontsize": 12, "tyid": "304001", "oid": "103:1576575182172", "color": "#262626" }, "geometry": { "type": "Point", "coordinates": [ 25.576172, 58.995311 ] } }
{ "type": "Feature", "tippecanoe": { "layer": "2AFCA6F4F8D01583918013671", "minzoom": 2, "maxzoom": 8 }, "properties": { "halo": 0.8, "title": "利沃尼亚人", "fontsize": 12, "tyid": "304001", "oid": "103:1576575182023", "color": "#262626" }, "geometry": { "type": "Point", "coordinates": [ 25.839844, 58.170702 ] } }
{ "type": "Feature", "tippecanoe": { "layer": "2AFCA6F4F8D01583918013671", "minzoom": 2, "maxzoom": 8 }, "properties": { "halo": 0.8, "title": "古拉脱维亚人", "fontsize": 12, "tyid": "304001", "oid": "103:1576575182199", "color": "#262626" }, "geometry": { "type": "Point", "coordinates": [ 26.630859, 56.848972 ] } }
{ "type": "Feature", "tippecanoe": { "layer": "2AFCA6F4F8D01583918013671", "minzoom": 2, "maxzoom": 8 }, "properties": { "halo": 0.8, "title": "沃茨人", "fontsize": 12, "tyid": "304001", "oid": "103:1576575182440", "color": "#262626" }, "geometry": { "type": "Point", "coordinates": [ 29.794922, 59.040555 ] } }
{ "type": "Feature", "tippecanoe": { "layer": "2AFCA6F4F8D01583918013671", "minzoom": 2, "maxzoom": 8 }, "properties": { "halo": 0.8, "title": "奥德里西亚王国", "fontsize": 12, "tyid": "304000", "oid": "103:1576575182298", "color": "#202020" }, "geometry": { "type": "Point", "coordinates": [ 25.136719, 42.032974 ] } }
{ "type": "Feature", "tippecanoe": { "layer": "2AFCA6F4F8D01583918013671", "minzoom": 2, "maxzoom": 8 }, "properties": { "halo": 0.8, "title": "巴斯塔奈人", "fontsize": 12, "tyid": "304001", "oid": "103:1576575182520", "color": "#262626" }, "geometry": { "type": "Point", "coordinates": [ 29.707031, 47.754098 ] } }
{ "type": "Feature", "tippecanoe": { "layer": "2AFCA6F4F8D01583918013671", "minzoom": 2, "maxzoom": 8 }, "properties": { "halo": 0.8, "title": "埃阿热格人", "fontsize": 12, "tyid": "304001", "oid": "103:1576575182398", "color": "#262626" }, "geometry": { "type": "Point", "coordinates": [ 31.728516, 48.574790 ] } }
{ "type": "Feature", "tippecanoe": { "layer": "2AFCA6F4F8D01583918013671", "minzoom": 2, "maxzoom": 8 }, "properties": { "halo": 0.8, "title": "斯基泰人", "fontsize": 12, "tyid": "304001", "oid": "103:1576575182299", "color": "#262626" }, "geometry": { "type": "Point", "coordinates": [ 33.925781, 46.498392 ] } }
{ "type": "Feature", "tippecanoe": { "layer": "2AFCA6F4F8D01583918013671", "minzoom": 2, "maxzoom": 8 }, "properties": { "halo": 0.8, "title": "罗克索拉尼人", "fontsize": 12, "tyid": "304001", "oid": "103:1576575182112", "color": "#262626" }, "geometry": { "type": "Point", "coordinates": [ 39.111328, 48.341646 ] } }
{ "type": "Feature", "tippecanoe": { "layer": "2AFCA6F4F8D01583918013671", "minzoom": 2, "maxzoom": 8 }, "properties": { "halo": 0.8, "title": "梅田人", "fontsize": 12, "tyid": "304001", "oid": "103:1576575182403", "color": "#262626" }, "geometry": { "type": "Point", "coordinates": [ 38.144531, 45.644768 ] } }
{ "type": "Feature", "tippecanoe": { "layer": "2AFCA6F4F8D01583918013671", "minzoom": 2, "maxzoom": 8 }, "properties": { "halo": 0.8, "title": "西雷斯人", "fontsize": 12, "tyid": "304001", "oid": "103:1576575182102", "color": "#262626" }, "geometry": { "type": "Point", "coordinates": [ 41.396484, 45.644768 ] } }
{ "type": "Feature", "tippecanoe": { "layer": "2AFCA6F4F8D01583918013671", "minzoom": 2, "maxzoom": 8 }, "properties": { "halo": 0.8, "title": "切尔克斯人", "fontsize": 12, "tyid": "304001", "oid": "103:1576575182195", "color": "#262626" }, "geometry": { "type": "Point", "coordinates": [ 42.011719, 43.707594 ] } }
{ "type": "Feature", "tippecanoe": { "layer": "2AFCA6F4F8D01583918013671", "minzoom": 2, "maxzoom": 8 }, "properties": { "halo": 0.8, "title": "科尔基斯王国", "fontsize": 12, "tyid": "304000", "oid": "103:1576575182116", "color": "#202020" }, "geometry": { "type": "Point", "coordinates": [ 42.451172, 42.617791 ] } }
{ "type": "Feature", "tippecanoe": { "layer": "2AFCA6F4F8D01583918013671", "minzoom": 2, "maxzoom": 8 }, "properties": { "halo": 0.8, "title": "高加索伊比利亚王国", "fontsize": 12, "tyid": "304000", "oid": "103:1576575182515", "color": "#202020" }, "geometry": { "type": "Point", "coordinates": [ 43.769531, 41.574361 ] } }
{ "type": "Feature", "tippecanoe": { "layer": "2AFCA6F4F8D01583918013671", "minzoom": 2, "maxzoom": 8 }, "properties": { "halo": 0.8, "title": "毛里塔尼亚王国", "fontsize": 12, "tyid": "304000", "oid": "103:1576575182084", "color": "#202020" }, "geometry": { "type": "Point", "coordinates": [ 2.988281, 36.031332 ] } }
{ "type": "Feature", "tippecanoe": { "layer": "2AFCA6F4F8D01583918013671", "minzoom": 2, "maxzoom": 8 }, "properties": { "halo": 0.8, "title": "东努米底亚王国", "fontsize": 12, "tyid": "304000", "oid": "103:1576575181993", "color": "#202020" }, "geometry": { "type": "Point", "coordinates": [ 7.470703, 35.746512 ] } }
{ "type": "Feature", "tippecanoe": { "layer": "2AFCA6F4F8D01583918013671", "minzoom": 2, "maxzoom": 8 }, "properties": { "halo": 0.8, "title": "加拉曼特王国", "fontsize": 12, "tyid": "304000", "oid": "103:1576575182412", "color": "#202020" }, "geometry": { "type": "Point", "coordinates": [ 13.886719, 26.902477 ] } }
{ "type": "Feature", "tippecanoe": { "layer": "2AFCA6F4F8D01583918013671", "minzoom": 2, "maxzoom": 8 }, "properties": { "halo": 0.8, "title": "约鲁巴人", "fontsize": 12, "tyid": "304001", "oid": "103:1576575182384", "color": "#262626" }, "geometry": { "type": "Point", "coordinates": [ 3.427734, 7.536764 ] } }
{ "type": "Feature", "tippecanoe": { "layer": "2AFCA6F4F8D01583918013671", "minzoom": 2, "maxzoom": 8 }, "properties": { "halo": 0.8, "title": "伊博人", "fontsize": 12, "tyid": "304001", "oid": "103:1576575182337", "color": "#262626" }, "geometry": { "type": "Point", "coordinates": [ 7.998047, 5.965754 ] } }
{ "type": "Feature", "tippecanoe": { "layer": "2AFCA6F4F8D01583918013671", "minzoom": 2, "maxzoom": 8 }, "properties": { "halo": 0.8, "title": "加拉提亚王国", "fontsize": 12, "tyid": "304000", "oid": "103:1576575182188", "color": "#202020" }, "geometry": { "type": "Point", "coordinates": [ 33.398438, 39.774769 ] } }
{ "type": "Feature", "tippecanoe": { "layer": "2AFCA6F4F8D01583918013671", "minzoom": 2, "maxzoom": 8 }, "properties": { "halo": 0.8, "title": "卡帕多西亚王国", "fontsize": 12, "tyid": "304000", "oid": "103:1576575182189", "color": "#202020" }, "geometry": { "type": "Point", "coordinates": [ 35.771484, 38.616870 ] } }
{ "type": "Feature", "tippecanoe": { "layer": "2AFCA6F4F8D01583918013671", "minzoom": 2, "maxzoom": 8 }, "properties": { "halo": 0.8, "title": "本都王国", "fontsize": 12, "tyid": "304000", "oid": "103:1576575182184", "color": "#202020" }, "geometry": { "type": "Point", "coordinates": [ 36.914062, 40.580585 ] } }
{ "type": "Feature", "tippecanoe": { "layer": "2AFCA6F4F8D01583918013671", "minzoom": 2, "maxzoom": 8 }, "properties": { "halo": 0.8, "title": "小亚美尼亚王国", "fontsize": 12, "tyid": "304000", "oid": "103:1576575182100", "color": "#202020" }, "geometry": { "type": "Point", "coordinates": [ 39.111328, 40.111689 ] } }
{ "type": "Feature", "tippecanoe": { "layer": "2AFCA6F4F8D01583918013671", "minzoom": 2, "maxzoom": 8 }, "properties": { "halo": 0.8, "title": "奥斯若恩王国", "fontsize": 12, "tyid": "304000", "oid": "103:1576575181980", "color": "#202020" }, "geometry": { "type": "Point", "coordinates": [ 38.759766, 36.949892 ] } }
{ "type": "Feature", "tippecanoe": { "layer": "2AFCA6F4F8D01583918013671", "minzoom": 2, "maxzoom": 8 }, "properties": { "halo": 0.8, "title": "帕尔米拉酋长国", "fontsize": 12, "tyid": "304000", "oid": "103:1576575182065", "color": "#202020" }, "geometry": { "type": "Point", "coordinates": [ 38.583984, 34.813803 ] } }
{ "type": "Feature", "tippecanoe": { "layer": "2AFCA6F4F8D01583918013671", "minzoom": 2, "maxzoom": 8 }, "properties": { "halo": 0.8, "title": "阿迪亚波纳王国", "fontsize": 12, "tyid": "304000", "oid": "103:1576575182302", "color": "#202020" }, "geometry": { "type": "Point", "coordinates": [ 43.945312, 36.597889 ] } }
{ "type": "Feature", "tippecanoe": { "layer": "2AFCA6F4F8D01583918013671", "minzoom": 2, "maxzoom": 8 }, "properties": { "halo": 0.8, "title": "纳巴泰王国", "fontsize": 12, "tyid": "304000", "oid": "103:1576575182014", "color": "#202020" }, "geometry": { "type": "Point", "coordinates": [ 35.859375, 29.535230 ] } }
{ "type": "Feature", "tippecanoe": { "layer": "2AFCA6F4F8D01583918013671", "minzoom": 2, "maxzoom": 8 }, "properties": { "halo": 0.8, "title": "利黑延王国", "fontsize": 12, "tyid": "304000", "oid": "103:1576575181968", "color": "#202020" }, "geometry": { "type": "Point", "coordinates": [ 39.199219, 25.720735 ] } }
{ "type": "Feature", "tippecanoe": { "layer": "2AFCA6F4F8D01583918013671", "minzoom": 2, "maxzoom": 8 }, "properties": { "halo": 0.8, "title": "布雷米耶国", "fontsize": 12, "tyid": "304001", "oid": "103:1576575182075", "color": "#262626" }, "geometry": { "type": "Point", "coordinates": [ 34.980469, 21.453069 ] } }
{ "type": "Feature", "tippecanoe": { "layer": "2AFCA6F4F8D01583918013671", "minzoom": 2, "maxzoom": 8 }, "properties": { "halo": 0.8, "title": "贝扎人", "fontsize": 12, "tyid": "304001", "oid": "103:1576575182028", "color": "#262626" }, "geometry": { "type": "Point", "coordinates": [ 35.771484, 16.383391 ] } }
{ "type": "Feature", "tippecanoe": { "layer": "2AFCA6F4F8D01583918013671", "minzoom": 2, "maxzoom": 8 }, "properties": { "halo": 0.8, "title": "原始-阿克苏姆铁器时代", "fontsize": 12, "tyid": "304002", "oid": "103:1576575182241", "color": "#262626" }, "geometry": { "type": "Point", "coordinates": [ 39.111328, 13.923404 ] } }
{ "type": "Feature", "tippecanoe": { "layer": "2AFCA6F4F8D01583918013671", "minzoom": 2, "maxzoom": 8 }, "properties": { "halo": 0.8, "title": "肯德部落", "fontsize": 12, "tyid": "304001", "oid": "103:1576575182288", "color": "#262626" }, "geometry": { "type": "Point", "coordinates": [ 44.736328, 19.642588 ] } }
{ "type": "Feature", "tippecanoe": { "layer": "2AFCA6F4F8D01583918013671", "minzoom": 2, "maxzoom": 8 }, "properties": { "halo": 0.8, "title": "高原诸小王国", "fontsize": 12, "tyid": "304002", "oid": "103:1576575182390", "color": "#262626" }, "geometry": { "type": "Point", "coordinates": [ 41.835938, 12.726084 ] } }
{ "type": "Feature", "tippecanoe": { "layer": "2AFCA6F4F8D01583918013671", "minzoom": 2, "maxzoom": 8 }, "properties": { "halo": 0.8, "title": "迈因王国", "fontsize": 12, "tyid": "304000", "oid": "103:1576575181959", "color": "#202020" }, "geometry": { "type": "Point", "coordinates": [ 44.824219, 16.299051 ] } }
{ "type": "Feature", "tippecanoe": { "layer": "2AFCA6F4F8D01583918013671", "minzoom": 2, "maxzoom": 8 }, "properties": { "halo": 0.8, "title": "塞巴王国", "fontsize": 12, "tyid": "304000", "oid": "103:1576575182449", "color": "#202020" }, "geometry": { "type": "Point", "coordinates": [ 44.033203, 15.114553 ] } }
{ "type": "Feature", "tippecanoe": { "layer": "2AFCA6F4F8D01583918013671", "minzoom": 2, "maxzoom": 8 }, "properties": { "halo": 0.8, "title": "派诺博尔斯基文化", "fontsize": 12, "tyid": "304002", "oid": "103:1576575182469", "color": "#262626" }, "geometry": { "type": "Point", "coordinates": [ 50.449219, 56.897004 ] } }
{ "type": "Feature", "tippecanoe": { "layer": "2AFCA6F4F8D01583918013671", "minzoom": 2, "maxzoom": 8 }, "properties": { "halo": 0.8, "title": "塞迦人", "fontsize": 12, "tyid": "304001", "oid": "103:1576575182238", "color": "#262626" }, "geometry": { "type": "Point", "coordinates": [ 57.656250, 42.553080 ] } }
{ "type": "Feature", "tippecanoe": { "layer": "2AFCA6F4F8D01583918013671", "minzoom": 2, "maxzoom": 8 }, "properties": { "halo": 0.8, "title": "驩潜国", "fontsize": 12, "tyid": "304000", "oid": "103:1576575182289", "color": "#202020" }, "geometry": { "type": "Point", "coordinates": [ 59.765625, 42.488302 ] } }
{ "type": "Feature", "tippecanoe": { "layer": "2AFCA6F4F8D01583918013671", "minzoom": 2, "maxzoom": 8 }, "properties": { "halo": 0.8, "title": "龟兹国", "fontsize": 12, "tyid": "304000", "oid": "103:1576575182090", "color": "#202020" }, "geometry": { "type": "Point", "coordinates": [ 82.792969, 41.442726 ] } }
{ "type": "Feature", "tippecanoe": { "layer": "2AFCA6F4F8D01583918013671", "minzoom": 2, "maxzoom": 8 }, "properties": { "halo": 0.8, "title": "车师后国", "fontsize": 12, "tyid": "304000", "oid": "103:1576575181902", "color": "#202020" }, "geometry": { "type": "Point", "coordinates": [ 89.912109, 43.771094 ] } }
{ "type": "Feature", "tippecanoe": { "layer": "2AFCA6F4F8D01583918013671", "minzoom": 2, "maxzoom": 8 }, "properties": { "halo": 0.8, "title": "危须国", "fontsize": 12, "tyid": "304000", "oid": "103:1576575182421", "color": "#202020" }, "geometry": { "type": "Point", "coordinates": [ 87.363281, 42.423457 ] } }
{ "type": "Feature", "tippecanoe": { "layer": "2AFCA6F4F8D01583918013671", "minzoom": 2, "maxzoom": 8 }, "properties": { "halo": 0.8, "title": "车师前国", "fontsize": 12, "tyid": "304000", "oid": "103:1576575181904", "color": "#202020" }, "geometry": { "type": "Point", "coordinates": [ 89.736328, 43.004647 ] } }
{ "type": "Feature", "tippecanoe": { "layer": "2AFCA6F4F8D01583918013671", "minzoom": 2, "maxzoom": 8 }, "properties": { "halo": 0.8, "title": "墨山国", "fontsize": 12, "tyid": "304000", "oid": "103:1576575182178", "color": "#202020" }, "geometry": { "type": "Point", "coordinates": [ 88.593750, 41.310824 ] } }
{ "type": "Feature", "tippecanoe": { "layer": "2AFCA6F4F8D01583918013671", "minzoom": 2, "maxzoom": 8 }, "properties": { "halo": 0.8, "title": "高加索阿尔巴尼亚王国", "fontsize": 12, "tyid": "304000", "oid": "103:1576575182368", "color": "#202020" }, "geometry": { "type": "Point", "coordinates": [ 48.076172, 40.580585 ] } }
{ "type": "Feature", "tippecanoe": { "layer": "2AFCA6F4F8D01583918013671", "minzoom": 2, "maxzoom": 8 }, "properties": { "halo": 0.8, "title": "阿特罗帕特尼王国", "fontsize": 12, "tyid": "304000", "oid": "103:1576575181932", "color": "#202020" }, "geometry": { "type": "Point", "coordinates": [ 47.900391, 37.996163 ] } }
{ "type": "Feature", "tippecanoe": { "layer": "2AFCA6F4F8D01583918013671", "minzoom": 2, "maxzoom": 8 }, "properties": { "halo": 0.8, "title": "查拉塞尼王国", "fontsize": 12, "tyid": "304000", "oid": "103:1576575182307", "color": "#202020" }, "geometry": { "type": "Point", "coordinates": [ 47.460938, 31.278551 ] } }
{ "type": "Feature", "tippecanoe": { "layer": "2AFCA6F4F8D01583918013671", "minzoom": 2, "maxzoom": 8 }, "properties": { "halo": 0.8, "title": "埃利迈斯王国", "fontsize": 12, "tyid": "304000", "oid": "103:1576575182458", "color": "#202020" }, "geometry": { "type": "Point", "coordinates": [ 49.130859, 31.653381 ] } }
{ "type": "Feature", "tippecanoe": { "layer": "2AFCA6F4F8D01583918013671", "minzoom": 2, "maxzoom": 8 }, "properties": { "halo": 0.8, "title": "波西斯", "fontsize": 12, "tyid": "304000", "oid": "103:1576575182109", "color": "#202020" }, "geometry": { "type": "Point", "coordinates": [ 53.173828, 28.998532 ] } }
{ "type": "Feature", "tippecanoe": { "layer": "2AFCA6F4F8D01583918013671", "minzoom": 2, "maxzoom": 8 }, "properties": { "halo": 0.8, "title": "奥桑王国", "fontsize": 12, "tyid": "304000", "oid": "103:1576575182528", "color": "#202020" }, "geometry": { "type": "Point", "coordinates": [ 45.966797, 13.923404 ] } }
{ "type": "Feature", "tippecanoe": { "layer": "2AFCA6F4F8D01583918013671", "minzoom": 2, "maxzoom": 8 }, "properties": { "halo": 0.8, "title": "阿德王国", "fontsize": 12, "tyid": "304000", "oid": "103:1576575182315", "color": "#202020" }, "geometry": { "type": "Point", "coordinates": [ 52.382812, 18.646245 ] } }
{ "type": "Feature", "tippecanoe": { "layer": "2AFCA6F4F8D01583918013671", "minzoom": 2, "maxzoom": 8 }, "properties": { "halo": 0.8, "title": "哈德拉毛王国", "fontsize": 12, "tyid": "304000", "oid": "103:1576575182313", "color": "#202020" }, "geometry": { "type": "Point", "coordinates": [ 50.976562, 16.299051 ] } }
{ "type": "Feature", "tippecanoe": { "layer": "2AFCA6F4F8D01583918013671", "minzoom": 2, "maxzoom": 8 }, "properties": { "halo": 0.8, "title": "大宛国", "fontsize": 12, "tyid": "304000", "oid": "103:1576575182333", "color": "#202020" }, "geometry": { "type": "Point", "coordinates": [ 71.455078, 40.713956 ] } }
{ "type": "Feature", "tippecanoe": { "layer": "2AFCA6F4F8D01583918013671", "minzoom": 2, "maxzoom": 8 }, "properties": { "halo": 0.8, "title": "休循国", "fontsize": 12, "tyid": "304000", "oid": "103:1576575181944", "color": "#202020" }, "geometry": { "type": "Point", "coordinates": [ 72.773438, 39.504041 ] } }
{ "type": "Feature", "tippecanoe": { "layer": "2AFCA6F4F8D01583918013671", "minzoom": 2, "maxzoom": 8 }, "properties": { "halo": 0.8, "title": "罽宾国", "fontsize": 12, "tyid": "304000", "oid": "103:1576575182340", "color": "#202020" }, "geometry": { "type": "Point", "coordinates": [ 72.773438, 34.885931 ] } }
{ "type": "Feature", "tippecanoe": { "layer": "2AFCA6F4F8D01583918013671", "minzoom": 2, "maxzoom": 8 }, "properties": { "halo": 0.8, "title": "捐毒国", "fontsize": 12, "tyid": "304000", "oid": "103:1576575182387", "color": "#202020" }, "geometry": { "type": "Point", "coordinates": [ 74.970703, 39.707187 ] } }
{ "type": "Feature", "tippecanoe": { "layer": "2AFCA6F4F8D01583918013671", "minzoom": 2, "maxzoom": 8 }, "properties": { "halo": 0.8, "title": "无雷国", "fontsize": 12, "tyid": "304000", "oid": "103:1576575182235", "color": "#202020" }, "geometry": { "type": "Point", "coordinates": [ 73.476562, 38.065392 ] } }
{ "type": "Feature", "tippecanoe": { "layer": "2AFCA6F4F8D01583918013671", "minzoom": 2, "maxzoom": 8 }, "properties": { "halo": 0.8, "title": "尉头国", "fontsize": 12, "tyid": "304000", "oid": "103:1576575182138", "color": "#202020" }, "geometry": { "type": "Point", "coordinates": [ 78.222656, 40.313043 ] } }
{ "type": "Feature", "tippecanoe": { "layer": "2AFCA6F4F8D01583918013671", "minzoom": 2, "maxzoom": 8 }, "properties": { "halo": 0.8, "title": "莎车国", "fontsize": 12, "tyid": "304000", "oid": "103:1576575182171", "color": "#202020" }, "geometry": { "type": "Point", "coordinates": [ 77.431641, 38.822591 ] } }
{ "type": "Feature", "tippecanoe": { "layer": "2AFCA6F4F8D01583918013671", "minzoom": 2, "maxzoom": 8 }, "properties": { "halo": 0.8, "title": "西夜国", "fontsize": 12, "tyid": "304000", "oid": "103:1576575182438", "color": "#202020" }, "geometry": { "type": "Point", "coordinates": [ 78.046875, 36.949892 ] } }
{ "type": "Feature", "tippecanoe": { "layer": "2AFCA6F4F8D01583918013671", "minzoom": 2, "maxzoom": 8 }, "properties": { "halo": 0.8, "title": "乌秅国", "fontsize": 12, "tyid": "304000", "oid": "103:1576575181954", "color": "#202020" }, "geometry": { "type": "Point", "coordinates": [ 76.728516, 36.385913 ] } }
{ "type": "Feature", "tippecanoe": { "layer": "2AFCA6F4F8D01583918013671", "minzoom": 2, "maxzoom": 8 }, "properties": { "halo": 0.8, "title": "古宁陀王国", "fontsize": 12, "tyid": "304000", "oid": "103:1576575182459", "color": "#202020" }, "geometry": { "type": "Point", "coordinates": [ 76.992188, 31.728167 ] } }
{ "type": "Feature", "tippecanoe": { "layer": "2AFCA6F4F8D01583918013671", "minzoom": 2, "maxzoom": 8 }, "properties": { "halo": 0.8, "title": "姑墨国", "fontsize": 12, "tyid": "304000", "oid": "103:1576575182077", "color": "#202020" }, "geometry": { "type": "Point", "coordinates": [ 80.683594, 40.847060 ] } }
{ "type": "Feature", "tippecanoe": { "layer": "2AFCA6F4F8D01583918013671", "minzoom": 2, "maxzoom": 8 }, "properties": { "halo": 0.8, "title": "于阗国", "fontsize": 12, "tyid": "304000", "oid": "103:1576575181917", "color": "#202020" }, "geometry": { "type": "Point", "coordinates": [ 80.156250, 38.272689 ] } }
{ "type": "Feature", "tippecanoe": { "layer": "2AFCA6F4F8D01583918013671", "minzoom": 2, "maxzoom": 8 }, "properties": { "halo": 0.8, "title": "扜弥国", "fontsize": 12, "tyid": "304000", "oid": "103:1576575181916", "color": "#202020" }, "geometry": { "type": "Point", "coordinates": [ 81.914062, 38.616870 ] } }
{ "type": "Feature", "tippecanoe": { "layer": "2AFCA6F4F8D01583918013671", "minzoom": 2, "maxzoom": 8 }, "properties": { "halo": 0.8, "title": "精绝国", "fontsize": 12, "tyid": "304000", "oid": "103:1576575182151", "color": "#202020" }, "geometry": { "type": "Point", "coordinates": [ 82.880859, 37.509726 ] } }
{ "type": "Feature", "tippecanoe": { "layer": "2AFCA6F4F8D01583918013671", "minzoom": 2, "maxzoom": 8 }, "properties": { "halo": 0.8, "title": "且末国", "fontsize": 12, "tyid": "304000", "oid": "103:1576575181955", "color": "#202020" }, "geometry": { "type": "Point", "coordinates": [ 85.517578, 38.134557 ] } }
{ "type": "Feature", "tippecanoe": { "layer": "2AFCA6F4F8D01583918013671", "minzoom": 2, "maxzoom": 8 }, "properties": { "halo": 0.8, "title": "鄯善国", "fontsize": 12, "tyid": "304000", "oid": "103:1576575182465", "color": "#202020" }, "geometry": { "type": "Point", "coordinates": [ 88.945312, 39.774769 ] } }
{ "type": "Feature", "tippecanoe": { "layer": "2AFCA6F4F8D01583918013671", "minzoom": 2, "maxzoom": 8 }, "properties": { "halo": 0.8, "title": "般遮罗国", "fontsize": 12, "tyid": "304000", "oid": "103:1576575181898", "color": "#202020" }, "geometry": { "type": "Point", "coordinates": [ 79.541016, 28.690588 ] } }
{ "type": "Feature", "tippecanoe": { "layer": "2AFCA6F4F8D01583918013671", "minzoom": 2, "maxzoom": 8 }, "properties": { "halo": 0.8, "title": "克拉底王国", "fontsize": 12, "tyid": "304000", "oid": "103:1576575181920", "color": "#202020" }, "geometry": { "type": "Point", "coordinates": [ 84.199219, 28.071980 ] } }
{ "type": "Feature", "tippecanoe": { "layer": "2AFCA6F4F8D01583918013671", "minzoom": 2, "maxzoom": 8 }, "properties": { "halo": 0.8, "title": "德瓦王朝", "fontsize": 12, "tyid": "304000", "oid": "103:1576575182132", "color": "#202020" }, "geometry": { "type": "Point", "coordinates": [ 82.001953, 26.902477 ] } }
{ "type": "Feature", "tippecanoe": { "layer": "2AFCA6F4F8D01583918013671", "minzoom": 2, "maxzoom": 8 }, "properties": { "halo": 0.8, "title": "阿西亚曼王国", "fontsize": 12, "tyid": "304000", "oid": "103:1576575182092", "color": "#202020" }, "geometry": { "type": "Point", "coordinates": [ 76.640625, 13.068777 ] } }
{ "type": "Feature", "tippecanoe": { "layer": "2AFCA6F4F8D01583918013671", "minzoom": 2, "maxzoom": 8 }, "properties": { "halo": 0.8, "title": "哲罗国", "fontsize": 12, "tyid": "304000", "oid": "103:1576575181996", "color": "#202020" }, "geometry": { "type": "Point", "coordinates": [ 76.464844, 10.314919 ] } }
{ "type": "Feature", "tippecanoe": { "layer": "2AFCA6F4F8D01583918013671", "minzoom": 2, "maxzoom": 8 }, "properties": { "halo": 0.8, "title": "潘地亚王国", "fontsize": 12, "tyid": "304000", "oid": "103:1576575181915", "color": "#202020" }, "geometry": { "type": "Point", "coordinates": [ 77.958984, 9.535749 ] } }
{ "type": "Feature", "tippecanoe": { "layer": "2AFCA6F4F8D01583918013671", "minzoom": 2, "maxzoom": 8 }, "properties": { "halo": 0.8, "title": "朱罗国", "fontsize": 12, "tyid": "304000", "oid": "103:1576575182040", "color": "#202020" }, "geometry": { "type": "Point", "coordinates": [ 78.925781, 11.264612 ] } }
{ "type": "Feature", "tippecanoe": { "layer": "2AFCA6F4F8D01583918013671", "minzoom": 2, "maxzoom": 8 }, "properties": { "halo": 0.8, "title": "质多王朝", "fontsize": 12, "tyid": "304000", "oid": "103:1576575181998", "color": "#202020" }, "geometry": { "type": "Point", "coordinates": [ 84.375000, 20.385825 ] } }
{ "type": "Feature", "tippecanoe": { "layer": "2AFCA6F4F8D01583918013671", "minzoom": 2, "maxzoom": 8 }, "properties": { "halo": 0.8, "title": "阿努拉德普勒王国", "fontsize": 12, "tyid": "304000", "oid": "103:1576575181946", "color": "#202020" }, "geometry": { "type": "Point", "coordinates": [ 80.683594, 7.623887 ] } }
{ "type": "Feature", "tippecanoe": { "layer": "2AFCA6F4F8D01583918013671", "minzoom": 2, "maxzoom": 8 }, "properties": { "halo": 0.8, "title": "蒲类后国", "fontsize": 12, "tyid": "304000", "oid": "103:1576575182339", "color": "#202020" }, "geometry": { "type": "Point", "coordinates": [ 92.373047, 43.897892 ] } }
{ "type": "Feature", "tippecanoe": { "layer": "2AFCA6F4F8D01583918013671", "minzoom": 2, "maxzoom": 8 }, "properties": { "halo": 0.8, "title": "蒲类前国", "fontsize": 12, "tyid": "304000", "oid": "103:1576575182179", "color": "#202020" }, "geometry": { "type": "Point", "coordinates": [ 93.515625, 42.747012 ] } }
{ "type": "Feature", "tippecanoe": { "layer": "2AFCA6F4F8D01583918013671", "minzoom": 2, "maxzoom": 8 }, "properties": { "halo": 0.8, "title": "北沃沮", "fontsize": 12, "tyid": "304001", "oid": "103:1576575182334", "color": "#262626" }, "geometry": { "type": "Point", "coordinates": [ 129.111328, 42.098222 ] } }
{ "type": "Feature", "tippecanoe": { "layer": "2AFCA6F4F8D01583918013671", "minzoom": 2, "maxzoom": 8 }, "properties": { "halo": 0.8, "title": "三摩呾吒国", "fontsize": 12, "tyid": "304000", "oid": "103:1576575182168", "color": "#202020" }, "geometry": { "type": "Point", "coordinates": [ 91.054688, 23.725012 ] } }
{ "type": "Feature", "tippecanoe": { "layer": "2AFCA6F4F8D01583918013671", "minzoom": 2, "maxzoom": 8 }, "properties": { "halo": 0.8, "title": "氐人", "fontsize": 12, "tyid": "304001", "oid": "103:1576575181997", "color": "#262626" }, "geometry": { "type": "Point", "coordinates": [ 104.150391, 33.284620 ] } }
{ "type": "Feature", "tippecanoe": { "layer": "2AFCA6F4F8D01583918013671", "minzoom": 2, "maxzoom": 8 }, "properties": { "halo": 0.8, "title": "达雅瓦底王国", "fontsize": 12, "tyid": "304000", "oid": "103:1576575182329", "color": "#202020" }, "geometry": { "type": "Point", "coordinates": [ 93.339844, 20.550509 ] } }
{ "type": "Feature", "tippecanoe": { "layer": "2AFCA6F4F8D01583918013671", "minzoom": 2, "maxzoom": 8 }, "properties": { "halo": 0.8, "title": "室利差呾罗王国", "fontsize": 12, "tyid": "304000", "oid": "103:1576575182249", "color": "#202020" }, "geometry": { "type": "Point", "coordinates": [ 95.537109, 19.228177 ] } }
{ "type": "Feature", "tippecanoe": { "layer": "2AFCA6F4F8D01583918013671", "minzoom": 2, "maxzoom": 8 }, "properties": { "halo": 0.8, "title": "直通王国", "fontsize": 12, "tyid": "304000", "oid": "103:1576575182267", "color": "#202020" }, "geometry": { "type": "Point", "coordinates": [ 95.185547, 16.972741 ] } }
{ "type": "Feature", "tippecanoe": { "layer": "2AFCA6F4F8D01583918013671", "minzoom": 2, "maxzoom": 8 }, "properties": { "halo": 0.8, "title": "骠国", "fontsize": 12, "tyid": "304000", "oid": "103:1576575182529", "color": "#202020" }, "geometry": { "type": "Point", "coordinates": [ 95.712891, 21.207459 ] } }
{ "type": "Feature", "tippecanoe": { "layer": "2AFCA6F4F8D01583918013671", "minzoom": 2, "maxzoom": 8 }, "properties": { "halo": 0.8, "title": "班清文化", "fontsize": 12, "tyid": "304002", "oid": "103:1576575181950", "color": "#262626" }, "geometry": { "type": "Point", "coordinates": [ 103.271484, 17.560247 ] } }
{ "type": "Feature", "tippecanoe": { "layer": "2AFCA6F4F8D01583918013671", "minzoom": 2, "maxzoom": 8 }, "properties": { "halo": 0.8, "title": "蓬斯尼文化", "fontsize": 12, "tyid": "304002", "oid": "103:1576575181945", "color": "#262626" }, "geometry": { "type": "Point", "coordinates": [ 103.535156, 13.410994 ] } }
{ "type": "Feature", "tippecanoe": { "layer": "2AFCA6F4F8D01583918013671", "minzoom": 2, "maxzoom": 8 }, "properties": { "halo": 0.8, "title": "同奈文化", "fontsize": 12, "tyid": "304002", "oid": "103:1576575182210", "color": "#262626" }, "geometry": { "type": "Point", "coordinates": [ 105.468750, 10.055403 ] } }
{ "type": "Feature", "tippecanoe": { "layer": "2AFCA6F4F8D01583918013671", "minzoom": 2, "maxzoom": 8 }, "properties": { "halo": 0.8, "title": "尼格利陀人", "fontsize": 12, "tyid": "304001", "oid": "103:1576575182521", "color": "#262626" }, "geometry": { "type": "Point", "coordinates": [ 101.953125, 4.740675 ] } }
{ "type": "Feature", "tippecanoe": { "layer": "2AFCA6F4F8D01583918013671", "minzoom": 2, "maxzoom": 8 }, "properties": { "halo": 0.8, "title": "马韩", "fontsize": 12, "tyid": "304001", "oid": "103:1576575182492", "color": "#262626" }, "geometry": { "type": "Point", "coordinates": [ 127.089844, 35.889050 ] } }
{ "type": "Feature", "tippecanoe": { "layer": "2AFCA6F4F8D01583918013671", "minzoom": 2, "maxzoom": 8 }, "properties": { "halo": 0.8, "title": "辰韩", "fontsize": 12, "tyid": "304001", "oid": "103:1576575182509", "color": "#262626" }, "geometry": { "type": "Point", "coordinates": [ 128.759766, 36.315125 ] } }
{ "type": "Feature", "tippecanoe": { "layer": "2AFCA6F4F8D01583918013671", "minzoom": 2, "maxzoom": 8 }, "properties": { "halo": 0.8, "title": "倭人诸邦", "fontsize": 12, "tyid": "304002", "oid": "103:1576575182432", "color": "#262626" }, "geometry": { "type": "Point", "coordinates": [ 130.869141, 32.694866 ] } }
{ "type": "Feature", "tippecanoe": { "layer": "2AFCA6F4F8D01583918013671", "minzoom": 2, "maxzoom": 8 }, "properties": { "halo": 0.8, "title": "绳文人", "fontsize": 12, "tyid": "304001", "oid": "103:1576575181952", "color": "#262626" }, "geometry": { "type": "Point", "coordinates": [ 142.558594, 43.389082 ] } }
{ "type": "Feature", "tippecanoe": { "layer": "2AFCA6F4F8D01583918013671", "minzoom": 2, "maxzoom": 8 }, "properties": { "halo": 0.8, "title": "乌莱维文明", "fontsize": 12, "tyid": "304002", "oid": "103:1576575182413", "color": "#262626" }, "geometry": { "type": "Point", "coordinates": [ 29.882812, -2.547988 ] } }
{ "type": "Feature", "tippecanoe": { "layer": "2AFCA6F4F8D01583918013671", "minzoom": 2, "maxzoom": 8 }, "properties": { "halo": 0.8, "title": "艾布兰文化五期", "fontsize": 12, "tyid": "304002", "oid": "103:1576575182026", "color": "#262626" }, "geometry": { "type": "Point", "coordinates": [ 36.474609, -0.175781 ] } }
{ "type": "Feature", "tippecanoe": { "layer": "2AFCA6F4F8D01583918013671", "minzoom": 2, "maxzoom": 8 }, "properties": { "halo": 0.8, "title": "布尼文化", "fontsize": 12, "tyid": "304002", "oid": "103:1576575182328", "color": "#262626" }, "geometry": { "type": "Point", "coordinates": [ 107.226562, -6.751896 ] } }
{ "type": "Feature", "tippecanoe": { "layer": "2AFCA6F4F8D01583918013671", "minzoom": 2, "maxzoom": 8 }, "properties": { "halo": 0.8, "title": "巴拉瓦人", "fontsize": 12, "tyid": "304001", "oid": "103:1576575181909", "color": "#262626" }, "geometry": { "type": "Point", "coordinates": [ 146.513672, -41.967659 ] } }
{ "type": "Feature", "tippecanoe": { "layer": "2AFCA88FE0801583918013700", "minzoom": 2, "maxzoom": 8 }, "properties": { "halo": 1.6, "title": "拉霍亚文化", "fontsize": 12, "tyid": "304002", "oid": "103:1576575181979", "color": "#0056E7" }, "geometry": { "type": "Point", "coordinates": [ -118.916016, 34.597042 ] } }
{ "type": "Feature", "tippecanoe": { "layer": "2AFCA88FE0801583918013700", "minzoom": 2, "maxzoom": 8 }, "properties": { "halo": 1.6, "title": "古普韦布洛人", "fontsize": 12, "tyid": "304001", "oid": "103:1576575182325", "color": "#0056E7" }, "geometry": { "type": "Point", "coordinates": [ -110.126953, 36.949892 ] } }
{ "type": "Feature", "tippecanoe": { "layer": "2AFCA88FE0801583918013700", "minzoom": 2, "maxzoom": 8 }, "properties": { "halo": 1.6, "title": "奇瓦瓦文化", "fontsize": 12, "tyid": "304002", "oid": "103:1576575182308", "color": "#0056E7" }, "geometry": { "type": "Point", "coordinates": [ -107.226562, 32.768800 ] } }
{ "type": "Feature", "tippecanoe": { "layer": "2AFCA88FE0801583918013700", "minzoom": 2, "maxzoom": 8 }, "properties": { "halo": 1.6, "title": "奥沙拉文化", "fontsize": 12, "tyid": "304002", "oid": "103:1576575182261", "color": "#0056E7" }, "geometry": { "type": "Point", "coordinates": [ -106.699219, 37.579413 ] } }
{ "type": "Feature", "tippecanoe": { "layer": "2AFCA88FE0801583918013700", "minzoom": 2, "maxzoom": 8 }, "properties": { "halo": 1.6, "title": "瓜伊库拉人", "fontsize": 12, "tyid": "304001", "oid": "103:1576575182342", "color": "#0056E7" }, "geometry": { "type": "Point", "coordinates": [ -111.269531, 24.846565 ] } }
{ "type": "Feature", "tippecanoe": { "layer": "2AFCA88FE0801583918013700", "minzoom": 2, "maxzoom": 8 }, "properties": { "halo": 1.6, "title": "堪萨斯城霍普韦尔文化", "fontsize": 12, "tyid": "304002", "oid": "103:1576575182212", "color": "#0056E7" }, "geometry": { "type": "Point", "coordinates": [ -94.042969, 39.027719 ] } }
{ "type": "Feature", "tippecanoe": { "layer": "2AFCA88FE0801583918013700", "minzoom": 2, "maxzoom": 8 },