{ "type": "Feature", "tippecanoe": { "layer": "2AFCA7AB61D01583919021586", "minzoom": 2, "maxzoom": 8 }, "properties": { "tyid": "410000", "centroid": "{\"type\":\"Point\",\"coordinates\":[102.890655519,50.32448578]}", "opacity": 1, "oid": "103:1582721307215", "color": "#A11300", "width": 3 }, "geometry": { "type": "MultiLineString", "coordinates": [ [ [ 108.017578, 21.616579 ], [ 106.611328, 22.024546 ], [ 106.523438, 22.512557 ], [ 106.699219, 22.836946 ], [ 105.820312, 22.998852 ], [ 105.205078, 23.402765 ], [ 103.886719, 22.512557 ], [ 103.535156, 22.836946 ], [ 103.183594, 22.105999 ], [ 102.480469, 22.512557 ], [ 101.777344, 21.861499 ], [ 101.689453, 21.207459 ], [ 101.162109, 21.207459 ], [ 100.986328, 21.779905 ], [ 100.195312, 21.534847 ], [ 99.843750, 22.105999 ], [ 99.140625, 22.187405 ], [ 99.228516, 22.917923 ], [ 98.437500, 23.079732 ], [ 98.701172, 23.402765 ], [ 98.349609, 23.966176 ], [ 98.525391, 24.206890 ], [ 97.294922, 23.805450 ], [ 97.470703, 25.324167 ], [ 98.261719, 26.431228 ], [ 98.701172, 26.667096 ], [ 98.613281, 27.605671 ], [ 98.261719, 27.605671 ], [ 98.085938, 28.226970 ], [ 97.558594, 28.536275 ], [ 97.031250, 27.761330 ], [ 96.240234, 28.304381 ], [ 95.625000, 28.304381 ], [ 94.218750, 27.605671 ], [ 93.691406, 27.059126 ], [ 92.988281, 26.902477 ], [ 92.021484, 26.902477 ], [ 92.109375, 27.371767 ], [ 91.494141, 27.605671 ], [ 91.494141, 27.916767 ], [ 90.791016, 28.071980 ] ], [ [ 130.605469, 42.293564 ], [ 130.166016, 42.940339 ], [ 129.814453, 43.004647 ], [ 129.638672, 42.488302 ], [ 129.287109, 42.423457 ], [ 128.847656, 42.032974 ], [ 127.968750, 42.032974 ], [ 128.232422, 41.574361 ], [ 128.056641, 41.442726 ], [ 127.177734, 41.508577 ], [ 126.826172, 41.836828 ], [ 125.947266, 40.913513 ], [ 124.804688, 40.513799 ], [ 124.277344, 40.044438 ] ], [ [ 135.263672, 54.775346 ], [ 132.978516, 54.162434 ], [ 130.517578, 54.110943 ], [ 131.835938, 54.927142 ], [ 131.044922, 55.677584 ], [ 129.462891, 55.776573 ], [ 128.759766, 55.528631 ], [ 127.705078, 55.727110 ], [ 126.123047, 55.627996 ], [ 125.859375, 55.825973 ], [ 124.804688, 55.924586 ], [ 123.134766, 54.775346 ], [ 121.376953, 54.265224 ], [ 121.025391, 54.521081 ], [ 120.234375, 54.162434 ], [ 119.267578, 54.007769 ], [ 119.003906, 53.383328 ], [ 119.179688, 53.120405 ], [ 120.058594, 53.488046 ], [ 121.201172, 53.540307 ], [ 121.376953, 53.383328 ], [ 120.761719, 53.278353 ], [ 119.970703, 52.802761 ], [ 120.058594, 52.589701 ], [ 120.673828, 52.536273 ], [ 120.673828, 51.998410 ], [ 120.058594, 51.672555 ], [ 119.091797, 50.401515 ], [ 119.355469, 50.401515 ], [ 119.267578, 50.120578 ], [ 118.037109, 49.610710 ], [ 116.191406, 50.064192 ], [ 115.312500, 49.951220 ], [ 114.960938, 50.233152 ], [ 114.257812, 50.289339 ], [ 112.675781, 49.496675 ], [ 110.654297, 49.152970 ], [ 108.457031, 49.382373 ], [ 107.929688, 49.724479 ], [ 107.929688, 49.951220 ], [ 107.050781, 50.064192 ], [ 106.523438, 50.345460 ], [ 105.292969, 50.513427 ], [ 103.974609, 50.176898 ], [ 103.271484, 50.233152 ], [ 102.216797, 50.625073 ], [ 102.041016, 51.399206 ], [ 98.964844, 52.106505 ], [ 98.613281, 52.482780 ], [ 98.876953, 52.908902 ], [ 99.140625, 52.961875 ], [ 98.789062, 53.173119 ], [ 98.173828, 53.120405 ], [ 96.767578, 53.800651 ], [ 96.416016, 53.592505 ], [ 94.658203, 53.435719 ], [ 94.394531, 52.961875 ], [ 94.130859, 52.908902 ], [ 93.515625, 52.214339 ], [ 92.812500, 51.890054 ], [ 91.054688, 51.890054 ], [ 90.175781, 52.696361 ], [ 87.802734, 53.383328 ], [ 86.396484, 53.173119 ], [ 86.132812, 52.908902 ], [ 83.056641, 51.618017 ], [ 82.617188, 51.179343 ], [ 83.056641, 50.958427 ], [ 83.232422, 50.513427 ], [ 82.529297, 49.724479 ], [ 82.529297, 49.325122 ], [ 81.298828, 48.690960 ], [ 81.035156, 48.166085 ], [ 79.628906, 47.694974 ], [ 79.453125, 46.800059 ], [ 78.750000, 46.800059 ], [ 78.750000, 46.619261 ], [ 78.574219, 46.800059 ], [ 78.222656, 46.498392 ], [ 77.783203, 46.679594 ], [ 74.531250, 46.800059 ], [ 73.564453, 46.134170 ], [ 73.388672, 45.706179 ], [ 72.070312, 44.964798 ], [ 70.488281, 44.402392 ], [ 69.521484, 43.452919 ], [ 70.927734, 42.293564 ], [ 73.212891, 42.163403 ], [ 73.916016, 41.836828 ], [ 74.003906, 41.574361 ], [ 73.300781, 41.508577 ], [ 73.828125, 41.046217 ], [ 73.212891, 40.847060 ], [ 72.949219, 40.446947 ], [ 73.125000, 40.044438 ], [ 72.773438, 39.842286 ], [ 72.861328, 39.368279 ], [ 72.421875, 39.436193 ], [ 72.070312, 39.095963 ], [ 72.246094, 38.548165 ], [ 71.894531, 38.272689 ], [ 72.158203, 37.649034 ], [ 71.718750, 36.738884 ], [ 73.476562, 37.509726 ], [ 73.740234, 37.439974 ], [ 73.740234, 37.160317 ], [ 74.531250, 37.090240 ], [ 75.673828, 36.385913 ], [ 75.761719, 36.031332 ], [ 74.882812, 35.817813 ], [ 75.322266, 35.173808 ], [ 75.146484, 34.669359 ], [ 76.113281, 33.578015 ], [ 77.080078, 32.990236 ], [ 77.080078, 32.472695 ], [ 77.871094, 31.802893 ], [ 78.662109, 31.728167 ], [ 79.013672, 31.052934 ], [ 79.892578, 30.826781 ], [ 80.683594, 30.145127 ], [ 82.001953, 30.145127 ], [ 83.583984, 29.228890 ], [ 83.935547, 29.305561 ], [ 84.462891, 28.536275 ], [ 85.605469, 28.226970 ], [ 85.869141, 27.916767 ], [ 87.714844, 27.839076 ], [ 88.681641, 28.071980 ], [ 88.945312, 27.215556 ], [ 89.560547, 28.226970 ], [ 90.791016, 28.071980 ] ] ] } }
{ "type": "Feature", "tippecanoe": { "layer": "2AFCA7AB61D01583919021586", "minzoom": 2, "maxzoom": 8 }, "properties": { "tyid": "410000", "centroid": "{\"type\":\"Point\",\"coordinates\":[118.9965612163,11.9748626986]}", "opacity": 1, "oid": "103:1582721307213", "color": "#A11300", "width": 3 }, "geometry": { "type": "MultiLineString", "coordinates": [ [ [ 122.695312, 24.447150 ], [ 122.431641, 23.402765 ] ], [ [ 120.849609, 20.550509 ], [ 121.728516, 21.616579 ] ], [ [ 119.355469, 17.727759 ], [ 119.794922, 18.895893 ] ], [ [ 118.916016, 14.689881 ], [ 118.916016, 16.045813 ] ], [ [ 118.476562, 10.833306 ], [ 119.003906, 12.039321 ] ], [ [ 115.312500, 7.013668 ], [ 116.191406, 8.059230 ] ], [ [ 111.708984, 3.425692 ], [ 112.939453, 3.864255 ] ], [ [ 108.281250, 5.965754 ], [ 108.193359, 7.362467 ] ], [ [ 110.039062, 11.264612 ], [ 110.214844, 12.468760 ] ], [ [ 109.775391, 15.029686 ], [ 109.248047, 16.214675 ] ] ] } }
{ "type": "Feature", "tippecanoe": { "layer": "2AFCA898E7801583919021574", "minzoom": 2, "maxzoom": 8 }, "properties": { "halo": 0.8, "title": "诺顿文化", "fontsize": 12, "tyid": "304002", "oid": "103:1576575143057", "color": "#262626" }, "geometry": { "type": "Point", "coordinates": [ -163.212891, 68.204212 ] } }
{ "type": "Feature", "tippecanoe": { "layer": "2AFCA898E7801583919021574", "minzoom": 2, "maxzoom": 8 }, "properties": { "halo": 0.8, "title": "因纽特人", "fontsize": 12, "tyid": "304001", "oid": "103:1576575142934", "color": "#262626" }, "geometry": { "type": "Point", "coordinates": [ -91.845703, 67.407487 ] } }
{ "type": "Feature", "tippecanoe": { "layer": "2AFCA898E7801583919021574", "minzoom": 2, "maxzoom": 8 }, "properties": { "halo": 0.8, "title": "尤皮克人", "fontsize": 12, "tyid": "304001", "oid": "103:1576575143173", "color": "#262626" }, "geometry": { "type": "Point", "coordinates": [ -156.093750, 62.186014 ] } }
{ "type": "Feature", "tippecanoe": { "layer": "2AFCA898E7801583919021574", "minzoom": 2, "maxzoom": 8 }, "properties": { "halo": 0.8, "title": "因纽皮雅特人", "fontsize": 12, "tyid": "304001", "oid": "103:1576575142571", "color": "#262626" }, "geometry": { "type": "Point", "coordinates": [ -149.501953, 65.219894 ] } }
{ "type": "Feature", "tippecanoe": { "layer": "2AFCA898E7801583919021574", "minzoom": 2, "maxzoom": 8 }, "properties": { "halo": 0.8, "title": "阿留申人", "fontsize": 12, "tyid": "304001", "oid": "103:1576575142645", "color": "#262626" }, "geometry": { "type": "Point", "coordinates": [ -152.226562, 61.312452 ] } }
{ "type": "Feature", "tippecanoe": { "layer": "2AFCA898E7801583919021574", "minzoom": 2, "maxzoom": 8 }, "properties": { "halo": 0.8, "title": "泰萨勒页岩文化", "fontsize": 12, "tyid": "304002", "oid": "103:1576575143027", "color": "#262626" }, "geometry": { "type": "Point", "coordinates": [ -100.458984, 56.848972 ] } }
{ "type": "Feature", "tippecanoe": { "layer": "2AFCA898E7801583919021574", "minzoom": 2, "maxzoom": 8 }, "properties": { "halo": 0.8, "title": "坎贝尔文化", "fontsize": 12, "tyid": "304002", "oid": "103:1576575143103", "color": "#262626" }, "geometry": { "type": "Point", "coordinates": [ -121.289062, 38.685510 ] } }
{ "type": "Feature", "tippecanoe": { "layer": "2AFCA898E7801583919021574", "minzoom": 2, "maxzoom": 8 }, "properties": { "halo": 0.8, "title": "圣迪基图文化", "fontsize": 12, "tyid": "304002", "oid": "103:1576575143242", "color": "#262626" }, "geometry": { "type": "Point", "coordinates": [ -115.224609, 33.211116 ] } }
{ "type": "Feature", "tippecanoe": { "layer": "2AFCA898E7801583919021574", "minzoom": 2, "maxzoom": 8 }, "properties": { "halo": 0.8, "title": "独立二期文化", "fontsize": 12, "tyid": "304002", "oid": "103:1576575143241", "color": "#262626" }, "geometry": { "type": "Point", "coordinates": [ -41.220703, 81.960148 ] } }
{ "type": "Feature", "tippecanoe": { "layer": "2AFCA898E7801583919021574", "minzoom": 2, "maxzoom": 8 }, "properties": { "halo": 0.8, "title": "红赭人", "fontsize": 12, "tyid": "304001", "oid": "103:1576575143025", "color": "#262626" }, "geometry": { "type": "Point", "coordinates": [ -88.242188, 43.771094 ] } }
{ "type": "Feature", "tippecanoe": { "layer": "2AFCA898E7801583919021574", "minzoom": 2, "maxzoom": 8 }, "properties": { "halo": 0.8, "title": "波茵特半岛文化", "fontsize": 12, "tyid": "304002", "oid": "103:1576575142980", "color": "#262626" }, "geometry": { "type": "Point", "coordinates": [ -76.816406, 45.336702 ] } }
{ "type": "Feature", "tippecanoe": { "layer": "2AFCA898E7801583919021574", "minzoom": 2, "maxzoom": 8 }, "properties": { "halo": 0.8, "title": "古海洋文化", "fontsize": 12, "tyid": "304002", "oid": "103:1576575143248", "color": "#262626" }, "geometry": { "type": "Point", "coordinates": [ -66.972656, 46.920255 ] } }
{ "type": "Feature", "tippecanoe": { "layer": "2AFCA898E7801583919021574", "minzoom": 2, "maxzoom": 8 }, "properties": { "halo": 0.8, "title": "阿登纳文化", "fontsize": 12, "tyid": "304002", "oid": "103:1576575142975", "color": "#262626" }, "geometry": { "type": "Point", "coordinates": [ -81.826172, 40.513799 ] } }
{ "type": "Feature", "tippecanoe": { "layer": "2AFCA898E7801583919021574", "minzoom": 2, "maxzoom": 8 }, "properties": { "halo": 0.8, "title": "巴富尔人", "fontsize": 12, "tyid": "304001", "oid": "103:1576575142643", "color": "#262626" }, "geometry": { "type": "Point", "coordinates": [ -8.261719, 22.917923 ] } }
{ "type": "Feature", "tippecanoe": { "layer": "2AFCA898E7801583919021574", "minzoom": 2, "maxzoom": 8 }, "properties": { "halo": 0.8, "title": "索宁克人", "fontsize": 12, "tyid": "304001", "oid": "103:1576575142770", "color": "#262626" }, "geometry": { "type": "Point", "coordinates": [ -8.261719, 15.029686 ] } }
{ "type": "Feature", "tippecanoe": { "layer": "2AFCA898E7801583919021574", "minzoom": 2, "maxzoom": 8 }, "properties": { "halo": 0.8, "title": "曼德人", "fontsize": 12, "tyid": "304001", "oid": "103:1576575142958", "color": "#262626" }, "geometry": { "type": "Point", "coordinates": [ -4.570312, 9.882275 ] } }
{ "type": "Feature", "tippecanoe": { "layer": "2AFCA898E7801583919021574", "minzoom": 2, "maxzoom": 8 }, "properties": { "halo": 0.8, "title": "昌戈人", "fontsize": 12, "tyid": "304001", "oid": "103:1576575142757", "color": "#262626" }, "geometry": { "type": "Point", "coordinates": [ -70.136719, -24.926295 ] } }
{ "type": "Feature", "tippecanoe": { "layer": "2AFCA898E7801583919021574", "minzoom": 2, "maxzoom": 8 }, "properties": { "halo": 0.8, "title": "图皮人", "fontsize": 12, "tyid": "304001", "oid": "103:1576575143092", "color": "#262626" }, "geometry": { "type": "Point", "coordinates": [ -37.441406, -8.754795 ] } }
{ "type": "Feature", "tippecanoe": { "layer": "2AFCA898E7801583919021574", "minzoom": 2, "maxzoom": 8 }, "properties": { "halo": 0.8, "title": "原始日耳曼人", "fontsize": 12, "tyid": "304001", "oid": "103:1576575143212", "color": "#262626" }, "geometry": { "type": "Point", "coordinates": [ 13.623047, 62.021528 ] } }
{ "type": "Feature", "tippecanoe": { "layer": "2AFCA898E7801583919021574", "minzoom": 2, "maxzoom": 8 }, "properties": { "halo": 0.8, "title": "凯尔特人", "fontsize": 12, "tyid": "304001", "oid": "103:1576575143249", "color": "#262626" }, "geometry": { "type": "Point", "coordinates": [ 2.285156, 46.980252 ] } }
{ "type": "Feature", "tippecanoe": { "layer": "2AFCA898E7801583919021574", "minzoom": 2, "maxzoom": 8 }, "properties": { "halo": 0.8, "title": "波美拉尼亚文化", "fontsize": 12, "tyid": "304002", "oid": "103:1576575142734", "color": "#262626" }, "geometry": { "type": "Point", "coordinates": [ 19.511719, 51.672555 ] } }
{ "type": "Feature", "tippecanoe": { "layer": "2AFCA898E7801583919021574", "minzoom": 2, "maxzoom": 8 }, "properties": { "halo": 0.8, "title": "哈尔施塔特文化D期", "fontsize": 12, "tyid": "304002", "oid": "103:1576575142882", "color": "#262626" }, "geometry": { "type": "Point", "coordinates": [ 14.501953, 48.690960 ] } }
{ "type": "Feature", "tippecanoe": { "layer": "2AFCA898E7801583919021574", "minzoom": 2, "maxzoom": 8 }, "properties": { "halo": 0.8, "title": "石棉陶文化", "fontsize": 12, "tyid": "304002", "oid": "103:1576575143214", "color": "#262626" }, "geometry": { "type": "Point", "coordinates": [ 28.740234, 65.476508 ] } }
{ "type": "Feature", "tippecanoe": { "layer": "2AFCA898E7801583919021574", "minzoom": 2, "maxzoom": 8 }, "properties": { "halo": 0.8, "title": "迪亚科夫文化", "fontsize": 12, "tyid": "304002", "oid": "103:1576575142811", "color": "#262626" }, "geometry": { "type": "Point", "coordinates": [ 37.968750, 56.800878 ] } }
{ "type": "Feature", "tippecanoe": { "layer": "2AFCA898E7801583919021574", "minzoom": 2, "maxzoom": 8 }, "properties": { "halo": 0.8, "title": "米洛格勒文化", "fontsize": 12, "tyid": "304002", "oid": "103:1576575142953", "color": "#262626" }, "geometry": { "type": "Point", "coordinates": [ 27.949219, 51.835778 ] } }
{ "type": "Feature", "tippecanoe": { "layer": "2AFCA898E7801583919021574", "minzoom": 2, "maxzoom": 8 }, "properties": { "halo": 0.8, "title": "第聂伯河与德维纳河文化", "fontsize": 12, "tyid": "304001", "oid": "103:1576575143002", "color": "#262626" }, "geometry": { "type": "Point", "coordinates": [ 31.728516, 55.578345 ] } }
{ "type": "Feature", "tippecanoe": { "layer": "2AFCA898E7801583919021574", "minzoom": 2, "maxzoom": 8 }, "properties": { "halo": 0.8, "title": "达契亚人", "fontsize": 12, "tyid": "304001", "oid": "103:1576575143270", "color": "#262626" }, "geometry": { "type": "Point", "coordinates": [ 25.400391, 46.195042 ] } }
{ "type": "Feature", "tippecanoe": { "layer": "2AFCA898E7801583919021574", "minzoom": 2, "maxzoom": 8 }, "properties": { "halo": 0.8, "title": "戈罗杰茨文化", "fontsize": 12, "tyid": "304002", "oid": "103:1576575143071", "color": "#262626" }, "geometry": { "type": "Point", "coordinates": [ 44.033203, 53.956086 ] } }
{ "type": "Feature", "tippecanoe": { "layer": "2AFCA898E7801583919021574", "minzoom": 2, "maxzoom": 8 }, "properties": { "halo": 0.8, "title": "柏柏尔人诸部", "fontsize": 12, "tyid": "304001", "oid": "103:1576575143145", "color": "#262626" }, "geometry": { "type": "Point", "coordinates": [ 2.812500, 26.352498 ] } }
{ "type": "Feature", "tippecanoe": { "layer": "2AFCA898E7801583919021574", "minzoom": 2, "maxzoom": 8 }, "properties": { "halo": 0.8, "title": "加拉曼特人", "fontsize": 12, "tyid": "304001", "oid": "103:1576575142956", "color": "#262626" }, "geometry": { "type": "Point", "coordinates": [ 16.435547, 28.304381 ] } }
{ "type": "Feature", "tippecanoe": { "layer": "2AFCA898E7801583919021574", "minzoom": 2, "maxzoom": 8 }, "properties": { "halo": 0.8, "title": "诺克文化", "fontsize": 12, "tyid": "304002", "oid": "103:1576575142886", "color": "#262626" }, "geometry": { "type": "Point", "coordinates": [ 7.119141, 10.574222 ] } }
{ "type": "Feature", "tippecanoe": { "layer": "2AFCA898E7801583919021574", "minzoom": 2, "maxzoom": 8 }, "properties": { "halo": 0.8, "title": "巴卡人", "fontsize": 12, "tyid": "304001", "oid": "103:1576575143042", "color": "#262626" }, "geometry": { "type": "Point", "coordinates": [ 18.193359, 5.441022 ] } }
{ "type": "Feature", "tippecanoe": { "layer": "2AFCA898E7801583919021574", "minzoom": 2, "maxzoom": 8 }, "properties": { "halo": 0.8, "title": "吕底亚王国", "fontsize": 12, "tyid": "304000", "oid": "103:1576575143266", "color": "#202020" }, "geometry": { "type": "Point", "coordinates": [ 30.937500, 39.164141 ] } }
{ "type": "Feature", "tippecanoe": { "layer": "2AFCA898E7801583919021574", "minzoom": 2, "maxzoom": 8 }, "properties": { "halo": 0.8, "title": "古埃及第二十六王朝", "fontsize": 12, "tyid": "304000", "oid": "103:1576575142702", "color": "#202020" }, "geometry": { "type": "Point", "coordinates": [ 30.498047, 29.688053 ] } }
{ "type": "Feature", "tippecanoe": { "layer": "2AFCA898E7801583919021574", "minzoom": 2, "maxzoom": 8 }, "properties": { "halo": 0.8, "title": "新巴比伦帝国", "fontsize": 12, "tyid": "304000", "oid": "103:1576575143177", "color": "#202020" }, "geometry": { "type": "Point", "coordinates": [ 40.341797, 34.161818 ] } }
{ "type": "Feature", "tippecanoe": { "layer": "2AFCA898E7801583919021574", "minzoom": 2, "maxzoom": 8 }, "properties": { "halo": 0.8, "title": "凯达尔联盟", "fontsize": 12, "tyid": "304001", "oid": "103:1576575142682", "color": "#262626" }, "geometry": { "type": "Point", "coordinates": [ 41.220703, 29.764377 ] } }
{ "type": "Feature", "tippecanoe": { "layer": "2AFCA898E7801583919021574", "minzoom": 2, "maxzoom": 8 }, "properties": { "halo": 0.8, "title": "赛莫德人", "fontsize": 12, "tyid": "304001", "oid": "103:1576575142746", "color": "#262626" }, "geometry": { "type": "Point", "coordinates": [ 42.187500, 22.268764 ] } }
{ "type": "Feature", "tippecanoe": { "layer": "2AFCA898E7801583919021574", "minzoom": 2, "maxzoom": 8 }, "properties": { "halo": 0.8, "title": "北非贝都因人", "fontsize": 12, "tyid": "304001", "oid": "103:1576575142752", "color": "#262626" }, "geometry": { "type": "Point", "coordinates": [ 22.763672, 20.715015 ] } }
{ "type": "Feature", "tippecanoe": { "layer": "2AFCA898E7801583919021574", "minzoom": 2, "maxzoom": 8 }, "properties": { "halo": 0.8, "title": "富尔人", "fontsize": 12, "tyid": "304001", "oid": "103:1576575142657", "color": "#262626" }, "geometry": { "type": "Point", "coordinates": [ 25.927734, 12.983148 ] } }
{ "type": "Feature", "tippecanoe": { "layer": "2AFCA898E7801583919021574", "minzoom": 2, "maxzoom": 8 }, "properties": { "halo": 0.8, "title": "尼罗特人", "fontsize": 12, "tyid": "304001", "oid": "103:1576575143008", "color": "#262626" }, "geometry": { "type": "Point", "coordinates": [ 33.310547, 1.230374 ] } }
{ "type": "Feature", "tippecanoe": { "layer": "2AFCA898E7801583919021574", "minzoom": 2, "maxzoom": 8 }, "properties": { "halo": 0.8, "title": "贝扎人", "fontsize": 12, "tyid": "304001", "oid": "103:1576575143117", "color": "#262626" }, "geometry": { "type": "Point", "coordinates": [ 35.947266, 16.804541 ] } }
{ "type": "Feature", "tippecanoe": { "layer": "2AFCA898E7801583919021574", "minzoom": 2, "maxzoom": 8 }, "properties": { "halo": 0.8, "title": "卢欧诸部", "fontsize": 12, "tyid": "304001", "oid": "103:1576575142863", "color": "#262626" }, "geometry": { "type": "Point", "coordinates": [ 35.595703, 8.059230 ] } }
{ "type": "Feature", "tippecanoe": { "layer": "2AFCA898E7801583919021574", "minzoom": 2, "maxzoom": 8 }, "properties": { "halo": 0.8, "title": "库希特人", "fontsize": 12, "tyid": "304001", "oid": "103:1576575142712", "color": "#262626" }, "geometry": { "type": "Point", "coordinates": [ 44.121094, 4.477856 ] } }
{ "type": "Feature", "tippecanoe": { "layer": "2AFCA898E7801583919021574", "minzoom": 2, "maxzoom": 8 }, "properties": { "halo": 0.8, "title": "彼尔姆人", "fontsize": 12, "tyid": "304001", "oid": "103:1576575143079", "color": "#262626" }, "geometry": { "type": "Point", "coordinates": [ 55.283203, 57.231503 ] } }
{ "type": "Feature", "tippecanoe": { "layer": "2AFCA898E7801583919021574", "minzoom": 2, "maxzoom": 8 }, "properties": { "halo": 0.8, "title": "东马扎尔人", "fontsize": 12, "tyid": "304001", "oid": "103:1576575142834", "color": "#262626" }, "geometry": { "type": "Point", "coordinates": [ 59.150391, 61.396719 ] } }
{ "type": "Feature", "tippecanoe": { "layer": "2AFCA898E7801583919021574", "minzoom": 2, "maxzoom": 8 }, "properties": { "halo": 0.8, "title": "安纳尼诺文化", "fontsize": 12, "tyid": "304002", "oid": "103:1576575142970", "color": "#262626" }, "geometry": { "type": "Point", "coordinates": [ 50.712891, 54.470038 ] } }
{ "type": "Feature", "tippecanoe": { "layer": "2AFCA898E7801583919021574", "minzoom": 2, "maxzoom": 8 }, "properties": { "halo": 0.8, "title": "萨迦蒂安文化", "fontsize": 12, "tyid": "304002", "oid": "103:1576575142700", "color": "#262626" }, "geometry": { "type": "Point", "coordinates": [ 65.390625, 55.279115 ] } }
{ "type": "Feature", "tippecanoe": { "layer": "2AFCA898E7801583919021574", "minzoom": 2, "maxzoom": 8 }, "properties": { "halo": 0.8, "title": "斯基泰人", "fontsize": 12, "tyid": "304001", "oid": "103:1576575143116", "color": "#262626" }, "geometry": { "type": "Point", "coordinates": [ 56.953125, 48.574790 ] } }
{ "type": "Feature", "tippecanoe": { "layer": "2AFCA898E7801583919021574", "minzoom": 2, "maxzoom": 8 }, "properties": { "halo": 0.8, "title": "塞迦人", "fontsize": 12, "tyid": "304001", "oid": "103:1576575142832", "color": "#262626" }, "geometry": { "type": "Point", "coordinates": [ 60.468750, 42.228517 ] } }
{ "type": "Feature", "tippecanoe": { "layer": "2AFCA898E7801583919021574", "minzoom": 2, "maxzoom": 8 }, "properties": { "halo": 0.8, "title": "乌戈尔人", "fontsize": 12, "tyid": "304001", "oid": "103:1576575142709", "color": "#262626" }, "geometry": { "type": "Point", "coordinates": [ 77.080078, 57.088515 ] } }
{ "type": "Feature", "tippecanoe": { "layer": "2AFCA898E7801583919021574", "minzoom": 2, "maxzoom": 8 }, "properties": { "halo": 0.8, "title": "塔斯莫拉文化", "fontsize": 12, "tyid": "304002", "oid": "103:1576575142774", "color": "#262626" }, "geometry": { "type": "Point", "coordinates": [ 74.619141, 48.166085 ] } }
{ "type": "Feature", "tippecanoe": { "layer": "2AFCA898E7801583919021574", "minzoom": 2, "maxzoom": 8 }, "properties": { "halo": 0.8, "title": "塔加尔文化", "fontsize": 12, "tyid": "304002", "oid": "103:1576575142600", "color": "#262626" }, "geometry": { "type": "Point", "coordinates": [ 88.417969, 54.265224 ] } }
{ "type": "Feature", "tippecanoe": { "layer": "2AFCA898E7801583919021574", "minzoom": 2, "maxzoom": 8 }, "properties": { "halo": 0.8, "title": "切木尔切克文化", "fontsize": 12, "tyid": "304002", "oid": "103:1576575142806", "color": "#262626" }, "geometry": { "type": "Point", "coordinates": [ 87.011719, 48.166085 ] } }
{ "type": "Feature", "tippecanoe": { "layer": "2AFCA898E7801583919021574", "minzoom": 2, "maxzoom": 8 }, "properties": { "halo": 0.8, "title": "米底王国", "fontsize": 12, "tyid": "304000", "oid": "103:1576575143179", "color": "#202020" }, "geometry": { "type": "Point", "coordinates": [ 56.425781, 33.943360 ] } }
{ "type": "Feature", "tippecanoe": { "layer": "2AFCA898E7801583919021574", "minzoom": 2, "maxzoom": 8 }, "properties": { "halo": 0.8, "title": "贝都因人", "fontsize": 12, "tyid": "304001", "oid": "103:1576575142779", "color": "#262626" }, "geometry": { "type": "Point", "coordinates": [ 49.306641, 21.616579 ] } }
{ "type": "Feature", "tippecanoe": { "layer": "2AFCA898E7801583919021574", "minzoom": 2, "maxzoom": 8 }, "properties": { "halo": 0.8, "title": "马克鲁比亚王国", "fontsize": 12, "tyid": "304000", "oid": "103:1576575142584", "color": "#202020" }, "geometry": { "type": "Point", "coordinates": [ 48.427734, 9.275622 ] } }
{ "type": "Feature", "tippecanoe": { "layer": "2AFCA898E7801583919021574", "minzoom": 2, "maxzoom": 8 }, "properties": { "halo": 0.8, "title": "阿槃提国", "fontsize": 12, "tyid": "304000", "oid": "103:1576575142866", "color": "#202020" }, "geometry": { "type": "Point", "coordinates": [ 76.113281, 23.402765 ] } }
{ "type": "Feature", "tippecanoe": { "layer": "2AFCA898E7801583919021574", "minzoom": 2, "maxzoom": 8 }, "properties": { "halo": 0.8, "title": "吐火罗人", "fontsize": 12, "tyid": "304001", "oid": "103:1576575143063", "color": "#262626" }, "geometry": { "type": "Point", "coordinates": [ 84.199219, 40.580585 ] } }
{ "type": "Feature", "tippecanoe": { "layer": "2AFCA898E7801583919021574", "minzoom": 2, "maxzoom": 8 }, "properties": { "halo": 0.8, "title": "北方打磨黑陶文化", "fontsize": 12, "tyid": "304002", "oid": "103:1576575143217", "color": "#262626" }, "geometry": { "type": "Point", "coordinates": [ 82.089844, 22.512557 ] } }
{ "type": "Feature", "tippecanoe": { "layer": "2AFCA898E7801583919021574", "minzoom": 2, "maxzoom": 8 }, "properties": { "halo": 0.8, "title": "乌斯季米尔文化", "fontsize": 12, "tyid": "304002", "oid": "103:1576575143015", "color": "#262626" }, "geometry": { "type": "Point", "coordinates": [ 133.066406, 68.301905 ] } }
{ "type": "Feature", "tippecanoe": { "layer": "2AFCA898E7801583919021574", "minzoom": 2, "maxzoom": 8 }, "properties": { "halo": 0.8, "title": "乌尤克文化", "fontsize": 12, "tyid": "304000", "oid": "103:1576575142758", "color": "#202020" }, "geometry": { "type": "Point", "coordinates": [ 93.076172, 49.553726 ] } }
{ "type": "Feature", "tippecanoe": { "layer": "2AFCA898E7801583919021574", "minzoom": 2, "maxzoom": 8 }, "properties": { "halo": 0.8, "title": "石板墓文化", "fontsize": 12, "tyid": "304002", "oid": "103:1576575142661", "color": "#262626" }, "geometry": { "type": "Point", "coordinates": [ 108.017578, 48.806863 ] } }
{ "type": "Feature", "tippecanoe": { "layer": "2AFCA898E7801583919021574", "minzoom": 2, "maxzoom": 8 }, "properties": { "halo": 0.8, "title": "通古斯人", "fontsize": 12, "tyid": "304001", "oid": "103:1576575142792", "color": "#262626" }, "geometry": { "type": "Point", "coordinates": [ 116.718750, 60.152442 ] } }
{ "type": "Feature", "tippecanoe": { "layer": "2AFCA898E7801583919021574", "minzoom": 2, "maxzoom": 8 }, "properties": { "halo": 0.8, "title": "东胡", "fontsize": 12, "tyid": "304001", "oid": "103:1576575142767", "color": "#262626" }, "geometry": { "type": "Point", "coordinates": [ 118.037109, 43.389082 ] } }
{ "type": "Feature", "tippecanoe": { "layer": "2AFCA898E7801583919021574", "minzoom": 2, "maxzoom": 8 }, "properties": { "halo": 0.8, "title": "濊貊", "fontsize": 12, "tyid": "304001", "oid": "103:1576575143230", "color": "#262626" }, "geometry": { "type": "Point", "coordinates": [ 125.947266, 41.771312 ] } }
{ "type": "Feature", "tippecanoe": { "layer": "2AFCA898E7801583919021574", "minzoom": 2, "maxzoom": 8 }, "properties": { "halo": 0.8, "title": "肃慎", "fontsize": 12, "tyid": "304001", "oid": "103:1576575143234", "color": "#262626" }, "geometry": { "type": "Point", "coordinates": [ 132.275391, 47.040182 ] } }
{ "type": "Feature", "tippecanoe": { "layer": "2AFCA898E7801583919021574", "minzoom": 2, "maxzoom": 8 }, "properties": { "halo": 0.8, "title": "古羌人", "fontsize": 12, "tyid": "304001", "oid": "103:1576575142916", "color": "#262626" }, "geometry": { "type": "Point", "coordinates": [ 90.527344, 33.211116 ] } }
{ "type": "Feature", "tippecanoe": { "layer": "2AFCA898E7801583919021574", "minzoom": 2, "maxzoom": 8 }, "properties": { "halo": 0.8, "title": "月氏", "fontsize": 12, "tyid": "304001", "oid": "103:1576575142612", "color": "#262626" }, "geometry": { "type": "Point", "coordinates": [ 99.755859, 39.232253 ] } }
{ "type": "Feature", "tippecanoe": { "layer": "2AFCA898E7801583919021574", "minzoom": 2, "maxzoom": 8 }, "properties": { "halo": 0.8, "title": "百濮", "fontsize": 12, "tyid": "304001", "oid": "103:1576575143115", "color": "#262626" }, "geometry": { "type": "Point", "coordinates": [ 101.865234, 25.482951 ] } }
{ "type": "Feature", "tippecanoe": { "layer": "2AFCA898E7801583919021574", "minzoom": 2, "maxzoom": 8 }, "properties": { "halo": 0.8, "title": "西瓯", "fontsize": 12, "tyid": "304001", "oid": "103:1576575142907", "color": "#262626" }, "geometry": { "type": "Point", "coordinates": [ 108.720703, 23.644524 ] } }
{ "type": "Feature", "tippecanoe": { "layer": "2AFCA898E7801583919021574", "minzoom": 2, "maxzoom": 8 }, "properties": { "halo": 0.8, "title": "楚", "fontsize": 12, "tyid": "304000", "oid": "103:1576575142715", "color": "#202020" }, "geometry": { "type": "Point", "coordinates": [ 112.500000, 31.653381 ] } }
{ "type": "Feature", "tippecanoe": { "layer": "2AFCA898E7801583919021574", "minzoom": 2, "maxzoom": 8 }, "properties": { "halo": 0.8, "title": "南岛人", "fontsize": 12, "tyid": "304001", "oid": "103:1576575143273", "color": "#262626" }, "geometry": { "type": "Point", "coordinates": [ 114.169922, 0.878872 ] } }
{ "type": "Feature", "tippecanoe": { "layer": "2AFCA898E7801583919021574", "minzoom": 2, "maxzoom": 8 }, "properties": { "halo": 0.8, "title": "尤卡吉尔人", "fontsize": 12, "tyid": "304001", "oid": "103:1576575142545", "color": "#262626" }, "geometry": { "type": "Point", "coordinates": [ 155.214844, 64.886265 ] } }
{ "type": "Feature", "tippecanoe": { "layer": "2AFCA898E7801583919021574", "minzoom": 2, "maxzoom": 8 }, "properties": { "halo": 0.8, "title": "尼夫赫人", "fontsize": 12, "tyid": "304001", "oid": "103:1576575143232", "color": "#262626" }, "geometry": { "type": "Point", "coordinates": [ 138.779297, 51.890054 ] } }
{ "type": "Feature", "tippecanoe": { "layer": "2AFCA898E7801583919021574", "minzoom": 2, "maxzoom": 8 }, "properties": { "halo": 0.8, "title": "科里亚克族", "fontsize": 12, "tyid": "304001", "oid": "103:1576575143235", "color": "#262626" }, "geometry": { "type": "Point", "coordinates": [ 166.640625, 62.308794 ] } }
{ "type": "Feature", "tippecanoe": { "layer": "2AFCA898E7801583919021574", "minzoom": 2, "maxzoom": 8 }, "properties": { "halo": 0.8, "title": "楚科奇人", "fontsize": 12, "tyid": "304001", "oid": "103:1576575143245", "color": "#262626" }, "geometry": { "type": "Point", "coordinates": [ 171.035156, 66.443107 ] } }
{ "type": "Feature", "tippecanoe": { "layer": "2AFCA898E7801583919021574", "minzoom": 2, "maxzoom": 8 }, "properties": { "halo": 0.8, "title": "绳文人", "fontsize": 12, "tyid": "304001", "oid": "103:1576575142974", "color": "#262626" }, "geometry": { "type": "Point", "coordinates": [ 139.218750, 36.668419 ] } }
{ "type": "Feature", "tippecanoe": { "layer": "2AFCA898E7801583919021574", "minzoom": 2, "maxzoom": 8 }, "properties": { "halo": 0.8, "title": "西北班图人诸部", "fontsize": 12, "tyid": "304001", "oid": "103:1576575142993", "color": "#262626" }, "geometry": { "type": "Point", "coordinates": [ 20.742188, -0.527336 ] } }
{ "type": "Feature", "tippecanoe": { "layer": "2AFCA898E7801583919021574", "minzoom": 2, "maxzoom": 8 }, "properties": { "halo": 0.8, "title": "西班图人诸部", "fontsize": 12, "tyid": "304001", "oid": "103:1576575143119", "color": "#262626" }, "geometry": { "type": "Point", "coordinates": [ 20.830078, -7.536764 ] } }
{ "type": "Feature", "tippecanoe": { "layer": "2AFCA898E7801583919021574", "minzoom": 2, "maxzoom": 8 }, "properties": { "halo": 0.8, "title": "东班图人诸部", "fontsize": 12, "tyid": "304001", "oid": "103:1576575142804", "color": "#262626" }, "geometry": { "type": "Point", "coordinates": [ 32.519531, -5.353521 ] } }
{ "type": "Feature", "tippecanoe": { "layer": "2AFCA898E7801583919021574", "minzoom": 2, "maxzoom": 8 }, "properties": { "halo": 0.8, "title": "科伊桑人", "fontsize": 12, "tyid": "304001", "oid": "103:1576575142754", "color": "#262626" }, "geometry": { "type": "Point", "coordinates": [ 26.455078, -19.559790 ] } }
{ "type": "Feature", "tippecanoe": { "layer": "2AFCA898E7801583919021574", "minzoom": 2, "maxzoom": 8 }, "properties": { "halo": 0.8, "title": "澳洲原住民", "fontsize": 12, "tyid": "304001", "oid": "103:1576575143129", "color": "#262626" }, "geometry": { "type": "Point", "coordinates": [ 134.296875, -25.562265 ] } }
{ "type": "Feature", "tippecanoe": { "layer": "2AFCA898E7801583919021574", "minzoom": 2, "maxzoom": 8 }, "properties": { "halo": 0.8, "title": "巴布亚人", "fontsize": 12, "tyid": "304001", "oid": "103:1576575142830", "color": "#262626" }, "geometry": { "type": "Point", "coordinates": [ 140.888672, -5.266008 ] } }
{ "type": "Feature", "tippecanoe": { "layer": "2AFCA898EA581583919021580", "minzoom": 2, "maxzoom": 8 }, "properties": { "halo": 1.6, "title": "诺顿文化", "fontsize": 12, "tyid": "304002", "oid": "103:1576575143057", "color": "#0056E7" }, "geometry": { "type": "Point", "coordinates": [ -163.212891, 68.204212 ] } }
{ "type": "Feature", "tippecanoe": { "layer": "2AFCA898EA581583919021580", "minzoom": 2, "maxzoom": 8 }, "properties": { "halo": 1.6, "title": "因纽特人", "fontsize": 12, "tyid": "304001", "oid": "103:1576575142934", "color": "#0056E7" }, "geometry": { "type": "Point", "coordinates": [ -91.845703, 67.407487 ] } }
{ "type": "Feature", "tippecanoe": { "layer": "2AFCA898EA581583919021580", "minzoom": 2, "maxzoom": 8 }, "properties": { "halo": 1.6, "title": "尤皮克人", "fontsize": 12, "tyid": "304001", "oid": "103:1576575143173", "color": "#0056E7" }, "geometry": { "type": "Point", "coordinates": [ -156.093750, 62.186014 ] } }
{ "type": "Feature", "tippecanoe": { "layer": "2AFCA898EA581583919021580", "minzoom": 2, "maxzoom": 8 }, "properties": { "halo": 1.6, "title": "因纽皮雅特人", "fontsize": 12, "tyid": "304001", "oid": "103:1576575142571", "color": "#0056E7" }, "geometry": { "type": "Point", "coordinates": [ -149.501953, 65.219894 ] } }
{ "type": "Feature", "tippecanoe": { "layer": "2AFCA898EA581583919021580", "minzoom": 2, "maxzoom": 8 }, "properties": { "halo": 1.6, "title": "阿留申人", "fontsize": 12, "tyid": "304001", "oid": "103:1576575142645", "color": "#0056E7" }, "geometry": { "type": "Point", "coordinates": [ -152.226562, 61.312452 ] } }
{ "type": "Feature", "tippecanoe": { "layer": "2AFCA898EA581583919021580", "minzoom": 2, "maxzoom": 8 }, "properties": { "halo": 1.6, "title": "泰萨勒页岩文化", "fontsize": 12, "tyid": "304002", "oid": "103:1576575143027", "color": "#0056E7" }, "geometry": { "type": "Point", "coordinates": [ -100.458984, 56.848972 ] } }
{ "type": "Feature", "tippecanoe": { "layer": "2AFCA898EA581583919021580", "minzoom": 2, "maxzoom": 8 }, "properties": { "halo": 1.6, "title": "坎贝尔文化", "fontsize": 12, "tyid": "304002", "oid": "103:1576575143103", "color": "#0056E7" }, "geometry": { "type": "Point", "coordinates": [ -121.289062, 38.685510 ] } }
{ "type": "Feature", "tippecanoe": { "layer": "2AFCA898EA581583919021580", "minzoom": 2, "maxzoom": 8 }, "properties": { "halo": 1.6, "title": "圣迪基图文化", "fontsize": 12, "tyid": "304002", "oid": "103:1576575143242", "color": "#0056E7" }, "geometry": { "type": "Point", "coordinates": [ -115.224609, 33.211116 ] } }
{ "type": "Feature", "tippecanoe": { "layer": "2AFCA898EA581583919021580", "minzoom": 2, "maxzoom": 8 }, "properties": { "halo": 1.6, "title": "独立二期文化", "fontsize": 12, "tyid": "304002", "oid": "103:1576575143241", "color": "#0056E7" }, "geometry": { "type": "Point", "coordinates": [ -41.220703, 81.960148 ] } }
{ "type": "Feature", "tippecanoe": { "layer": "2AFCA898EA581583919021580", "minzoom": 2, "maxzoom": 8 }, "properties": { "halo": 1.6, "title": "红赭人", "fontsize": 12, "tyid": "304001", "oid": "103:1576575143025", "color": "#0056E7" }, "geometry": { "type": "Point", "coordinates": [ -88.242188, 43.771094 ] } }
{ "type": "Feature", "tippecanoe": { "layer": "2AFCA898EA581583919021580", "minzoom": 2, "maxzoom": 8 }, "properties": { "halo": 1.6, "title": "波茵特半岛文化", "fontsize": 12, "tyid": "304002", "oid": "103:1576575142980", "color": "#0056E7" }, "geometry": { "type": "Point", "coordinates": [ -76.816406, 45.336702 ] } }
{ "type": "Feature", "tippecanoe": { "layer": "2AFCA898EA581583919021580", "minzoom": 2, "maxzoom": 8 }, "properties": { "halo": 1.6, "title": "古海洋文化", "fontsize": 12, "tyid": "304002", "oid": "103:1576575143248", "color": "#0056E7" }, "geometry": { "type": "Point", "coordinates": [ -66.972656, 46.920255 ] } }
{ "type": "Feature", "tippecanoe": { "layer": "2AFCA898EA581583919021580", "minzoom": 2, "maxzoom": 8 }, "properties": { "halo": 1.6, "title": "阿登纳文化", "fontsize": 12, "tyid": "304002", "oid": "103:1576575142975", "color": "#0056E7" }, "geometry": { "type": "Point", "coordinates": [ -81.826172, 40.513799 ] } }
{ "type": "Feature", "tippecanoe": { "layer": "2AFCA898EA581583919021580", "minzoom": 2, "maxzoom": 8 }, "properties": { "halo": 1.6, "title": "巴富尔人", "fontsize": 12, "tyid": "304001", "oid": "103:1576575142643", "color": "#0056E7" }, "geometry": { "type": "Point", "coordinates": [ -8.261719, 22.917923 ] } }
{ "type": "Feature", "tippecanoe": { "layer": "2AFCA898EA581583919021580", "minzoom": 2, "maxzoom": 8 }, "properties": { "halo": 1.6, "title": "索宁克人", "fontsize": 12, "tyid": "304001", "oid": "103:1576575142770", "color": "#0056E7" }, "geometry": { "type": "Point", "coordinates": [ -8.261719, 15.029686 ] } }
{ "type": "Feature", "tippecanoe": { "layer": "2AFCA898EA581583919021580", "minzoom": 2, "maxzoom": 8 }, "properties": { "halo": 1.6, "title": "曼德人", "fontsize": 12, "tyid": "304001", "oid": "103:1576575142958", "color": "#0056E7" }, "geometry": { "type": "Point", "coordinates": [ -4.570312, 9.882275 ] } }
{ "type": "Feature", "tippecanoe": { "layer": "2AFCA898EA581583919021580", "minzoom": 2, "maxzoom": 8 }, "properties": { "halo": 1.6, "title": "昌戈人", "fontsize": 12, "tyid": "304001", "oid": "103:1576575142757", "color": "#0056E7" }, "geometry": { "type": "Point", "coordinates": [ -70.136719, -24.926295 ] } }
{ "type": "Feature", "tippecanoe": { "layer": "2AFCA898EA581583919021580", "minzoom": 2, "maxzoom": 8 }, "properties": { "halo": 1.6, "title": "图皮人", "fontsize": 12, "tyid": "304001", "oid": "103:1576575143092", "color": "#0056E7" }, "geometry": { "type": "Point", "coordinates": [ -37.441406, -8.754795 ] } }
{ "type": "Feature", "tippecanoe": { "layer": "2AFCA898EA581583919021580", "minzoom": 2, "maxzoom": 8 }, "properties": { "halo": 1.6, "title": "原始日耳曼人", "fontsize": 12, "tyid": "304001", "oid": "103:1576575143212", "color": "#0056E7" }, "geometry": { "type": "Point", "coordinates": [ 13.623047, 62.021528 ] } }
{ "type": "Feature", "tippecanoe": { "layer": "2AFCA898EA581583919021580", "minzoom": 2, "maxzoom": 8 }, "properties": { "halo": 1.6, "title": "凯尔特人", "fontsize": 12, "tyid": "304001", "oid": "103:1576575143249", "color": "#0056E7" }, "geometry": { "type": "Point", "coordinates": [ 2.285156, 46.980252 ] } }
{ "type": "Feature", "tippecanoe": { "layer": "2AFCA898EA581583919021580", "minzoom": 2, "maxzoom": 8 }, "properties": { "halo": 1.6, "title": "波美拉尼亚文化", "fontsize": 12, "tyid": "304002", "oid": "103:1576575142734", "color": "#0056E7" }, "geometry": { "type": "Point", "coordinates": [ 19.511719, 51.672555 ] } }
{ "type": "Feature", "tippecanoe": { "layer": "2AFCA898EA581583919021580", "minzoom": 2, "maxzoom": 8 }, "properties": { "halo": 1.6, "title": "哈尔施塔特文化D期", "fontsize": 12, "tyid": "304002", "oid": "103:1576575142882", "color": "#0056E7" }, "geometry": { "type": "Point", "coordinates": [ 14.501953, 48.690960 ] } }
{ "type": "Feature", "tippecanoe": { "layer": "2AFCA898EA581583919021580", "minzoom": 2, "maxzoom": 8 }, "properties": { "halo": 1.6, "title": "石棉陶文化", "fontsize": 12, "tyid": "304002", "oid": "103:1576575143214", "color": "#0056E7" }, "geometry": { "type": "Point", "coordinates": [ 28.740234, 65.476508 ] } }
{ "type": "Feature", "tippecanoe": { "layer": "2AFCA898EA581583919021580", "minzoom": 2, "maxzoom": 8 }, "properties": { "halo": 1.6, "title": "迪亚科夫文化", "fontsize": 12, "tyid": "304002", "oid": "103:1576575142811", "color": "#0056E7" }, "geometry": { "type": "Point", "coordinates": [ 37.968750, 56.800878 ] } }
{ "type": "Feature", "tippecanoe": { "layer": "2AFCA898EA581583919021580", "minzoom": 2, "maxzoom": 8 }, "properties": { "halo": 1.6, "title": "米洛格勒文化", "fontsize": 12, "tyid": "304002", "oid": "103:1576575142953", "color": "#0056E7" }, "geometry": { "type": "Point", "coordinates": [ 27.949219, 51.835778 ] } }
{ "type": "Feature", "tippecanoe": { "layer": "2AFCA898EA581583919021580", "minzoom": 2, "maxzoom": 8 }, "properties": { "halo": 1.6, "title": "第聂伯河与德维纳河文化", "fontsize": 12, "tyid": "304001", "oid": "103:1576575143002", "color": "#0056E7" }, "geometry": { "type": "Point", "coordinates": [ 31.728516, 55.578345 ] } }
{ "type": "Feature", "tippecanoe": { "layer": "2AFCA898EA581583919021580", "minzoom": 2, "maxzoom": 8 }, "properties": { "halo": 1.6, "title": "达契亚人", "fontsize": 12, "tyid": "304001", "oid": "103:1576575143270", "color": "#0056E7" }, "geometry": { "type": "Point", "coordinates": [ 25.400391, 46.195042 ] } }
{ "type": "Feature", "tippecanoe": { "layer": "2AFCA898EA581583919021580", "minzoom": 2, "maxzoom": 8 }, "properties": { "halo": 1.6, "title": "戈罗杰茨文化", "fontsize": 12, "tyid": "304002", "oid": "103:1576575143071", "color": "#0056E7" }, "geometry": { "type": "Point", "coordinates": [ 44.033203, 53.956086 ] } }
{ "type": "Feature", "tippecanoe": { "layer": "2AFCA898EA581583919021580", "minzoom": 2, "maxzoom": 8 }, "properties": { "halo": 1.6, "title": "柏柏尔人诸部", "fontsize": 12, "tyid": "304001", "oid": "103:1576575143145", "color": "#0056E7" }, "geometry": { "type": "Point", "coordinates": [ 2.812500, 26.352498 ] } }
{ "type": "Feature", "tippecanoe": { "layer": "2AFCA898EA581583919021580", "minzoom": 2, "maxzoom": 8 }, "properties": { "halo": 1.6, "title": "加拉曼特人", "fontsize": 12, "tyid": "304001", "oid": "103:1576575142956", "color": "#0056E7" }, "geometry": { "type": "Point", "coordinates": [ 16.435547, 28.304381 ] } }
{ "type": "Feature", "tippecanoe": { "layer": "2AFCA898EA581583919021580", "minzoom": 2, "maxzoom": 8 }, "properties": { "halo": 1.6, "title": "诺克文化", "fontsize": 12, "tyid": "304002", "oid": "103:1576575142886", "color": "#0056E7" }, "geometry": { "type": "Point", "coordinates": [ 7.119141, 10.574222 ] } }
{ "type": "Feature", "tippecanoe": { "layer": "2AFCA898EA581583919021580", "minzoom": 2, "maxzoom": 8 }, "properties": { "halo": 1.6, "title": "巴卡人", "fontsize": 12, "tyid": "304001", "oid": "103:1576575143042", "color": "#0056E7" }, "geometry": { "type": "Point", "coordinates": [ 18.193359, 5.441022 ] } }
{ "type": "Feature", "tippecanoe": { "layer": "2AFCA898EA581583919021580", "minzoom": 2, "maxzoom": 8 }, "properties": { "halo": 1.8, "title": "吕底亚王国", "fontsize": 12, "tyid": "304000", "oid": "103:1576575143266", "color": "#0056E7" }, "geometry": { "type": "Point", "coordinates": [ 30.937500, 39.164141 ] } }
{ "type": "Feature", "tippecanoe": { "layer": "2AFCA898EA581583919021580", "minzoom": 2, "maxzoom": 8 }, "properties": { "halo": 1.8, "title": "古埃及第二十六王朝", "fontsize": 12, "tyid": "304000", "oid": "103:1576575142702", "color": "#0056E7" }, "geometry": { "type": "Point", "coordinates": [ 30.498047, 29.688053 ] } }
{ "type": "Feature", "tippecanoe": { "layer": "2AFCA898EA581583919021580", "minzoom": 2, "maxzoom": 8 }, "properties": { "halo": 1.8, "title": "新巴比伦帝国", "fontsize": 12, "tyid": "304000", "oid": "103:1576575143177", "color": "#0056E7" }, "geometry": { "type": "Point", "coordinates": [ 40.341797, 34.161818 ] } }
{ "type": "Feature", "tippecanoe": { "layer": "2AFCA898EA581583919021580", "minzoom": 2, "maxzoom": 8 }, "properties": { "halo": 1.6, "title": "凯达尔联盟", "fontsize": 12, "tyid": "304001", "oid": "103:1576575142682", "color": "#0056E7" }, "geometry": { "type": "Point", "coordinates": [ 41.220703, 29.764377 ] } }
{ "type": "Feature", "tippecanoe": { "layer": "2AFCA898EA581583919021580", "minzoom": 2, "maxzoom": 8 }, "properties": { "halo": 1.6, "title": "赛莫德人", "fontsize": 12, "tyid": "304001", "oid": "103:1576575142746", "color": "#0056E7" }, "geometry": { "type": "Point", "coordinates": [ 42.187500, 22.268764 ] } }
{ "type": "Feature", "tippecanoe": { "layer": "2AFCA898EA581583919021580", "minzoom": 2, "maxzoom": 8 }, "properties": { "halo": 1.6, "title": "北非贝都因人", "fontsize": 12, "tyid": "304001", "oid": "103:1576575142752", "color": "#0056E7" }, "geometry": { "type": "Point", "coordinates": [ 22.763672, 20.715015 ] } }
{ "type": "Feature", "tippecanoe": { "layer": "2AFCA898EA581583919021580", "minzoom": 2, "maxzoom": 8 }, "properties": { "halo": 1.6, "title": "富尔人", "fontsize": 12, "tyid": "304001", "oid": "103:1576575142657", "color": "#0056E7" }, "geometry": { "type": "Point", "coordinates": [ 25.927734, 12.983148 ] } }
{ "type": "Feature", "tippecanoe": { "layer": "2AFCA898EA581583919021580", "minzoom": 2, "maxzoom": 8 }, "properties": { "halo": 1.6, "title": "尼罗特人", "fontsize": 12, "tyid": "304001", "oid": "103:1576575143008", "color": "#0056E7" }, "geometry": { "type": "Point", "coordinates": [ 33.310547, 1.230374 ] } }
{ "type": "Feature", "tippecanoe": { "layer": "2AFCA898EA581583919021580", "minzoom": 2, "maxzoom": 8 }, "properties": { "halo": 1.6, "title": "贝扎人", "fontsize": 12, "tyid": "304001", "oid": "103:1576575143117", "color": "#0056E7" }, "geometry": { "type": "Point", "coordinates": [ 35.947266, 16.804541 ] } }
{ "type": "Feature", "tippecanoe": { "layer": "2AFCA898EA581583919021580", "minzoom": 2, "maxzoom": 8 }, "properties": { "halo": 1.6, "title": "卢欧诸部", "fontsize": 12, "tyid": "304001", "oid": "103:1576575142863", "color": "#0056E7" }, "geometry": { "type": "Point", "coordinates": [ 35.595703, 8.059230 ] } }
{ "type": "Feature", "tippecanoe": { "layer": "2AFCA898EA581583919021580", "minzoom": 2, "maxzoom": 8 }, "properties": { "halo": 1.6, "title": "库希特人", "fontsize": 12, "tyid": "304001", "oid": "103:1576575142712", "color": "#0056E7" }, "geometry": { "type": "Point", "coordinates": [ 44.121094, 4.477856 ] } }
{ "type": "Feature", "tippecanoe": { "layer": "2AFCA898EA581583919021580", "minzoom": 2, "maxzoom": 8 }, "properties": { "halo": 1.6, "title": "彼尔姆人", "fontsize": 12, "tyid": "304001", "oid": "103:1576575143079", "color": "#0056E7" }, "geometry": { "type": "Point", "coordinates": [ 55.283203, 57.231503 ] } }
{ "type": "Feature", "tippecanoe": { "layer": "2AFCA898EA581583919021580", "minzoom": 2, "maxzoom": 8 }, "properties": { "halo": 1.6, "title": "东马扎尔人", "fontsize": 12, "tyid": "304001", "oid": "103:1576575142834", "color": "#0056E7" }, "geometry": { "type": "Point", "coordinates": [ 59.150391, 61.396719 ] } }
{ "type": "Feature", "tippecanoe": { "layer": "2AFCA898EA581583919021580", "minzoom": 2, "maxzoom": 8 }, "properties": { "halo": 1.6, "title": "安纳尼诺文化", "fontsize": 12, "tyid": "304002", "oid": "103:1576575142970", "color": "#0056E7" }, "geometry": { "type": "Point", "coordinates": [ 50.712891, 54.470038 ] } }
{ "type": "Feature", "tippecanoe": { "layer": "2AFCA898EA581583919021580", "minzoom": 2, "maxzoom": 8 }, "properties": { "halo": 1.6, "title": "萨迦蒂安文化", "fontsize": 12, "tyid": "304002", "oid": "103:1576575142700", "color": "#0056E7" }, "geometry": { "type": "Point", "coordinates": [ 65.390625, 55.279115 ] } }
{ "type": "Feature", "tippecanoe": { "layer": "2AFCA898EA581583919021580", "minzoom": 2, "maxzoom": 8 }, "properties": { "halo": 1.6, "title": "斯基泰人", "fontsize": 12, "tyid": "304001", "oid": "103:1576575143116", "color": "#0056E7" }, "geometry": { "type": "Point", "coordinates": [ 56.953125, 48.574790 ] } }
{ "type": "Feature", "tippecanoe": { "layer": "2AFCA898EA581583919021580", "minzoom": 2, "maxzoom": 8 }, "properties": { "halo": 1.6, "title": "塞迦人", "fontsize": 12, "tyid": "304001", "oid": "103:1576575142832", "color": "#0056E7" }, "geometry": { "type": "Point", "coordinates": [ 60.468750, 42.228517 ] } }
{ "type": "Feature", "tippecanoe": { "layer": "2AFCA898EA581583919021580", "minzoom": 2, "maxzoom": 8 }, "properties": { "halo": 1.6, "title": "乌戈尔人", "fontsize": 12, "tyid": "304001", "oid": "103:1576575142709", "color": "#0056E7" }, "geometry": { "type": "Point", "coordinates": [ 77.080078, 57.088515 ] } }
{ "type": "Feature", "tippecanoe": { "layer": "2AFCA898EA581583919021580", "minzoom": 2, "maxzoom": 8 }, "properties": { "halo": 1.6, "title": "塔斯莫拉文化", "fontsize": 12, "tyid": "304002", "oid": "103:1576575142774", "color": "#0056E7" }, "geometry": { "type": "Point", "coordinates": [ 74.619141, 48.166085 ] } }
{ "type": "Feature", "tippecanoe": { "layer": "2AFCA898EA581583919021580", "minzoom": 2, "maxzoom": 8 }, "properties": { "halo": 1.6, "title": "塔加尔文化", "fontsize": 12, "tyid": "304002", "oid": "103:1576575142600", "color": "#0056E7" }, "geometry": { "type": "Point", "coordinates": [ 88.417969, 54.265224 ] } }
{ "type": "Feature", "tippecanoe": { "layer": "2AFCA898EA581583919021580", "minzoom": 2, "maxzoom": 8 }, "properties": { "halo": 1.6, "title": "切木尔切克文化", "fontsize": 12, "tyid": "304002", "oid": "103:1576575142806", "color": "#0056E7" }, "geometry": { "type": "Point", "coordinates": [ 87.011719, 48.166085 ] } }
{ "type": "Feature", "tippecanoe": { "layer": "2AFCA898EA581583919021580", "minzoom": 2, "maxzoom": 8 }, "properties": { "halo": 1.8, "title": "米底王国", "fontsize": 12, "tyid": "304000", "oid": "103:1576575143179", "color": "#0056E7" }, "geometry": { "type": "Point", "coordinates": [ 56.425781, 33.943360 ] } }
{ "type": "Feature", "tippecanoe": { "layer": "2AFCA898EA581583919021580", "minzoom": 2, "maxzoom": 8 }, "properties": { "halo": 1.6, "title": "贝都因人", "fontsize": 12, "tyid": "304001", "oid": "103:1576575142779", "color": "#0056E7" }, "geometry": { "type": "Point", "coordinates": [ 49.306641, 21.616579 ] } }
{ "type": "Feature", "tippecanoe": { "layer": "2AFCA898EA581583919021580", "minzoom": 2, "maxzoom": 8 }, "properties": { "halo": 1.8, "title": "马克鲁比亚王国", "fontsize": 12, "tyid": "304000", "oid": "103:1576575142584", "color": "#0056E7" }, "geometry": { "type": "Point", "coordinates": [ 48.427734, 9.275622 ] } }
{ "type": "Feature", "tippecanoe": { "layer": "2AFCA898EA581583919021580", "minzoom": 2, "maxzoom": 8 }, "properties": { "halo": 1.8, "title": "阿槃提国", "fontsize": 12, "tyid": "304000", "oid": "103:1576575142866", "color": "#0056E7" }, "geometry": { "type": "Point", "coordinates": [ 76.113281, 23.402765 ] } }
{ "type": "Feature", "tippecanoe": { "layer": "2AFCA898EA581583919021580", "minzoom": 2, "maxzoom": 8 }, "properties": { "halo": 1.6, "title": "吐火罗人", "fontsize": 12, "tyid": "304001", "oid": "103:1576575143063", "color": "#0056E7" }, "geometry": { "type": "Point", "coordinates": [ 84.199219, 40.580585 ] } }
{ "type": "Feature", "tippecanoe": { "layer": "2AFCA898EA581583919021580", "minzoom": 2, "maxzoom": 8 }, "properties": { "halo": 1.6, "title": "北方打磨黑陶文化", "fontsize": 12, "tyid": "304002", "oid": "103:1576575143217", "color": "#0056E7" }, "geometry": { "type": "Point", "coordinates": [ 82.089844, 22.512557 ] } }
{ "type": "Feature", "tippecanoe": { "layer": "2AFCA898EA581583919021580", "minzoom": 2, "maxzoom": 8 }, "properties": { "halo": 1.6, "title": "乌斯季米尔文化", "fontsize": 12, "tyid": "304002", "oid": "103:1576575143015", "color": "#0056E7" }, "geometry": { "type": "Point", "coordinates": [ 133.066406, 68.301905 ] } }
{ "type": "Feature", "tippecanoe": { "layer": "2AFCA898EA581583919021580", "minzoom": 2, "maxzoom": 8 }, "properties": { "halo": 1.8, "title": "乌尤克文化", "fontsize": 12, "tyid": "304000", "oid": "103:1576575142758", "color": "#0056E7" }, "geometry": { "type": "Point", "coordinates": [ 93.076172, 49.553726 ] } }
{ "type": "Feature", "tippecanoe": { "layer": "2AFCA898EA581583919021580", "minzoom": 2, "maxzoom": 8 }, "properties": { "halo": 1.6, "title": "石板墓文化", "fontsize": 12, "tyid": "304002", "oid": "103:1576575142661", "color": "#0056E7" }, "geometry": { "type": "Point", "coordinates": [ 108.017578, 48.806863 ] } }
{ "type": "Feature", "tippecanoe": { "layer": "2AFCA898EA581583919021580", "minzoom": 2, "maxzoom": 8 }, "properties": { "halo": 1.6, "title": "通古斯人", "fontsize": 12, "tyid": "304001", "oid": "103:1576575142792", "color": "#0056E7" }, "geometry": { "type": "Point", "coordinates": [ 116.718750, 60.152442 ] } }
{ "type": "Feature", "tippecanoe": { "layer": "2AFCA898EA581583919021580", "minzoom": 2, "maxzoom": 8 }, "properties": { "halo": 1.6, "title": "东胡", "fontsize": 12, "tyid": "304001", "oid": "103:1576575142767", "color": "#0056E7" }, "geometry": { "type": "Point", "coordinates": [ 118.037109, 43.389082 ] } }
{ "type": "Feature", "tippecanoe": { "layer": "2AFCA898EA581583919021580", "minzoom": 2, "maxzoom": 8 }, "properties": { "halo": 1.6, "title": "濊貊", "fontsize": 12, "tyid": "304001", "oid": "103:1576575143230", "color": "#0056E7" }, "geometry": { "type": "Point", "coordinates": [ 125.947266, 41.771312 ] } }
{ "type": "Feature", "tippecanoe": { "layer": "2AFCA898EA581583919021580", "minzoom": 2, "maxzoom": 8 }, "properties": { "halo": 1.6, "title": "肃慎", "fontsize": 12, "tyid": "304001", "oid": "103:1576575143234", "color": "#0056E7" }, "geometry": { "type": "Point", "coordinates": [ 132.275391, 47.040182 ] } }
{ "type": "Feature", "tippecanoe": { "layer": "2AFCA898EA581583919021580", "minzoom": 2, "maxzoom": 8 }, "properties": { "halo": 1.6, "title": "古羌人", "fontsize": 12, "tyid": "304001", "oid": "103:1576575142916", "color": "#0056E7" }, "geometry": { "type": "Point", "coordinates": [ 90.527344, 33.211116 ] } }
{ "type": "Feature", "tippecanoe": { "layer": "2AFCA898EA581583919021580", "minzoom": 2, "maxzoom": 8 }, "properties": { "halo": 1.6, "title": "月氏", "fontsize": 12, "tyid": "304001", "oid": "103:1576575142612", "color": "#0056E7" }, "geometry": { "type": "Point", "coordinates": [ 99.755859, 39.232253 ] } }
{ "type": "Feature", "tippecanoe": { "layer": "2AFCA898EA581583919021580", "minzoom": 2, "maxzoom": 8 }, "properties": { "halo": 1.6, "title": "百濮", "fontsize": 12, "tyid": "304001", "oid": "103:1576575143115", "color": "#0056E7" }, "geometry": { "type": "Point", "coordinates": [ 101.865234, 25.482951 ] } }
{ "type": "Feature", "tippecanoe": { "layer": "2AFCA898EA581583919021580", "minzoom": 2, "maxzoom": 8 }, "properties": { "halo": 1.6, "title": "西瓯", "fontsize": 12, "tyid": "304001", "oid": "103:1576575142907", "color": "#0056E7" }, "geometry": { "type": "Point", "coordinates": [ 108.720703, 23.644524 ] } }
{ "type": "Feature", "tippecanoe": { "layer": "2AFCA898EA581583919021580", "minzoom": 2, "maxzoom": 8 }, "properties": { "halo": 1.8, "title": "楚", "fontsize": 12, "tyid": "304000", "oid": "103:1576575142715", "color": "#0056E7" }, "geometry": { "type": "Point", "coordinates": [ 112.500000, 31.653381 ] } }
{ "type": "Feature", "tippecanoe": { "layer": "2AFCA898EA581583919021580", "minzoom": 2, "maxzoom": 8 }, "properties": { "halo": 1.6, "title": "南岛人", "fontsize": 12, "tyid": "304001", "oid": "103:1576575143273", "color": "#0056E7" }, "geometry": { "type": "Point", "coordinates": [ 114.169922, 0.878872 ] } }
{ "type": "Feature", "tippecanoe": { "layer": "2AFCA898EA581583919021580", "minzoom": 2, "maxzoom": 8 }, "properties": { "halo": 1.6, "title": "尤卡吉尔人", "fontsize": 12, "tyid": "304001", "oid": "103:1576575142545", "color": "#0056E7" }, "geometry": { "type": "Point", "coordinates": [ 155.214844, 64.886265 ] } }
{ "type": "Feature", "tippecanoe": { "layer": "2AFCA898EA581583919021580", "minzoom": 2, "maxzoom": 8 }, "properties": { "halo": 1.6, "title": "尼夫赫人", "fontsize": 12, "tyid": "304001", "oid": "103:1576575143232", "color": "#0056E7" }, "geometry": { "type": "Point", "coordinates": [ 138.779297, 51.890054 ] } }
{ "type": "Feature", "tippecanoe": { "layer": "2AFCA898EA581583919021580", "minzoom": 2, "maxzoom": 8 }, "properties": { "halo": 1.6, "title": "科里亚克族", "fontsize": 12, "tyid": "304001", "oid": "103:1576575143235", "color": "#0056E7" }, "geometry": { "type": "Point", "coordinates": [ 166.640625, 62.308794 ] } }
{ "type": "Feature", "tippecanoe": { "layer": "2AFCA898EA581583919021580", "minzoom": 2, "maxzoom": 8 }, "properties": { "halo": 1.6, "title": "楚科奇人", "fontsize": 12, "tyid": "304001", "oid": "103:1576575143245", "color": "#0056E7" }, "geometry": { "type": "Point", "coordinates": [ 171.035156, 66.443107 ] } }
{ "type": "Feature", "tippecanoe": { "layer": "2AFCA898EA581583919021580", "minzoom": 2, "maxzoom": 8 }, "properties": { "halo": 1.6, "title": "绳文人", "fontsize": 12, "tyid": "304001", "oid": "103:1576575142974", "color": "#0056E7" }, "geometry": { "type": "Point", "coordinates": [ 139.218750, 36.668419 ] } }
{ "type": "Feature", "tippecanoe": { "layer": "2AFCA898EA581583919021580", "minzoom": 2, "maxzoom": 8 }, "properties": { "halo": 1.6, "title": "西北班图人诸部", "fontsize": 12, "tyid": "304001", "oid": "103:1576575142993", "color": "#0056E7" }, "geometry": { "type": "Point", "coordinates": [ 20.742188, -0.527336 ] } }
{ "type": "Feature", "tippecanoe": { "layer": "2AFCA898EA581583919021580", "minzoom": 2, "maxzoom": 8 }, "properties": { "halo": 1.6, "title": "西班图人诸部", "fontsize": 12, "tyid": "304001", "oid": "103:1576575143119", "color": "#0056E7" }, "geometry": { "type": "Point", "coordinates": [ 20.830078, -7.536764 ] } }
{ "type": "Feature", "tippecanoe": { "layer": "2AFCA898EA581583919021580", "minzoom": 2, "maxzoom": 8 }, "properties": { "halo": 1.6, "title": "东班图人诸部", "fontsize": 12, "tyid": "304001", "oid": "103:1576575142804", "color": "#0056E7" }, "geometry": { "type": "Point", "coordinates": [ 32.519531, -5.353521 ] } }
{ "type": "Feature", "tippecanoe": { "layer": "2AFCA898EA581583919021580", "minzoom": 2, "maxzoom": 8 }, "properties": { "halo": 1.6, "title": "科伊桑人", "fontsize": 12, "tyid": "304001", "oid": "103:1576575142754", "color": "#0056E7" }, "geometry": { "type": "Point", "coordinates": [ 26.455078, -19.559790 ] } }
{ "type": "Feature", "tippecanoe": { "layer": "2AFCA898EA581583919021580", "minzoom": 2, "maxzoom": 8 }, "properties": { "halo": 1.6, "title": "澳洲原住民", "fontsize": 12, "tyid": "304001", "oid": "103:1576575143129", "color": "#0056E7" }, "geometry": { "type": "Point", "coordinates": [ 134.296875, -25.562265 ] } }
{ "type": "Feature", "tippecanoe": { "layer": "2AFCA898EA581583919021580", "minzoom": 2, "maxzoom": 8 }, "properties": { "halo": 1.6, "title": "巴布亚人", "fontsize": 12, "tyid": "304001", "oid": "103:1576575142830", "color": "#0056E7" }, "geometry": { "type": "Point", "coordinates": [ 140.888672, -5.266008 ] } }
{ "type": "Feature", "tippecanoe": { "layer": "2AFCA898EDA01583919021583", "minzoom": 2, "maxzoom": 8 }, "properties": { "halo": 1.6, "title": "拉霍亚文化", "fontsize": 12, "tyid": "304002", "oid": "103:1576575142772", "color": "#0056E7" }, "geometry": { "type": "Point", "coordinates": [ -118.916016, 34.597042 ] } }
{ "type": "Feature", "tippecanoe": { "layer": "2AFCA898EDA01583919021583", "minzoom": 2, "maxzoom": 8 }, "properties": { "halo": 1.6, "title": "古普韦布洛人", "fontsize": 12, "tyid": "304001", "oid": "103:1576575142649", "color": "#0056E7" }, "geometry": { "type": "Point", "coordinates": [ -110.126953, 36.949892 ] } }
{ "type": "Feature", "tippecanoe": { "layer": "2AFCA898EDA01583919021583", "minzoom": 2, "maxzoom": 8 }, "properties": { "halo": 1.6, "title": "科奇斯文化", "fontsize": 12, "tyid": "304002", "oid": "103:1576575143031", "color": "#0056E7" }, "geometry": { "type": "Point", "coordinates": [ -110.039062, 32.249974 ] } }
{ "type": "Feature", "tippecanoe": { "layer": "2AFCA898EDA01583919021583", "minzoom": 2, "maxzoom": 8 }, "properties": { "halo": 1.6, "title": "奇瓦瓦文化", "fontsize": 12, "tyid": "304002", "oid": "103:1576575142960", "color": "#0056E7" }, "geometry": { "type": "Point", "coordinates": [ -107.226562, 32.768800 ] } }
{ "type": "Feature", "tippecanoe": { "layer": "2AFCA898EDA01583919021583", "minzoom": 2, "maxzoom": 8 }, "properties": { "halo": 1.6, "title": "奥沙拉文化", "fontsize": 12, "tyid": "304002", "oid": "103:1576575142962", "color": "#0056E7" }, "geometry": { "type": "Point", "coordinates": [ -106.787109, 37.160317 ] } }
{ "type": "Feature", "tippecanoe": { "layer": "2AFCA898EDA01583919021583", "minzoom": 2, "maxzoom": 8 }, "properties": { "halo": 1.6, "title": "瓜伊库拉人", "fontsize": 12, "tyid": "304001", "oid": "103:1576575142936", "color": "#0056E7" }, "geometry": { "type": "Point", "coordinates": [ -111.269531, 24.846565 ] } }
{ "type": "Feature", "tippecanoe": { "layer": "2AFCA898EDA01583919021583", "minzoom": 2, "maxzoom": 8 }, "properties": { "halo": 1.6, "title": "楚拉时期", "fontsize": 12, "tyid": "304002", "oid": "103:1576575143050", "color": "#0056E7" }, "geometry": { "type": "Point", "coordinates": [ -92.109375, 32.620870 ] } }
{ "type": "Feature", "tippecanoe": { "layer": "2AFCA898EDA01583919021583", "minzoom": 2, "maxzoom": 8 }, "properties": { "halo": 1.6, "title": "华斯塔克文明", "fontsize": 12, "tyid": "304002", "oid": "103:1576575143006", "color": "#0056E7" }, "geometry": { "type": "Point", "coordinates": [ -98.613281, 22.105999 ] } }
{ "type": "Feature", "tippecanoe": { "layer": "2AFCA898EDA01583919021583", "minzoom": 2, "maxzoom": 8 }, "properties": { "halo": 1.6, "title": "奇蒂玛察人", "fontsize": 12, "tyid": "304001", "oid": "103:1576575143167", "color": "#0056E7" }, "geometry": { "type": "Point", "coordinates": [ -91.318359, 30.069094 ] } }
{ "type": "Feature", "tippecanoe": { "layer": "2AFCA898EDA01583919021583", "minzoom": 2, "maxzoom": 8 }, "properties": { "halo": 1.6, "title": "埃尔欧朋文化", "fontsize": 12, "tyid": "304002", "oid": "103:1576575142673", "color": "#0056E7" }, "geometry": { "type": "Point", "coordinates": [ -101.865234, 19.642588 ] } }
{ "type": "Feature", "tippecanoe": { "layer": "2AFCA898EDA01583919021583", "minzoom": 2, "maxzoom": 8 }, "properties": { "halo": 1.6, "title": "梅斯卡拉文化", "fontsize": 12, "tyid": "304002", "oid": "103:1576575143109", "color": "#0056E7" }, "geometry": { "type": "Point", "coordinates": [ -100.810547, 17.895114 ] } }
{ "type": "Feature", "tippecanoe": { "layer": "2AFCA898EDA01583919021583", "minzoom": 2, "maxzoom": 8 }, "properties": { "halo": 1.6, "title": "萨波特克文明", "fontsize": 12, "tyid": "304002", "oid": "103:1576575142929", "color": "#0056E7" }, "geometry": { "type": "Point", "coordinates": [ -96.064453, 16.636192 ] } }
{ "type": "Feature", "tippecanoe": { "layer": "2AFCA898EDA01583919021583", "minzoom": 2, "maxzoom": 8 }, "properties": { "halo": 1.6, "title": "奥尔梅克文明", "fontsize": 12, "tyid": "304002", "oid": "103:1576575142781", "color": "#0056E7" }, "geometry": { "type": "Point", "coordinates": [ -94.042969, 17.727759 ] } }
{ "type": "Feature", "tippecanoe": { "layer": "2AFCA898EDA01583919021583", "minzoom": 2, "maxzoom": 8 }, "properties": { "halo": 1.6, "title": "德普特福德文化", "fontsize": 12, "tyid": "304002", "oid": "103:1576575143171", "color": "#0056E7" }, "geometry": { "type": "Point", "coordinates": [ -79.716797, 33.284620 ] } }
{ "type": "Feature", "tippecanoe": { "layer": "2AFCA898EDA01583919021583", "minzoom": 2, "maxzoom": 8 }, "properties": { "halo": 1.6, "title": "切格文特文化", "fontsize": 12, "tyid": "304002", "oid": "103:1576575143097", "color": "#0056E7" }, "geometry": { "type": "Point", "coordinates": [ -89.208984, 30.600094 ] } }
{ "type": "Feature", "tippecanoe": { "layer": "2AFCA898EDA01583919021583", "minzoom": 2, "maxzoom": 8 }, "properties": { "halo": 1.6, "title": "诺伍德文化", "fontsize": 12, "tyid": "304002", "oid": "103:1576575143169", "color": "#0056E7" }, "geometry": { "type": "Point", "coordinates": [ -84.638672, 30.297018 ] } }
{ "type": "Feature", "tippecanoe": { "layer": "2AFCA898EDA01583919021583", "minzoom": 2, "maxzoom": 8 }, "properties": { "halo": 1.6, "title": "卡卢萨人", "fontsize": 12, "tyid": "304001", "oid": "103:1576575143088", "color": "#0056E7" }, "geometry": { "type": "Point", "coordinates": [ -81.650391, 26.902477 ] } }
{ "type": "Feature", "tippecanoe": { "layer": "2AFCA898EDA01583919021583", "minzoom": 2, "maxzoom": 8 }, "properties": { "halo": 1.6, "title": "玛雅文明[前古典时期]", "fontsize": 12, "tyid": "304002", "oid": "103:1576575143278", "color": "#0056E7" }, "geometry": { "type": "Point", "coordinates": [ -89.296875, 17.140790 ] } }
{ "type": "Feature", "tippecanoe": { "layer": "2AFCA898EDA01583919021583", "minzoom": 2, "maxzoom": 8 }, "properties": { "halo": 1.6, "title": "拉托利塔文化", "fontsize": 12, "tyid": "304002", "oid": "103:1576575142555", "color": "#0056E7" }, "geometry": { "type": "Point", "coordinates": [ -78.046875, 1.757537 ] } }
{ "type": "Feature", "tippecanoe": { "layer": "2AFCA898EDA01583919021583", "minzoom": 2, "maxzoom": 8 }, "properties": { "halo": 1.6, "title": "埃雷拉时期", "fontsize": 12, "tyid": "304002", "oid": "103:1576575142613", "color": "#0056E7" }, "geometry": { "type": "Point", "coordinates": [ -73.476562, 5.441022 ] } }
{ "type": "Feature", "tippecanoe": { "layer": "2AFCA898EDA01583919021583", "minzoom": 2, "maxzoom": 8 }, "properties": { "halo": 1.6, "title": "伊奈里人", "fontsize": 12, "tyid": "304001", "oid": "103:1576575143012", "color": "#0056E7" }, "geometry": { "type": "Point", "coordinates": [ -61.611328, 8.841651 ] } }
{ "type": "Feature", "tippecanoe": { "layer": "2AFCA898EDA01583919021583", "minzoom": 2, "maxzoom": 8 }, "properties": { "halo": 1.6, "title": "皮克特人", "fontsize": 12, "tyid": "304001", "oid": "103:1576575142687", "color": "#0056E7" }, "geometry": { "type": "Point", "coordinates": [ -4.042969, 56.704506 ] } }
{ "type": "Feature", "tippecanoe": { "layer": "2AFCA898EDA01583919021583", "minzoom": 2, "maxzoom": 8 }, "properties": { "halo": 1.6, "title": "盖尔人", "fontsize": 12, "tyid": "304001", "oid": "103:1576575142826", "color": "#0056E7" }, "geometry": { "type": "Point", "coordinates": [ -7.910156, 53.435719 ] } }
{ "type": "Feature", "tippecanoe": { "layer": "2AFCA898EDA01583919021583", "minzoom": 2, "maxzoom": 8 }, "properties": { "halo": 1.6, "title": "加利西亚人", "fontsize": 12, "tyid": "304001", "oid": "103:1576575143206", "color": "#0056E7" }, "geometry": { "type": "Point", "coordinates": [ -7.998047, 42.488302 ] } }
{ "type": "Feature", "tippecanoe": { "layer": "2AFCA898EDA01583919021583", "minzoom": 2, "maxzoom": 8 }, "properties": { "halo": 1.6, "title": "阿斯图尔人", "fontsize": 12, "tyid": "304001", "oid": "103:1576575142717", "color": "#0056E7" }, "geometry": { "type": "Point", "coordinates": [ -6.152344, 42.553080 ] } }
{ "type": "Feature", "tippecanoe": { "layer": "2AFCA898EDA01583919021583", "minzoom": 2, "maxzoom": 8 }, "properties": { "halo": 1.6, "title": "瓦凯伊人", "fontsize": 12, "tyid": "304001", "oid": "103:1576575142623", "color": "#0056E7" }, "geometry": { "type": "Point", "coordinates": [ -4.658203, 41.640078 ] } }
{ "type": "Feature", "tippecanoe": { "layer": "2AFCA898EDA01583919021583", "minzoom": 2, "maxzoom": 8 }, "properties": { "halo": 1.6, "title": "卡斯特罗文化", "fontsize": 12, "tyid": "304002", "oid": "103:1576575142672", "color": "#0056E7" }, "geometry": { "type": "Point", "coordinates": [ -3.515625, 42.811522 ] } }
{ "type": "Feature", "tippecanoe": { "layer": "2AFCA898EDA01583919021583", "minzoom": 2, "maxzoom": 8 }, "properties": { "halo": 1.6, "title": "阿奎丹人", "fontsize": 12, "tyid": "304001", "oid": "103:1576575142615", "color": "#0056E7" }, "geometry": { "type": "Point", "coordinates": [ -0.175781, 43.834527 ] } }
{ "type": "Feature", "tippecanoe": { "layer": "2AFCA898EDA01583919021583", "minzoom": 2, "maxzoom": 8 }, "properties": { "halo": 1.6, "title": "卢西塔利亚人", "fontsize": 12, "tyid": "304001", "oid": "103:1576575143204", "color": "#0056E7" }, "geometry": { "type": "Point", "coordinates": [ -8.085938, 40.313043 ] } }
{ "type": "Feature", "tippecanoe": { "layer": "2AFCA898EDA01583919021583", "minzoom": 2, "maxzoom": 8 }, "properties": { "halo": 1.6, "title": "凯蒂奇人", "fontsize": 12, "tyid": "304001", "oid": "103:1576575143202", "color": "#0056E7" }, "geometry": { "type": "Point", "coordinates": [ -7.646484, 38.959409 ] } }
{ "type": "Feature", "tippecanoe": { "layer": "2AFCA898EDA01583919021583", "minzoom": 2, "maxzoom": 8 }, "properties": { "halo": 1.6, "title": "维托内人", "fontsize": 12, "tyid": "304001", "oid": "103:1576575142625", "color": "#0056E7" }, "geometry": { "type": "Point", "coordinates": [ -5.800781, 40.313043 ] } }
{ "type": "Feature", "tippecanoe": { "layer": "2AFCA898EDA01583919021583", "minzoom": 2, "maxzoom": 8 }, "properties": { "halo": 1.6, "title": "西尼特人", "fontsize": 12, "tyid": "304001", "oid": "103:1576575143200", "color": "#0056E7" }, "geometry": { "type": "Point", "coordinates": [ -8.261719, 37.649034 ] } }
{ "type": "Feature", "tippecanoe": { "layer": "2AFCA898EDA01583919021583", "minzoom": 2, "maxzoom": 8 }, "properties": { "halo": 1.6, "title": "图尔杜利人", "fontsize": 12, "tyid": "304001", "oid": "103:1576575142640", "color": "#0056E7" }, "geometry": { "type": "Point", "coordinates": [ -6.064453, 38.616870 ] } }
{ "type": "Feature", "tippecanoe": { "layer": "2AFCA898EDA01583919021583", "minzoom": 2, "maxzoom": 8 }, "properties": { "halo": 1.6, "title": "卡佩塔尼人", "fontsize": 12, "tyid": "304001", "oid": "103:1576575143136", "color": "#0056E7" }, "geometry": { "type": "Point", "coordinates": [ -3.955078, 39.977120 ] } }
{ "type": "Feature", "tippecanoe": { "layer": "2AFCA898EDA01583919021583", "minzoom": 2, "maxzoom": 8 }, "properties": { "halo": 1.6, "title": "图尔德泰尼人", "fontsize": 12, "tyid": "304001", "oid": "103:1576575142704", "color": "#0056E7" }, "geometry": { "type": "Point", "coordinates": [ -5.097656, 37.718590 ] } }
{ "type": "Feature", "tippecanoe": { "layer": "2AFCA898EDA01583919021583", "minzoom": 2, "maxzoom": 8 }, "properties": { "halo": 1.6, "title": "奥雷塔尼人", "fontsize": 12, "tyid": "304001", "oid": "103:1576575142786", "color": "#0056E7" }, "geometry": { "type": "Point", "coordinates": [ -3.251953, 38.548165 ] } }
{ "type": "Feature", "tippecanoe": { "layer": "2AFCA898EDA01583919021583", "minzoom": 2, "maxzoom": 8 }, "properties": { "halo": 1.6, "title": "巴斯塔尼人", "fontsize": 12, "tyid": "304001", "oid": "103:1576575142668", "color": "#0056E7" }, "geometry": { "type": "Point", "coordinates": [ -2.988281, 37.370157 ] } }
{ "type": "Feature", "tippecanoe": { "layer": "2AFCA898EDA01583919021583", "minzoom": 2, "maxzoom": 8 }, "properties": { "halo": 1.6, "title": "凯尔特伊比利亚人", "fontsize": 12, "tyid": "304001", "oid": "103:1576575142722", "color": "#0056E7" }, "geometry": { "type": "Point", "coordinates": [ -2.197266, 40.780541 ] } }
{ "type": "Feature", "tippecanoe": { "layer": "2AFCA898EDA01583919021583", "minzoom": 2, "maxzoom": 8 }, "properties": { "halo": 1.6, "title": "达尔蒂奇特文化", "fontsize": 12, "tyid": "304002", "oid": "103:1576575142647", "color": "#0056E7" }, "geometry": { "type": "Point", "coordinates": [ -9.404297, 18.895893 ] } }
{ "type": "Feature", "tippecanoe": { "layer": "2AFCA898EDA01583919021583", "minzoom": 2, "maxzoom": 8 }, "properties": { "halo": 1.6, "title": "科瑞尔文化", "fontsize": 12, "tyid": "304002", "oid": "103:1576575143164", "color": "#0056E7" }, "geometry": { "type": "Point", "coordinates": [ -79.716797, -0.790990 ] } }
{ "type": "Feature", "tippecanoe": { "layer": "2AFCA898EDA01583919021583", "minzoom": 2, "maxzoom": 8 }, "properties": { "halo": 1.6, "title": "库皮尼克文化", "fontsize": 12, "tyid": "304002", "oid": "103:1576575143166", "color": "#0056E7" }, "geometry": { "type": "Point", "coordinates": [ -80.068359, -6.053161 ] } }
{ "type": "Feature", "tippecanoe": { "layer": "2AFCA898EDA01583919021583", "minzoom": 2, "maxzoom": 8 }, "properties": { "halo": 1.6, "title": "楚真文化", "fontsize": 12, "tyid": "304002", "oid": "103:1576575142744", "color": "#0056E7" }, "geometry": { "type": "Point", "coordinates": [ -70.576172, -16.299051 ] } }
{ "type": "Feature", "tippecanoe": { "layer": "2AFCA898EDA01583919021583", "minzoom": 2, "maxzoom": 8 }, "properties": { "halo": 1.6, "title": "普卡拉文化", "fontsize": 12, "tyid": "304002", "oid": "103:1576575142901", "color": "#0056E7" }, "geometry": { "type": "Point", "coordinates": [ -69.960938, -14.179186 ] } }
{ "type": "Feature", "tippecanoe": { "layer": "2AFCA898EDA01583919021583", "minzoom": 2, "maxzoom": 8 }, "properties": { "halo": 1.6, "title": "艾马拉人", "fontsize": 12, "tyid": "304001", "oid": "103:1576575142539", "color": "#0056E7" }, "geometry": { "type": "Point", "coordinates": [ -68.378906, -17.056785 ] } }
{ "type": "Feature", "tippecanoe": { "layer": "2AFCA898EDA01583919021583", "minzoom": 2, "maxzoom": 8 }, "properties": { "halo": 1.6, "title": "安西尔塔文化", "fontsize": 12, "tyid": "304002", "oid": "103:1576575142776", "color": "#0056E7" }, "geometry": { "type": "Point", "coordinates": [ -68.818359, -31.353637 ] } }
{ "type": "Feature", "tippecanoe": { "layer": "2AFCA898EDA01583919021583", "minzoom": 2, "maxzoom": 8 }, "properties": { "halo": 1.6, "title": "巴托文化", "fontsize": 12, "tyid": "304002", "oid": "103:1576575142747", "color": "#0056E7" }, "geometry": { "type": "Point", "coordinates": [ -70.839844, -33.431441 ] } }
{ "type": "Feature", "tippecanoe": { "layer": "2AFCA898EDA01583919021583", "minzoom": 2, "maxzoom": 8 }, "properties": { "halo": 1.6, "title": "摩克索人", "fontsize": 12, "tyid": "304001", "oid": "103:1576575142607", "color": "#0056E7" }, "geometry": { "type": "Point", "coordinates": [ -65.830078, -13.923404 ] } }
{ "type": "Feature", "tippecanoe": { "layer": "2AFCA898EDA01583919021583", "minzoom": 2, "maxzoom": 8 }, "properties": { "halo": 1.6, "title": "瓦卡拉尼文化", "fontsize": 12, "tyid": "304002", "oid": "103:1576575142795", "color": "#0056E7" }, "geometry": { "type": "Point", "coordinates": [ -64.951172, -17.811456 ] } }
{ "type": "Feature", "tippecanoe": { "layer": "2AFCA898EDA01583919021583", "minzoom": 2, "maxzoom": 8 }, "properties": { "halo": 1.6, "title": "查鲁亚人", "fontsize": 12, "tyid": "304001", "oid": "103:1576575143237", "color": "#0056E7" }, "geometry": { "type": "Point", "coordinates": [ -57.128906, -32.398516 ] } }
{ "type": "Feature", "tippecanoe": { "layer": "2AFCA898EDA01583919021583", "minzoom": 2, "maxzoom": 8 }, "properties": { "halo": 1.6, "title": "特胡尔切人", "fontsize": 12, "tyid": "304001", "oid": "103:1576575143163", "color": "#0056E7" }, "geometry": { "type": "Point", "coordinates": [ -70.751953, -50.176898 ] } }
{ "type": "Feature", "tippecanoe": { "layer": "2AFCA898EDA01583919021583", "minzoom": 2, "maxzoom": 8 }, "properties": { "halo": 1.6, "title": "塞尔克南人", "fontsize": 12, "tyid": "304001", "oid": "103:1576575143040", "color": "#0056E7" }, "geometry": { "type": "Point", "coordinates": [ -68.378906, -53.696706 ] } }
{ "type": "Feature", "tippecanoe": { "layer": "2AFCA898EDA01583919021583", "minzoom": 2, "maxzoom": 8 }, "properties": { "halo": 1.6, "title": "雅干人", "fontsize": 12, "tyid": "304001", "oid": "103:1576575142697", "color": "#0056E7" }, "geometry": { "type": "Point", "coordinates": [ -68.554688, -54.521081 ] } }
{ "type": "Feature", "tippecanoe": { "layer": "2AFCA898EDA01583919021583", "minzoom": 2, "maxzoom": 8 }, "properties": { "halo": 1.6, "title": "洪斯吕克-埃菲尔文化", "fontsize": 12, "tyid": "304002", "oid": "103:1576575142557", "color": "#0056E7" }, "geometry": { "type": "Point", "coordinates": [ 7.031250, 49.951220 ] } }
{ "type": "Feature", "tippecanoe": { "layer": "2AFCA898EDA01583919021583", "minzoom": 2, "maxzoom": 8 }, "properties": { "halo": 1.6, "title": "屋瓮文化", "fontsize": 12, "tyid": "304002", "oid": "103:1576575142919", "color": "#0056E7" }, "geometry": { "type": "Point", "coordinates": [ 10.810547, 51.399206 ] } }
{ "type": "Feature", "tippecanoe": { "layer": "2AFCA898EDA01583919021583", "minzoom": 2, "maxzoom": 8 }, "properties": { "halo": 1.6, "title": "伊勒格泰人", "fontsize": 12, "tyid": "304001", "oid": "103:1576575142719", "color": "#0056E7" }, "geometry": { "type": "Point", "coordinates": [ 0.351562, 42.228517 ] } }
{ "type": "Feature", "tippecanoe": { "layer": "2AFCA898EDA01583919021583", "minzoom": 2, "maxzoom": 8 }, "properties": { "halo": 1.6, "title": "利古里亚人", "fontsize": 12, "tyid": "304002", "oid": "103:1576575142698", "color": "#0056E7" }, "geometry": { "type": "Point", "coordinates": [ 8.173828, 44.527843 ] } }
{ "type": "Feature", "tippecanoe": { "layer": "2AFCA898EDA01583919021583", "minzoom": 2, "maxzoom": 8 }, "properties": { "halo": 1.6, "title": "亚斯托夫文化", "fontsize": 12, "tyid": "304002", "oid": "103:1576575143274", "color": "#0056E7" }, "geometry": { "type": "Point", "coordinates": [ 11.337891, 53.173119 ] } }
{ "type": "Feature", "tippecanoe": { "layer": "2AFCA898EDA01583919021583", "minzoom": 2, "maxzoom": 8 }, "properties": { "halo": 1.6, "title": "骨壶墓地文化", "fontsize": 12, "tyid": "304002", "oid": "103:1576575143210", "color": "#0056E7" }, "geometry": { "type": "Point", "coordinates": [ 13.886719, 51.727028 ] } }
{ "type": "Feature", "tippecanoe": { "layer": "2AFCA898EDA01583919021583", "minzoom": 2, "maxzoom": 8 }, "properties": { "halo": 1.6, "title": "西波罗的海坟文化", "fontsize": 12, "tyid": "304002", "oid": "103:1576575142910", "color": "#0056E7" }, "geometry": { "type": "Point", "coordinates": [ 21.708984, 54.213861 ] } }
{ "type": "Feature", "tippecanoe": { "layer": "2AFCA898EDA01583919021583", "minzoom": 2, "maxzoom": 8 }, "properties": { "halo": 1.6, "title": "弗利岑斯-桑泽诺文化", "fontsize": 12, "tyid": "304002", "oid": "103:1576575142551", "color": "#0056E7" }, "geometry": { "type": "Point", "coordinates": [ 11.337891, 46.619261 ] } }
{ "type": "Feature", "tippecanoe": { "layer": "2AFCA898EDA01583919021583", "minzoom": 2, "maxzoom": 8 }, "properties": { "halo": 1.6, "title": "威尼蒂人[亚得里亚海]", "fontsize": 12, "tyid": "304001", "oid": "103:1576575142563", "color": "#0056E7" }, "geometry": { "type": "Point", "coordinates": [ 11.425781, 45.460131 ] } }
{ "type": "Feature", "tippecanoe": { "layer": "2AFCA898EDA01583919021583", "minzoom": 2, "maxzoom": 8 }, "properties": { "halo": 1.6, "title": "伊特鲁里亚文明", "fontsize": 12, "tyid": "304002", "oid": "103:1576575143194", "color": "#0056E7" }, "geometry": { "type": "Point", "coordinates": [ 11.250000, 43.771094 ] } }
{ "type": "Feature", "tippecanoe": { "layer": "2AFCA898EDA01583919021583", "minzoom": 2, "maxzoom": 8 }, "properties": { "halo": 1.6, "title": "萨莫奈人", "fontsize": 12, "tyid": "304001", "oid": "103:1576575143044", "color": "#0056E7" }, "geometry": { "type": "Point", "coordinates": [ 14.501953, 41.310824 ] } }
{ "type": "Feature", "tippecanoe": { "layer": "2AFCA898EDA01583919021583", "minzoom": 2, "maxzoom": 8 }, "properties": { "halo": 1.6, "title": "伊利里亚人", "fontsize": 12, "tyid": "304001", "oid": "103:1576575142627", "color": "#0056E7" }, "geometry": { "type": "Point", "coordinates": [ 17.841797, 43.834527 ] } }
{ "type": "Feature", "tippecanoe": { "layer": "2AFCA898EDA01583919021583", "minzoom": 2, "maxzoom": 8 }, "properties": { "halo": 1.6, "title": "达尔达尼亚人", "fontsize": 12, "tyid": "304001", "oid": "103:1576575143035", "color": "#0056E7" }, "geometry": { "type": "Point", "coordinates": [ 21.533203, 43.644026 ] } }
{ "type": "Feature", "tippecanoe": { "layer": "2AFCA898EDA01583919021583", "minzoom": 2, "maxzoom": 8 }, "properties": { "halo": 1.6, "title": "古爱沙尼亚人", "fontsize": 12, "tyid": "304001", "oid": "103:1576575142985", "color": "#0056E7" }, "geometry": { "type": "Point", "coordinates": [ 25.576172, 58.950008 ] } }
{ "type": "Feature", "tippecanoe": { "layer": "2AFCA898EDA01583919021583", "minzoom": 2, "maxzoom": 8 }, "properties": { "halo": 1.6, "title": "利沃尼亚人", "fontsize": 12, "tyid": "304001", "oid": "103:1576575143276", "color": "#0056E7" }, "geometry": { "type": "Point", "coordinates": [ 26.279297, 57.231503 ] } }
{ "type": "Feature", "tippecanoe": { "layer": "2AFCA898EDA01583919021583", "minzoom": 2, "maxzoom": 8 }, "properties": { "halo": 1.6, "title": "沃茨人", "fontsize": 12, "tyid": "304001", "oid": "103:1576575143211", "color": "#0056E7" }, "geometry": { "type": "Point", "coordinates": [ 29.794922, 59.040555 ] } }
{ "type": "Feature", "tippecanoe": { "layer": "2AFCA898EDA01583919021583", "minzoom": 2, "maxzoom": 8 }, "properties": { "halo": 1.6, "title": "卡累利阿文化", "fontsize": 12, "tyid": "304002", "oid": "103:1576575142857", "color": "#0056E7" }, "geometry": { "type": "Point", "coordinates": [ 34.804688, 62.552857 ] } }
{ "type": "Feature", "tippecanoe": { "layer": "2AFCA898EDA01583919021583", "minzoom": 2, "maxzoom": 8 }, "properties": { "halo": 1.6, "title": "阴影陶文化", "fontsize": 12, "tyid": "304002", "oid": "103:1576575142923", "color": "#0056E7" }, "geometry": { "type": "Point", "coordinates": [ 24.785156, 55.627996 ] } }
{ "type": "Feature", "tippecanoe": { "layer": "2AFCA898EDA01583919021583", "minzoom": 2, "maxzoom": 8 }, "properties": { "halo": 1.6, "title": "盖塔人", "fontsize": 12, "tyid": "304001", "oid": "103:1576575143133", "color": "#0056E7" }, "geometry": { "type": "Point", "coordinates": [ 27.246094, 44.213710 ] } }
{ "type": "Feature", "tippecanoe": { "layer": "2AFCA898EDA01583919021583", "minzoom": 2, "maxzoom": 8 }, "properties": { "halo": 1.6, "title": "色雷斯人", "fontsize": 12, "tyid": "304001", "oid": "103:1576575142587", "color": "#0056E7" }, "geometry": { "type": "Point", "coordinates": [ 25.664062, 42.293564 ] } }
{ "type": "Feature", "tippecanoe": { "layer": "2AFCA898EDA01583919021583", "minzoom": 2, "maxzoom": 8 }, "properties": { "halo": 1.6, "title": "上奥卡文化", "fontsize": 12, "tyid": "304002", "oid": "103:1576575142964", "color": "#0056E7" }, "geometry": { "type": "Point", "coordinates": [ 37.177734, 53.278353 ] } }
{ "type": "Feature", "tippecanoe": { "layer": "2AFCA898EDA01583919021583", "minzoom": 2, "maxzoom": 8 }, "properties": { "halo": 1.6, "title": "梅田人", "fontsize": 12, "tyid": "304001", "oid": "103:1576575142800", "color": "#0056E7" }, "geometry": { "type": "Point", "coordinates": [ 39.023438, 46.073231 ] } }
{ "type": "Feature", "tippecanoe": { "layer": "2AFCA898EDA01583919021583", "minzoom": 2, "maxzoom": 8 }, "properties": { "halo": 1.6, "title": "辛迪人", "fontsize": 12, "tyid": "304001", "oid": "103:1576575142750", "color": "#0056E7" }, "geometry": { "type": "Point", "coordinates": [ 38.408203, 44.777936 ] } }
{ "type": "Feature", "tippecanoe": { "layer": "2AFCA898EDA01583919021583", "minzoom": 2, "maxzoom": 8 }, "properties": { "halo": 1.8, "title": "科尔基斯王国", "fontsize": 12, "tyid": "304000", "oid": "103:1576575142891", "color": "#0056E7" }, "geometry": { "type": "Point", "coordinates": [ 42.539062, 42.228517 ] } }
{ "type": "Feature", "tippecanoe": { "layer": "2AFCA898EDA01583919021583", "minzoom": 2, "maxzoom": 8 }, "properties": { "halo": 1.8, "title": "迦太基帝国", "fontsize": 12, "tyid": "304000", "oid": "103:1576575143198", "color": "#0056E7" }, "geometry": { "type": "Point", "coordinates": [ 9.404297, 36.315125 ] } }
{ "type": "Feature", "tippecanoe": { "layer": "2AFCA898EDA01583919021583", "minzoom": 2, "maxzoom": 8 }, "properties": { "halo": 1.6, "title": "奥尼诺特里人", "fontsize": 12, "tyid": "304001", "oid": "103:1576575142761", "color": "#0056E7" }, "geometry": { "type": "Point", "coordinates": [ 16.171875, 39.909736 ] } }
{ "type": "Feature", "tippecanoe": { "layer": "2AFCA898EDA01583919021583", "minzoom": 2, "maxzoom": 8 }, "properties": { "halo": 1.8, "title": "马其顿王国", "fontsize": 12, "tyid": "304000", "oid": "103:1576575143037", "color": "#0056E7" }, "geometry": { "type": "Point", "coordinates": [ 22.148438, 40.713956 ] } }
{ "type": "Feature", "tippecanoe": { "layer": "2AFCA898EDA01583919021583", "minzoom": 2, "maxzoom": 8 }, "properties": { "halo": 1.6, "title": "爱奥尼亚人", "fontsize": 12, "tyid": "304001", "oid": "103:1576575143192", "color": "#0056E7" }, "geometry": { "type": "Point", "coordinates": [ 22.060547, 39.164141 ] } }
{ "type": "Feature", "tippecanoe": { "layer": "2AFCA898EDA01583919021583", "minzoom": 2, "maxzoom": 8 }, "properties": { "halo": 1.6, "title": "约鲁巴人", "fontsize": 12, "tyid": "304001", "oid": "103:1576575143253", "color": "#0056E7" }, "geometry": { "type": "Point", "coordinates": [ 3.427734, 7.536764 ] } }
{ "type": "Feature", "tippecanoe": { "layer": "2AFCA898EDA01583919021583", "minzoom": 2, "maxzoom": 8 }, "properties": { "halo": 1.6, "title": "伊博人", "fontsize": 12, "tyid": "304001", "oid": "103:1576575143252", "color": "#0056E7" }, "geometry": { "type": "Point", "coordinates": [ 8.173828, 5.878332 ] } }
{ "type": "Feature", "tippecanoe": { "layer": "2AFCA898EDA01583919021583", "minzoom": 2, "maxzoom": 8 }, "properties": { "halo": 1.6, "title": "塔巴尔人", "fontsize": 12, "tyid": "304001", "oid": "103:1576575143095", "color": "#0056E7" }, "geometry": { "type": "Point", "coordinates": [ 35.156250, 38.410558 ] } }
{ "type": "Feature", "tippecanoe": { "layer": "2AFCA898EDA01583919021583", "minzoom": 2, "maxzoom": 8 }, "properties": { "halo": 1.6, "title": "弗里吉亚人", "fontsize": 12, "tyid": "304001", "oid": "103:1576575142998", "color": "#0056E7" }, "geometry": { "type": "Point", "coordinates": [ 36.826172, 39.639538 ] } }
{ "type": "Feature", "tippecanoe": { "layer": "2AFCA898EDA01583919021583", "minzoom": 2, "maxzoom": 8 }, "properties": { "halo": 1.6, "title": "庞蒂克希腊人", "fontsize": 12, "tyid": "304001", "oid": "103:1576575142999", "color": "#0056E7" }, "geometry": { "type": "Point", "coordinates": [ 38.671875, 40.847060 ] } }
{ "type": "Feature", "tippecanoe": { "layer": "2AFCA898EDA01583919021583", "minzoom": 2, "maxzoom": 8 }, "properties": { "halo": 1.6, "title": "布雷米耶国", "fontsize": 12, "tyid": "304001", "oid": "103:1576575142586", "color": "#0056E7" }, "geometry": { "type": "Point", "coordinates": [ 34.628906, 22.105999 ] } }
{ "type": "Feature", "tippecanoe": { "layer": "2AFCA898EDA01583919021583", "minzoom": 2, "maxzoom": 8 }, "properties": { "halo": 1.8, "title": "库施王国", "fontsize": 12, "tyid": "304000", "oid": "103:1576575143067", "color": "#0056E7" }, "geometry": { "type": "Point", "coordinates": [ 31.992188, 18.895893 ] } }
{ "type": "Feature", "tippecanoe": { "layer": "2AFCA898EDA01583919021583", "minzoom": 2, "maxzoom": 8 }, "properties": { "halo": 1.8, "title": "达姆特王国", "fontsize": 12, "tyid": "304000", "oid": "103:1576575142621", "color": "#0056E7" }, "geometry": { "type": "Point", "coordinates": [ 38.671875, 15.368950 ] } }
{ "type": "Feature", "tippecanoe": { "layer": "2AFCA898EDA01583919021583", "minzoom": 2, "maxzoom": 8 }, "properties": { "halo": 1.8, "title": "迈因王国", "fontsize": 12, "tyid": "304000", "oid": "103:1576575142827", "color": "#0056E7" }, "geometry": { "type": "Point", "coordinates": [ 44.824219, 16.299051 ] } }
{ "type": "Feature", "tippecanoe": { "layer": "2AFCA898EDA01583919021583", "minzoom": 2, "maxzoom": 8 }, "properties": { "halo": 1.8, "title": "塞巴王国", "fontsize": 12, "tyid": "304000", "oid": "103:1576575143175", "color": "#0056E7" }, "geometry": { "type": "Point", "coordinates": [ 44.472656, 14.859850 ] } }
{ "type": "Feature", "tippecanoe": { "layer": "2AFCA898EDA01583919021583", "minzoom": 2, "maxzoom": 8 }, "properties": { "halo": 1.6, "title": "巴泽雷克文化", "fontsize": 12, "tyid": "304002", "oid": "103:1576575142889", "color": "#0056E7" }, "geometry": { "type": "Point", "coordinates": [ 86.923828, 50.513427 ] } }
{ "type": "Feature", "tippecanoe": { "layer": "2AFCA898EDA01583919021583", "minzoom": 2, "maxzoom": 8 }, "properties": { "halo": 1.6, "title": "索墩布拉克文化", "fontsize": 12, "tyid": "304002", "oid": "103:1576575143068", "color": "#0056E7" }, "geometry": { "type": "Point", "coordinates": [ 81.738281, 43.325178 ] } }
{ "type": "Feature", "tippecanoe": { "layer": "2AFCA898EDA01583919021583", "minzoom": 2, "maxzoom": 8 }, "properties": { "halo": 1.6, "title": "苏贝希文化", "fontsize": 12, "tyid": "304002", "oid": "103:1576575142837", "color": "#0056E7" }, "geometry": { "type": "Point", "coordinates": [ 88.505859, 43.644026 ] } }
{ "type": "Feature", "tippecanoe": { "layer": "2AFCA898EDA01583919021583", "minzoom": 2, "maxzoom": 8 }, "properties": { "halo": 1.6, "title": "高加索阿尔巴尼亚人", "fontsize": 12, "tyid": "304001", "oid": "103:1576575142887", "color": "#0056E7" }, "geometry": { "type": "Point", "coordinates": [ 48.691406, 40.580585 ] } }
{ "type": "Feature", "tippecanoe": { "layer": "2AFCA898EDA01583919021583", "minzoom": 2, "maxzoom": 8 }, "properties": { "halo": 1.6, "title": "里海人", "fontsize": 12, "tyid": "304001", "oid": "103:1576575143081", "color": "#0056E7" }, "geometry": { "type": "Point", "coordinates": [ 48.339844, 39.300299 ] } }
{ "type": "Feature", "tippecanoe": { "layer": "2AFCA898EDA01583919021583", "minzoom": 2, "maxzoom": 8 }, "properties": { "halo": 1.6, "title": "大益人", "fontsize": 12, "tyid": "304001", "oid": "103:1576575142906", "color": "#0056E7" }, "geometry": { "type": "Point", "coordinates": [ 55.458984, 40.245992 ] } }
{ "type": "Feature", "tippecanoe": { "layer": "2AFCA898EDA01583919021583", "minzoom": 2, "maxzoom": 8 }, "properties": { "halo": 1.8, "title": "阿契美尼德王国", "fontsize": 12, "tyid": "304000", "oid": "103:1576575143290", "color": "#0056E7" }, "geometry": { "type": "Point", "coordinates": [ 52.646484, 29.535230 ] } }
{ "type": "Feature", "tippecanoe": { "layer": "2AFCA898EDA01583919021583", "minzoom": 2, "maxzoom": 8 }, "properties": { "halo": 1.6, "title": "马干", "fontsize": 12, "tyid": "304002", "oid": "103:1576575142708", "color": "#0056E7" }, "geometry": { "type": "Point", "coordinates": [ 57.656250, 23.322080 ] } }
{ "type": "Feature", "tippecanoe": { "layer": "2AFCA898EDA01583919021583", "minzoom": 2, "maxzoom": 8 }, "properties": { "halo": 1.8, "title": "奥桑王国", "fontsize": 12, "tyid": "304000", "oid": "103:1576575143288", "color": "#0056E7" }, "geometry": { "type": "Point", "coordinates": [ 46.142578, 13.923404 ] } }
{ "type": "Feature", "tippecanoe": { "layer": "2AFCA898EDA01583919021583", "minzoom": 2, "maxzoom": 8 }, "properties": { "halo": 1.8, "title": "阿德王国", "fontsize": 12, "tyid": "304000", "oid": "103:1576575143282", "color": "#0056E7" }, "geometry": { "type": "Point", "coordinates": [ 52.294922, 18.812718 ] } }
{ "type": "Feature", "tippecanoe": { "layer": "2AFCA898EDA01583919021583", "minzoom": 2, "maxzoom": 8 }, "properties": { "halo": 1.8, "title": "哈德拉毛王国", "fontsize": 12, "tyid": "304000", "oid": "103:1576575143123", "color": "#0056E7" }, "geometry": { "type": "Point", "coordinates": [ 51.064453, 16.383391 ] } }
{ "type": "Feature", "tippecanoe": { "layer": "2AFCA898EDA01583919021583", "minzoom": 2, "maxzoom": 8 }, "properties": { "halo": 1.8, "title": "剑浮沙国", "fontsize": 12, "tyid": "304000", "oid": "103:1576575142903", "color": "#0056E7" }, "geometry": { "type": "Point", "coordinates": [ 71.630859, 34.234512 ] } }
{ "type": "Feature", "tippecanoe": { "layer": "2AFCA898EDA01583919021583", "minzoom": 2, "maxzoom": 8 }, "properties": { "halo": 1.8, "title": "犍陀罗第一王国", "fontsize": 12, "tyid": "304000", "oid": "103:1576575142735", "color": "#0056E7" }, "geometry": { "type": "Point", "coordinates": [ 72.509766, 33.284620 ] } }
{ "type": "Feature", "tippecanoe": { "layer": "2AFCA898EDA01583919021583", "minzoom": 2, "maxzoom": 8 }, "properties": { "halo": 1.6, "title": "阿比萨雷斯人", "fontsize": 12, "tyid": "304001", "oid": "103:1576575142856", "color": "#0056E7" }, "geometry": { "type": "Point", "coordinates": [ 73.564453, 32.546813 ] } }
{ "type": "Feature", "tippecanoe": { "layer": "2AFCA898EDA01583919021583", "minzoom": 2, "maxzoom": 8 }, "properties": { "halo": 1.8, "title": "哥兰迪亚王朝", "fontsize": 12, "tyid": "304000", "oid": "103:1576575142920", "color": "#0056E7" }, "geometry": { "type": "Point", "coordinates": [ 74.970703, 34.016242 ] } }
{ "type": "Feature", "tippecanoe": { "layer": "2AFCA898EDA01583919021583", "minzoom": 2, "maxzoom": 8 }, "properties": { "halo": 1.8, "title": "信度古王国", "fontsize": 12, "tyid": "304000", "oid": "103:1576575142692", "color": "#0056E7" }, "geometry": { "type": "Point", "coordinates": [ 69.785156, 28.613459 ] } }
{ "type": "Feature", "tippecanoe": { "layer": "2AFCA898EDA01583919021583", "minzoom": 2, "maxzoom": 8 }, "properties": { "halo": 1.8, "title": "摩差国", "fontsize": 12, "tyid": "304000", "oid": "103:1576575142695", "color": "#0056E7" }, "geometry": { "type": "Point", "coordinates": [ 75.234375, 27.137368 ] } }
{ "type": "Feature", "tippecanoe": { "layer": "2AFCA898EDA01583919021583", "minzoom": 2, "maxzoom": 8 }, "properties": { "halo": 1.8, "title": "俱卢国", "fontsize": 12, "tyid": "304000", "oid": "103:1576575142791", "color": "#0056E7" }, "geometry": { "type": "Point", "coordinates": [ 76.201172, 29.840644 ] } }
{ "type": "Feature", "tippecanoe": { "layer": "2AFCA898EDA01583919021583", "minzoom": 2, "maxzoom": 8 }, "properties": { "halo": 1.8, "title": "苏罗娑国", "fontsize": 12, "tyid": "304000", "oid": "103:1576575142927", "color": "#0056E7" }, "geometry": { "type": "Point", "coordinates": [ 77.695312, 26.509905 ] } }
{ "type": "Feature", "tippecanoe": { "layer": "2AFCA898EDA01583919021583", "minzoom": 2, "maxzoom": 8 }, "properties": { "halo": 1.8, "title": "般遮罗国", "fontsize": 12, "tyid": "304000", "oid": "103:1576575142573", "color": "#0056E7" }, "geometry": { "type": "Point", "coordinates": [ 79.189453, 27.916767 ] } }
{ "type": "Feature", "tippecanoe": { "layer": "2AFCA898EDA01583919021583", "minzoom": 2, "maxzoom": 8 }, "properties": { "halo": 1.8, "title": "拘萨罗国", "fontsize": 12, "tyid": "304000", "oid": "103:1576575142839", "color": "#0056E7" }, "geometry": { "type": "Point", "coordinates": [ 81.738281, 27.527758 ] } }
{ "type": "Feature", "tippecanoe": { "layer": "2AFCA898EDA01583919021583", "minzoom": 2, "maxzoom": 8 }, "properties": { "halo": 1.8, "title": "克拉底王国", "fontsize": 12, "tyid": "304000", "oid": "103:1576575142991", "color": "#0056E7" }, "geometry": { "type": "Point", "coordinates": [ 83.320312, 28.226970 ] } }
{ "type": "Feature", "tippecanoe": { "layer": "2AFCA898EDA01583919021583", "minzoom": 2, "maxzoom": 8 }, "properties": { "halo": 1.8, "title": "跋蹉国", "fontsize": 12, "tyid": "304000", "oid": "103:1576575142946", "color": "#0056E7" }, "geometry": { "type": "Point", "coordinates": [ 80.771484, 25.878994 ] } }
{ "type": "Feature", "tippecanoe": { "layer": "2AFCA898EDA01583919021583", "minzoom": 2, "maxzoom": 8 }, "properties": { "halo": 1.8, "title": "车底国", "fontsize": 12, "tyid": "304000", "oid": "103:1576575142977", "color": "#0056E7" }, "geometry": { "type": "Point", "coordinates": [ 79.804688, 24.447150 ] } }
{ "type": "Feature", "tippecanoe": { "layer": "2AFCA898EDA01583919021583", "minzoom": 2, "maxzoom": 8 }, "properties": { "halo": 1.8, "title": "迦尸国", "fontsize": 12, "tyid": "304000", "oid": "103:1576575142843", "color": "#0056E7" }, "geometry": { "type": "Point", "coordinates": [ 82.705078, 25.403585 ] } }
{ "type": "Feature", "tippecanoe": { "layer": "2AFCA898EDA01583919021583", "minzoom": 2, "maxzoom": 8 }, "properties": { "halo": 1.8, "title": "末罗国", "fontsize": 12, "tyid": "304000", "oid": "103:1576575142968", "color": "#0056E7" }, "geometry": { "type": "Point", "coordinates": [ 83.935547, 26.667096 ] } }
{ "type": "Feature", "tippecanoe": { "layer": "2AFCA898EDA01583919021583", "minzoom": 2, "maxzoom": 8 }, "properties": { "halo": 1.8, "title": "跋阇国", "fontsize": 12, "tyid": "304000", "oid": "103:1576575143082", "color": "#0056E7" }, "geometry": { "type": "Point", "coordinates": [ 85.517578, 26.509905 ] } }
{ "type": "Feature", "tippecanoe": { "layer": "2AFCA898EDA01583919021583", "minzoom": 2, "maxzoom": 8 }, "properties": { "halo": 1.8, "title": "摩揭陀诃黎王朝", "fontsize": 12, "tyid": "304000", "oid": "103:1576575143086", "color": "#0056E7" }, "geometry": { "type": "Point", "coordinates": [ 85.078125, 24.766785 ] } }
{ "type": "Feature", "tippecanoe": { "layer": "2AFCA898EDA01583919021583", "minzoom": 2, "maxzoom": 8 }, "properties": { "halo": 1.8, "title": "鸯伽国", "fontsize": 12, "tyid": "304000", "oid": "103:1576575142659", "color": "#0056E7" }, "geometry": { "type": "Point", "coordinates": [ 87.626953, 25.005973 ] } }
{ "type": "Feature", "tippecanoe": { "layer": "2AFCA898EDA01583919021583", "minzoom": 2, "maxzoom": 8 }, "properties": { "halo": 1.8, "title": "蓬德拉王国", "fontsize": 12, "tyid": "304000", "oid": "103:1576575142845", "color": "#0056E7" }, "geometry": { "type": "Point", "coordinates": [ 89.648438, 24.287027 ] } }
{ "type": "Feature", "tippecanoe": { "layer": "2AFCA898EDA01583919021583", "minzoom": 2, "maxzoom": 8 }, "properties": { "halo": 1.8, "title": "阿湿波国", "fontsize": 12, "tyid": "304000", "oid": "103:1576575142738", "color": "#0056E7" }, "geometry": { "type": "Point", "coordinates": [ 79.628906, 19.228177 ] } }
{ "type": "Feature", "tippecanoe": { "layer": "2AFCA898EDA01583919021583", "minzoom": 2, "maxzoom": 8 }, "properties": { "halo": 1.8, "title": "安度罗国", "fontsize": 12, "tyid": "304000", "oid": "103:1576575143258", "color": "#0056E7" }, "geometry": { "type": "Point", "coordinates": [ 80.771484, 16.636192 ] } }
{ "type": "Feature", "tippecanoe": { "layer": "2AFCA898EDA01583919021583", "minzoom": 2, "maxzoom": 8 }, "properties": { "halo": 1.8, "title": "羯陵伽国", "fontsize": 12, "tyid": "304000", "oid": "103:1576575143059", "color": "#0056E7" }, "geometry": { "type": "Point", "coordinates": [ 84.638672, 20.220966 ] } }
{ "type": "Feature", "tippecanoe": { "layer": "2AFCA898EDA01583919021583", "minzoom": 2, "maxzoom": 8 }, "properties": { "halo": 1.6, "title": "阿迪贝尔文化", "fontsize": 12, "tyid": "304002", "oid": "103:1576575142620", "color": "#0056E7" }, "geometry": { "type": "Point", "coordinates": [ 95.273438, 53.067627 ] } }
{ "type": "Feature", "tippecanoe": { "layer": "2AFCA898EDA01583919021583", "minzoom": 2, "maxzoom": 8 }, "properties": { "halo": 1.6, "title": "后德冈王朝", "fontsize": 12, "tyid": "304001", "oid": "103:1576575143291", "color": "#0056E7" }, "geometry": { "type": "Point", "coordinates": [ 95.712891, 22.674847 ] } }
{ "type": "Feature", "tippecanoe": { "layer": "2AFCA898EDA01583919021583", "minzoom": 2, "maxzoom": 8 }, "properties": { "halo": 1.6, "title": "犬戎", "fontsize": 12, "tyid": "304001", "oid": "103:1576575142733", "color": "#0056E7" }, "geometry": { "type": "Point", "coordinates": [ 105.029297, 36.527295 ] } }
{ "type": "Feature", "tippecanoe": { "layer": "2AFCA898EDA01583919021583", "minzoom": 2, "maxzoom": 8 }, "properties": { "halo": 1.8, "title": "乌氏", "fontsize": 12, "tyid": "304000", "oid": "103:1576575143138", "color": "#0056E7" }, "geometry": { "type": "Point", "coordinates": [ 106.259766, 36.173357 ] } }
{ "type": "Feature", "tippecanoe": { "layer": "2AFCA898EDA01583919021583", "minzoom": 2, "maxzoom": 8 }, "properties": { "halo": 1.6, "title": "氐人", "fontsize": 12, "tyid": "304001", "oid": "103:1576575142957", "color": "#0056E7" }, "geometry": { "type": "Point", "coordinates": [ 104.589844, 33.358062 ] } }
{ "type": "Feature", "tippecanoe": { "layer": "2AFCA898EDA01583919021583", "minzoom": 2, "maxzoom": 8 }, "properties": { "halo": 1.8, "title": "朐衍", "fontsize": 12, "tyid": "304000", "oid": "103:1576575142548", "color": "#0056E7" }, "geometry": { "type": "Point", "coordinates": [ 107.402344, 38.272689 ] } }
{ "type": "Feature", "tippecanoe": { "layer": "2AFCA898EDA01583919021583", "minzoom": 2, "maxzoom": 8 }, "properties": { "halo": 1.6, "title": "白狄", "fontsize": 12, "tyid": "304001", "oid": "103:1576575142982", "color": "#0056E7" }, "geometry": { "type": "Point", "coordinates": [ 109.511719, 37.090240 ] } }
{ "type": "Feature", "tippecanoe": { "layer": "2AFCA898EDA01583919021583", "minzoom": 2, "maxzoom": 8 }, "properties": { "halo": 1.8, "title": "林胡", "fontsize": 12, "tyid": "304000", "oid": "103:1576575143061", "color": "#0056E7" }, "geometry": { "type": "Point", "coordinates": [ 109.775391, 40.313043 ] } }
{ "type": "Feature", "tippecanoe": { "layer": "2AFCA898EDA01583919021583", "minzoom": 2, "maxzoom": 8 }, "properties": { "halo": 1.8, "title": "楼烦", "fontsize": 12, "tyid": "304000", "oid": "103:1576575142666", "color": "#0056E7" }, "geometry": { "type": "Point", "coordinates": [ 111.884766, 39.639538 ] } }
{ "type": "Feature", "tippecanoe": { "layer": "2AFCA898EDA01583919021583", "minzoom": 2, "maxzoom": 8 }, "properties": { "halo": 1.8, "title": "义渠", "fontsize": 12, "tyid": "304000", "oid": "103:1576575142987", "color": "#0056E7" }, "geometry": { "type": "Point", "coordinates": [ 107.666016, 36.031332 ] } }
{ "type": "Feature", "tippecanoe": { "layer": "2AFCA898EDA01583919021583", "minzoom": 2, "maxzoom": 8 }, "properties": { "halo": 1.8, "title": "秦", "fontsize": 12, "tyid": "304000", "oid": "103:1576575143111", "color": "#0056E7" }, "geometry": { "type": "Point", "coordinates": [ 107.666016, 34.524661 ] } }
{ "type": "Feature", "tippecanoe": { "layer": "2AFCA898EDA01583919021583", "minzoom": 2, "maxzoom": 8 }, "properties": { "halo": 1.8, "title": "晋", "fontsize": 12, "tyid": "304000", "oid": "103:1576575143140", "color": "#0056E7" }, "geometry": { "type": "Point", "coordinates": [ 111.445312, 35.746512 ] } }
{ "type": "Feature", "tippecanoe": { "layer": "2AFCA898EDA01583919021583", "minzoom": 2, "maxzoom": 8 },